
[2023-10-29 23:13:28.209] Hello TSAT_P_P_001
[2023-10-29 23:13:29.879] Hello TSAT_P_P_001
[2023-10-29 23:13:30.337] $PMTK011,MTKGPS*08
[2023-10-29 23:13:30.359] 
[2023-10-29 23:13:30.359] $PMTK010,001*2E
[2023-10-29 23:13:30.378] 
[2023-10-29 23:13:31.138] $PMTK011,MTKGPS*08
[2023-10-29 23:13:31.163] 
[2023-10-29 23:13:31.163] $PMTK010,002*2D
[2023-10-29 23:13:31.178] 
[2023-10-29 23:13:31.213] $GPRMC,221331.436,V,,,,,0.00,0.00,291023,,,N,V*3D
[2023-10-29 23:13:31.266] 
[2023-10-29 23:13:31.270] $GPVTG,0.00,T,,M,0.00,N,0.00,K,N*32
[2023-10-29 23:13:31.308] 
[2023-10-29 23:13:31.312] $GPGGA,221331.436,,,,,0,0,,,M,,M,,*49
[2023-10-29 23:13:31.344] 
[2023-10-29 23:13:31.347] $GPGSA,A,1,,,,,,,,,,,,,,,,1*03
[2023-10-29 23:13:31.378] 
[2023-10-29 23:13:31.378] $GPGSA,A,1,,,,,,,,,,,,,,,,2*00
[2023-10-29 23:13:31.413] 
[2023-10-29 23:13:31.413] $GPGSV,3,1,12,29,69,071,,18,48,195,,26,46,296,,31,39,256,,0*6C
[2023-10-29 23:13:31.480] 
[2023-10-29 23:13:31.480] $GPGSV,3,2,12,05,31,081,,25,31,142,,28,29,227,,20,22,045,,0*6E
[2023-10-29 23:13:31.544] 
[2023-10-29 23:13:31.547] $GPGSV,3,3,12,16,20,304,27,09,04,347,,04,03,318,,11,02,042,,0*65
[2023-10-29 23:13:31.614] 
[2023-10-29 23:13:31.617] $GLGSV,1,1,03,82,71,033,,80,55,181,,81,22,048,,1*42
[2023-10-29 23:13:31.669] 
[2023-10-29 23:13:31.671] $GPGLL,,,,,221331.436,V,N*7B
[2023-10-29 23:13:31.701] 
[2023-10-29 23:13:31.701] $GPTXT,01,01,02,ANTSTATUS=OPEN*2B
[2023-10-29 23:13:31.741] 
[2023-10-29 23:13:31.741] $GPRMC,221331.590,V,,,,,0.02,0.00,291023,,,N,V*32
[2023-10-29 23:13:31.789] 
[2023-10-29 23:13:31.791] $GPVTG,0.00,T,,M,0.02,N,0.03,K,N*33
[2023-10-29 23:13:31.827] 
[2023-10-29 23:13:31.829] $GPGGA,221331.590,,,,,0,0,,,M,,M,,*44
[2023-10-29 23:13:31.868] 
[2023-10-29 23:13:31.870] $GPGSA,A,1,,,,,,,,,,,,,,,,1*03
[2023-10-29 23:13:31.904] 
[2023-10-29 23:13:31.904] $GPGSA,A,1,,,,,,,,,,,,,,,,2*00
[2023-10-29 23:13:31.936] 
[2023-10-29 23:13:31.936] $GPGSV,3,1,12,29,69,071,,18,48,195,,26,46,296,,31,39,256,,0*6C
[2023-10-29 23:13:32.006] 
[2023-10-29 23:13:32.006] $GPGSV,3,2,12,05,31,081,,25,31,142,,28,29,227,,20,22,045,,0*6E
[2023-10-29 23:13:32.068] 
[2023-10-29 23:13:32.073] $GPGSV,3,3,12,16,20,304,27,09,04,347,,04,03,318,,11,02,042,,0*65
[2023-10-29 23:13:32.139] 
[2023-10-29 23:13:32.144] $GLGSV,1,1,03,82,71,033,,80,55,181,,81,22,048,,1*42
[2023-10-29 23:13:32.192] 
[2023-10-29 23:13:32.192] $GPGLL,,,,,221331.590,V,N*76
[2023-10-29 23:13:32.224] 
[2023-10-29 23:13:32.224] $GPTXT,01,01,02,ANTSTATUS=OPEN*2B
[2023-10-29 23:13:32.263] 
[2023-10-29 23:13:32.365] $GPRMC,221332.590,V,,,,,0.15,0.00,291023,,,N,V*37
[2023-10-29 23:13:32.419] 
[2023-10-29 23:13:32.419] $GPVTG,0.00,T,,M,0.15,N,0.28,K,N*3C
[2023-10-29 23:13:32.456] 
[2023-10-29 23:13:32.458] $GPGGA,221332.590,,,,,0,0,,,M,,M,,*47
[2023-10-29 23:13:32.498] 
[2023-10-29 23:13:32.498] $GPGSA,A,1,,,,,,,,,,,,,,,,1*03
[2023-10-29 23:13:32.532] 
[2023-10-29 23:13:32.532] $GPGSA,A,1,,,,,,,,,,,,,,,,2*00
[2023-10-29 23:13:32.565] 
[2023-10-29 23:13:32.565] $GPGSV,3,1,12,29,69,071,,18,48,195,,26,46,296,,31,39,256,,0*6C
[2023-10-29 23:13:32.631] 
[2023-10-29 23:13:32.631] $GPGSV,3,2,12,05,31,081,23,25,31,142,,28,29,227,,20,22,045,,0*6F
[2023-10-29 23:13:32.699] 
[2023-10-29 23:13:32.699] $GPGSV,3,3,12,16,20,304,28,09,04,347,,04,03,318,,11,02,042,,0*6A
[2023-10-29 23:13:32.768] 
[2023-10-29 23:13:32.768] $GLGSV,1,1,03,82,71,033,,80,55,181,,81,22,048,,1*42
[2023-10-29 23:13:32.823] 
[2023-10-29 23:13:32.823] $GPGLL,,,,,221332.590,V,N*75
[2023-10-29 23:13:32.854] 
[2023-10-29 23:13:32.854] $GPTXT,01,01,02,ANTSTATUS=OPEN*2B
[2023-10-29 23:13:32.891] 
[2023-10-29 23:13:33.365] $GPRMC,221333.590,V,,,,,0.12,0.00,291023,,,N,V*31
[2023-10-29 23:13:33.417] 
[2023-10-29 23:13:33.419] $GPVTG,0.00,T,,M,0.12,N,0.23,K,N*30
[2023-10-29 23:13:33.460] 
[2023-10-29 23:13:33.460] $GPGGA,221333.590,,,,,0,0,,,M,,M,,*46
[2023-10-29 23:13:33.501] 
[2023-10-29 23:13:33.501] $GPGSA,A,1,,,,,,,,,,,,,,,,1*03
[2023-10-29 23:13:33.531] 
[2023-10-29 23:13:33.531] $GPGSA,A,1,,,,,,,,,,,,,,,,2*00
[2023-10-29 23:13:33.563] 
[2023-10-29 23:13:33.563] $GPGSV,3,1,12,29,69,071,,18,48,195,,26,46,296,,31,39,256,,0*6C
[2023-10-29 23:13:33.629] 
[2023-10-29 23:13:33.631] $GPGSV,3,2,12,05,31,081,23,25,31,142,,28,29,227,,20,22,045,,0*6F
[2023-10-29 23:13:33.699] 
[2023-10-29 23:13:33.699] $GPGSV,3,3,12,16,20,304,29,09,04,347,,04,03,318,,11,02,042,,0*6B
[2023-10-29 23:13:33.766] 
[2023-10-29 23:13:33.768] $GLGSV,1,1,03,82,71,033,,80,55,181,,81,22,048,,1*42
[2023-10-29 23:13:33.821] 
[2023-10-29 23:13:33.822] $GPGLL,,,,,221333.590,V,N*74
[2023-10-29 23:13:33.856] 
[2023-10-29 23:13:33.856] $GPTXT,01,01,02,ANTSTATUS=OPEN*2B
[2023-10-29 23:13:33.891] 
[2023-10-29 23:13:34.368] $GPRMC,221334.590,V,,,,,0.10,0.00,291023,,,N,V*34
[2023-10-29 23:13:34.421] 
[2023-10-29 23:13:34.423] $GPVTG,0.00,T,,M,0.10,N,0.19,K,N*3B
[2023-10-29 23:13:34.467] 
[2023-10-29 23:13:34.467] $GPGGA,221334.590,,,,,0,0,,,M,,M,,*41
[2023-10-29 23:13:34.499] 
[2023-10-29 23:13:34.499] $GPGSA,A,1,,,,,,,,,,,,,,,,1*03
[2023-10-29 23:13:34.532] 
[2023-10-29 23:13:34.534] $GPGSA,A,1,,,,,,,,,,,,,,,,2*00
[2023-10-29 23:13:34.567] 
[2023-10-29 23:13:34.567] $GPGSV,3,1,12,29,69,071,,18,48,195,,26,46,296,,31,39,256,,0*6C
[2023-10-29 23:13:34.631] 
[2023-10-29 23:13:34.633] $GPGSV,3,2,12,05,31,081,21,25,31,142,,28,29,227,,20,22,045,21,0*6E
[2023-10-29 23:13:34.704] 
[2023-10-29 23:13:34.704] $GPGSV,3,3,12,16,20,304,29,09,04,347,,04,03,318,,11,02,042,,0*6B
[2023-10-29 23:13:34.773] 
[2023-10-29 23:13:34.773] $GLGSV,1,1,03,82,71,033,,80,55,181,,81,22,048,,1*42
[2023-10-29 23:13:34.827] 
[2023-10-29 23:13:34.827] $GPGLL,,,,,221334.590,V,N*73
[2023-10-29 23:13:34.857] 
[2023-10-29 23:13:34.859] $GPTXT,01,01,02,ANTSTATUS=OPEN*2B
[2023-10-29 23:13:34.896] 
[2023-10-29 23:13:35.393] $GPRMC,221335.590,V,,,,,0.09,0.00,291023,,,N,V*3D
[2023-10-29 23:13:35.444] 
[2023-10-29 23:13:35.447] $GPVTG,0.00,T,,M,0.09,N,0.16,K,N*3C
[2023-10-29 23:13:35.486] 
[2023-10-29 23:13:35.488] $GPGGA,221335.590,,,,,0,0,,,M,,M,,*40
[2023-10-29 23:13:35.528] 
[2023-10-29 23:13:35.528] $GPGSA,A,1,,,,,,,,,,,,,,,,1*03
[2023-10-29 23:13:35.556] 
[2023-10-29 23:13:35.558] $GPGSA,A,1,,,,,,,,,,,,,,,,2*00
[2023-10-29 23:13:35.591] 
[2023-10-29 23:13:35.591] $GPGSV,3,1,12,29,69,071,,18,48,195,,26,46,296,,31,39,256,,0*6C
[2023-10-29 23:13:35.657] 
[2023-10-29 23:13:35.657] $GPGSV,3,2,12,05,31,081,24,25,31,142,,28,29,227,20,20,22,045,19,0*62
[2023-10-29 23:13:35.729] 
[2023-10-29 23:13:35.731] $GPGSV,3,3,12,16,20,304,29,09,04,347,,04,03,318,,11,02,042,,0*6B
[2023-10-29 23:13:35.804] 
[2023-10-29 23:13:35.804] $GLGSV,1,1,03,82,71,033,,80,55,181,,81,22,048,,1*42
[2023-10-29 23:13:35.854] 
[2023-10-29 23:13:35.854] $GPGLL,,,,,221335.590,V,N*72
[2023-10-29 23:13:35.886] 
[2023-10-29 23:13:35.886] $GPTXT,01,01,02,ANTSTATUS=OPEN*2B
[2023-10-29 23:13:35.923] 
[2023-10-29 23:13:36.399] $GNRMC,221336.590,A,5216.6742,N,02048.5479,E,0.18,0.00,291023,,,A,V*05
[2023-10-29 23:13:36.473] 
[2023-10-29 23:13:36.475] $GPVTG,0.00,T,,M,0.18,N,0.33,K,A*34
[2023-10-29 23:13:36.512] 
[2023-10-29 23:13:36.512] $GPGGA,221336.590,5216.6742,N,02048.5479,E,1,4,1.32,66.1,M,39.0,M,,*6E
[2023-10-29 23:13:36.591] 
[2023-10-29 23:13:36.591] $GNGSA,A,3,20,16,28,05,,,,,,,,,1.66,1.32,1.00,1*0B
[2023-10-29 23:13:36.647] 
[2023-10-29 23:13:36.647] $GNGSA,A,3,,,,,,,,,,,,,1.66,1.32,1.00,2*02
[2023-10-29 23:13:36.687] 
[2023-10-29 23:13:36.692] $GPGSV,3,1,12,29,69,071,,18,48,195,,26,46,296,28,31,39,256,,0*66
[2023-10-29 23:13:36.754] 
[2023-10-29 23:13:36.755] $GPGSV,3,2,12,05,31,081,23,25,31,142,15,28,29,227,18,20,22,045,20,0*60
[2023-10-29 23:13:36.831] 
[2023-10-29 23:13:36.831] $GPGSV,3,3,12,16,20,304,29,09,04,347,,04,03,318,,11,02,042,,0*6B
[2023-10-29 23:13:36.897] 
[2023-10-29 23:13:36.899] $GLGSV,1,1,03,82,71,033,,80,55,181,,81,22,048,,1*42
[2023-10-29 23:13:36.954] 
[2023-10-29 23:13:36.954] $GNGLL,5216.6742,N,02048.5479,E,221336.590,A,A*4A
[2023-10-29 23:13:37.007] 
[2023-10-29 23:13:37.007] $GPTXT,01,01,02,ANTSTATUS=OPEN*2B
[2023-10-29 23:13:37.042] 
[2023-10-29 23:13:37.083] $GNRMC,221337.090,A,5216.6728,N,02048.5473,E,0.17,0.00,291023,,,A,V*08
[2023-10-29 23:13:37.158] 
[2023-10-29 23:13:37.159] $GPVTG,0.00,T,,M,0.17,N,0.31,K,A*39
[2023-10-29 23:13:37.197] 
[2023-10-29 23:13:37.197] $GPGGA,221337.090,5216.6728,N,02048.5473,E,1,4,2.62,66.1,M,39.0,M,,*6A
[2023-10-29 23:13:37.272] 
[2023-10-29 23:13:37.272] $GNGSA,A,3,20,16,26,05,,,,,,,,,2.79,2.62,0.98,1*0E
[2023-10-29 23:13:37.324] 
[2023-10-29 23:13:37.325] $GNGSA,A,3,,,,,,,,,,,,,2.79,2.62,0.98,2*09
[2023-10-29 23:13:37.372] 
[2023-10-29 23:13:37.372] $GPGSV,3,1,12,29,69,071,,18,48,195,,26,46,296,25,31,39,256,,0*6B
[2023-10-29 23:13:37.439] 
[2023-10-29 23:13:37.439] $GPGSV,3,2,12,05,31,081,22,25,31,142,13,28,29,227,18,20,22,045,19,0*6D
[2023-10-29 23:13:37.515] 
[2023-10-29 23:13:37.515] $GPGSV,3,3,12,16,20,304,28,09,04,347,,04,03,318,,11,02,042,,0*6A
[2023-10-29 23:13:37.583] 
[2023-10-29 23:13:37.583] $GLGSV,1,1,03,82,71,033,,80,55,181,,81,22,048,,1*42
[2023-10-29 23:13:37.638] 
[2023-10-29 23:13:37.638] $GNGLL,5216.6728,N,02048.5473,E,221337.090,A,A*48
[2023-10-29 23:13:37.692] 
[2023-10-29 23:13:37.692] $GPTXT,01,01,02,ANTSTATUS=OPEN*2B
[2023-10-29 23:13:37.727] 
[2023-10-29 23:13:38.783] $GNRMC,221339.000,A,5216.6745,N,02048.5479,E,0.26,0.00,291023,,,A,V*0C
[2023-10-29 23:13:38.860] 
[2023-10-29 23:13:38.862] $GPVTG,0.00,T,,M,0.26,N,0.49,K,A*34
[2023-10-29 23:13:38.898] 
[2023-10-29 23:13:38.898] $GPGGA,221339.000,5216.6745,N,02048.5479,E,1,4,2.62,66.1,M,39.0,M,,*6C
[2023-10-29 23:13:38.972] 
[2023-10-29 23:13:38.972] $GNGSA,A,3,20,16,26,05,,,,,,,,,2.80,2.62,0.98,1*08
[2023-10-29 23:13:39.024] 
[2023-10-29 23:13:39.026] $GNGSA,A,3,,,,,,,,,,,,,2.80,2.62,0.98,2*0F
[2023-10-29 23:13:39.071] 
[2023-10-29 23:13:39.071] $GPGSV,3,1,12,29,69,071,,18,48,195,,26,46,296,24,31,39,256,,0*6A
[2023-10-29 23:13:39.140] 
[2023-10-29 23:13:39.140] $GPGSV,3,2,12,05,31,081,22,25,31,142,17,28,29,227,18,20,22,045,19,0*69
[2023-10-29 23:13:39.215] 
[2023-10-29 23:13:39.215] $GPGSV,3,3,12,16,20,304,28,09,04,347,,04,03,318,,11,02,042,,0*6A
[2023-10-29 23:13:39.284] 
[2023-10-29 23:13:39.284] $GLGSV,1,1,03,82,71,033,,80,55,181,,81,22,048,,1*42
[2023-10-29 23:13:39.339] 
[2023-10-29 23:13:39.339] $GNGLL,5216.6745,N,02048.5479,E,221339.000,A,A*4E
[2023-10-29 23:13:39.392] 
[2023-10-29 23:13:39.392] $GPTXT,01,01,02,ANTSTATUS=OPEN*2B
[2023-10-29 23:13:39.428] 
[2023-10-29 23:13:39.775] $GPRMC,221340.000,V,,,,,0.33,0.00,291023,,,E,V*31
[2023-10-29 23:13:39.836] 
[2023-10-29 23:13:39.836] $GPVTG,0.00,T,,