[2023-11-01 10:35:30.997] Hello TSAT_P_P_001
[2023-11-01 10:35:33.918] Hello TSAT_P_P_001
[2023-11-01 10:35:34.314] Message sent to the Astronode --> 
[2023-11-01 10:35:34.318] 0505000792A3
[2023-11-01 10:35:34.343] Message received from the Astronode <-- 
[2023-11-01 10:35:34.351] 85DD20
[2023-11-01 10:35:34.351] Astronode configuration successfully set.
[2023-11-01 10:35:34.355] Message sent to the Astronode --> 
[2023-11-01 10:35:34.355] 10C1F3
[2023-11-01 10:35:34.373] Message received from the Astronode <-- 
[2023-11-01 10:35:34.377] 904962
[2023-11-01 10:35:34.380] Astronode configuration successfully saved in NVM.
[2023-11-01 10:35:34.386] Message sent to the Astronode --> 
[2023-11-01 10:35:34.390] 1BAA42
[2023-11-01 10:35:34.437] Message received from the Astronode <-- 
[2023-11-01 10:35:34.442] 9B41535435303134372D30310000000000D272
[2023-11-01 10:35:34.447] Module's product number is:
[2023-11-01 10:35:34.451] AST50147-01
[2023-11-01 10:35:34.451] Message sent to the Astronode --> 
[2023-11-01 10:35:34.455] 1A8B52
[2023-11-01 10:35:34.503] Message received from the Astronode <-- 
[2023-11-01 10:35:34.510] 9A414E5332323132464C303030303235310969
[2023-11-01 10:35:34.514] Module's Serial Number is:
[2023-11-01 10:35:34.514] ANS2212FL000025
[2023-11-01 10:35:34.518] Message sent to the Astronode --> 
[2023-11-01 10:35:34.522] 19E862
[2023-11-01 10:35:34.612] Message received from the Astronode <-- 
[2023-11-01 10:35:34.616] 9965376139653565612D353039662D343836342D393337332D6264323963386433383966338D64
[2023-11-01 10:35:34.625] Module GUID is:
[2023-11-01 10:35:34.629] e7a9e5ea-509f-4864-9373-bd29c8d389f
[2023-11-01 10:35:34.629] Evt pin is high.
[2023-11-01 10:35:34.633] Message sent to the Astronode --> 
[2023-11-01 10:35:34.636] 65F3DD
[2023-11-01 10:35:34.653] Message received from the Astronode <-- 
[2023-11-01 10:35:34.659] E5020AD2
[2023-11-01 10:35:34.659] Astronode has reset.
[2023-11-01 10:35:34.659] Terminal has been reset.
[2023-11-01 10:35:34.662] Message sent to the Astronode --> 
[2023-11-01 10:35:34.668] 55A0EB
[2023-11-01 10:35:34.683] Message received from the Astronode <-- 
[2023-11-01 10:35:34.691] D5287A
[2023-11-01 10:35:34.691] The reset has been cleared.
[2023-11-01 10:35:35.149] $PMTK011,MTKGPS*08
[2023-11-01 10:35:35.173] 
[2023-11-01 10:35:35.173] $PMTK010,001*2E
[2023-11-01 10:35:35.188] 
[2023-11-01 10:35:35.952] $PMTK011,MTKGPS*08
[2023-11-01 10:35:35.976] 
[2023-11-01 10:35:35.976] $PMTK010,002*2D
[2023-11-01 10:35:35.990] 
[2023-11-01 10:35:36.050] $GPRMC,103536.719,V,,,,,0.00,0.00,011123,,,N,V*3A
[2023-11-01 10:35:36.103] 
[2023-11-01 10:35:36.105] $GPVTG,0.00,T,,M,0.00,N,0.00,K,N*32
[2023-11-01 10:35:36.140] 
[2023-11-01 10:35:36.142] $GPGGA,103536.719,,,,,0,0,,,M,,M,,*45
[2023-11-01 10:35:36.183] 
[2023-11-01 10:35:36.183] $GPGSA,A,1,,,,,,,,,,,,,,,,1*03
[2023-11-01 10:35:36.215] 
[2023-11-01 10:35:36.215] $GPGSA,A,1,,,,,,,,,,,,,,,,2*00
[2023-11-01 10:35:36.250] 
[2023-11-01 10:35:36.253] $GPGSV,3,1,11,07,69,182,,09,59,087,,20,46,297,,30,39,211,,0*69
[2023-11-01 10:35:36.315] 
[2023-11-01 10:35:36.315] $GPGSV,3,2,11,11,34,260,,04,25,088,,16,21,045,,06,21,222,,0*66
[2023-11-01 10:35:36.382] 
[2023-11-01 10:35:36.382] $GPGSV,3,3,11,05,15,313,,26,04,026,,29,03,331,,0*58
[2023-11-01 10:35:36.437] 
[2023-11-01 10:35:36.437] $GLGSV,3,1,10,68,62,319,,67,57,092,,77,57,074,,78,35,166,,1*7B
[2023-11-01 10:35:36.503] 
[2023-11-01 10:35:36.504] $GLGSV,3,2,10,84,27,312,,76,21,030,,69,14,297,,83,14,248,,1*76
[2023-11-01 10:35:36.573] 
[2023-11-01 10:35:36.573] $GLGSV,3,3,10,66,07,108,,85,05,005,,1*7A
[2023-11-01 10:35:36.615] 
[2023-11-01 10:35:36.615] $GPGLL,,,,,103536.719,V,N*77
[2023-11-01 10:35:36.646] 
[2023-11-01 10:35:36.646] $GPTXT,01,01,02,ANTSTATUS=OPEN*2B
[2023-11-01 10:35:36.682] 
[2023-11-01 10:35:36.682] $GPRMC,103536.863,V,,,,,0.00,0.00,011123,,,N,V*38
[2023-11-01 10:35:36.733] 
[2023-11-01 10:35:36.734] $GPVTG,0.00,T,,M,0.00,N,0.00,K,N*32
[2023-11-01 10:35:36.772] 
[2023-11-01 10:35:36.774] $GPGGA,103536.863,,,,,0,0,,,M,,M,,*47
[2023-11-01 10:35:36.819] 
[2023-11-01 10:35:36.819] $GPGSA,A,1,,,,,,,,,,,,,,,,1*03
[2023-11-01 10:35:36.848] 
[2023-11-01 10:35:36.848] $GPGSA,A,1,,,,,,,,,,,,,,,,2*00
[2023-11-01 10:35:36.882] 
[2023-11-01 10:35:36.885] $GPGSV,3,1,11,07,69,182,,09,59,087,,20,46,297,,30,39,211,,0*69
[2023-11-01 10:35:36.950] 
[2023-11-01 10:35:36.950] $GPGSV,3,2,11,11,34,260,,04,25,088,,16,21,045,,06,21,222,,0*66
[2023-11-01 10:35:37.014] 
[2023-11-01 10:35:37.015] $GPGSV,3,3,11,05,15,313,,26,04,026,,29,03,331,,0*58
[2023-11-01 10:35:37.069] 
[2023-11-01 10:35:37.069] $GLGSV,3,1,10,68,62,319,,67,57,092,,77,57,074,,78,35,166,,1*7B
[2023-11-01 10:35:37.135] 
[2023-11-01 10:35:37.135] $GLGSV,3,2,10,84,27,312,,76,21,030,24,69,14,297,,83,14,248,,1*70
[2023-11-01 10:35:37.204] 
[2023-11-01 10:35:37.205] $GLGSV,3,3,10,66,07,108,,85,05,005,,1*7A
[2023-11-01 10:35:37.249] 
[2023-11-01 10:35:37.250] $GPGLL,,,,,103536.863,V,N*75
[2023-11-01 10:35:37.279] 
[2023-11-01 10:35:37.279] $GPTXT,01,01,02,ANTSTATUS=OPEN*2B
[2023-11-01 10:35:37.314] 
[2023-11-01 10:35:37.316] $GPRMC,103537.863,V,,,,,0.52,0.00,011123,,,N,V*3E
[2023-11-01 10:35:37.369] 
[2023-11-01 10:35:37.371] $GPVTG,0.00,T,,M,0.52,N,0.96,K,N*3A
[2023-11-01 10:35:37.413] 
[2023-11-01 10:35:37.413] $GPGGA,103537.863,,,,,0,0,,,M,,M,,*46
[2023-11-01 10:35:37.449] 
[2023-11-01 10:35:37.449] $GPGSA,A,1,,,,,,,,,,,,,,,,1*03
[2023-11-01 10:35:37.482] 
[2023-11-01 10:35:37.482] $GPGSA,A,1,,,,,,,,,,,,,,,,2*00
[2023-11-01 10:35:37.515] 
[2023-11-01 10:35:37.515] $GPGSV,3,1,11,07,69,182,,09,59,087,,20,46,297,20,30,39,211,,0*6B
[2023-11-01 10:35:37.584] 
[2023-11-01 10:35:37.584] $GPGSV,3,2,11,11,34,260,,04,25,088,,16,21,045,,06,21,222,,0*66
[2023-11-01 10:35:37.651] 
[2023-11-01 10:35:37.652] $GPGSV,3,3,11,05,15,313,,26,04,026,,29,03,331,,0*58
[2023-11-01 10:35:37.706] 
[2023-11-01 10:35:37.706] $GLGSV,3,1,10,68,62,319,,67,57,092,24,77,57,074,,78,35,166,,1*7D
[2023-11-01 10:35:37.775] 
[2023-11-01 10:35:37.776] $GLGSV,3,2,10,84,27,312,,76,21,030,26,69,14,297,,83,14,248,,1*72
[2023-11-01 10:35:37.843] 
[2023-11-01 10:35:37.844] $GLGSV,3,3,10,66,07,108,,85,05,005,,1*7A
[2023-11-01 10:35:37.887] 
[2023-11-01 10:35:37.888] $GPGLL,,,,,103537.863,V,N*74
[2023-11-01 10:35:37.919] 
[2023-11-01 10:35:37.920] $GPTXT,01,01,02,ANTSTATUS=OPEN*2B
[2023-11-01 10:35:37.955] 
[2023-11-01 10:35:38.203] $GPRMC,103538.863,V,,,,,0.30,0.00,011123,,,N,V*35
[2023-11-01 10:35:38.257] 
[2023-11-01 10:35:38.257] $GPVTG,0.00,T,,M,0.30,N,0.56,K,N*32
[2023-11-01 10:35:38.295] 
[2023-11-01 10:35:38.295] $GPGGA,103538.863,,,,,0,0,,,M,,M,,*49
[2023-11-01 10:35:38.334] 
[2023-11-01 10:35:38.335] $GPGSA,A,1,,,,,,,,,,,,,,,,1*03
[2023-11-01 10:35:38.368] 
[2023-11-01 10:35:38.369] $GPGSA,A,1,,,,,,,,,,,,,,,,2*00
[2023-11-01 10:35:38.402] 
[2023-11-01 10:35:38.402] $GPGSV,3,1,11,07,69,182,,09,59,087,,20,46,297,22,30,39,211,,0*69
[2023-11-01 10:35:38.474] 
[2023-11-01 10:35:38.474] $GPGSV,3,2,11,11,34,260,,04,25,088,,16,21,045,,06,21,222,,0*66
[2023-11-01 10:35:38.538] 
[2023-11-01 10:35:38.539] $GPGSV,3,3,11,05,15,313,,26,04,026,,29,03,331,,0*58
[2023-11-01 10:35:38.592] 
[2023-11-01 10:35:38.594] $GLGSV,3,1,10,68,62,319,,67,57,092,23,77,57,074,,78,35,166,,1*7A
[2023-11-01 10:35:38.665] 
[2023-11-01 10:35:38.665] $GLGSV,3,2,10,84,27,312,,76,21,030,23,69,14,297,,83,14,248,,1*77
[2023-11-01 10:35:38.731] 
[2023-11-01 10:35:38.731] $GLGSV,3,3,10,66,07,108,,85,05,005,,1*7A
[2023-11-01 10:35:38.774] 
[2023-11-01 10:35:38.775] $GPGLL,,,,,103538.863,V,N*7B
[2023-11-01 10:35:38.808] 
[2023-11-01 10:35:38.810] $GPTXT,01,01,02,ANTSTATUS=OPEN*2B
[2023-11-01 10:35:38.846] 
[2023-11-01 10:35:39.235] $GPRMC,103539.863,V,,,,,0.34,0.00,011123,,,N,V*30
[2023-11-01 10:35:39.289] 
[2023-11-01 10:35:39.289] $GPVTG,0.00,T,,M,0.34,N,0.62,K,N*31
[2023-11-01 10:35:39.326] 
[2023-11-01 10:35:39.328] $GPGGA,103539.863,,,,,0,0,,,M,,M,,*48
[2023-11-01 10:35:39.368] 
[2023-11-01 10:35:39.369] $GPGSA,A,1,,,,,,,,,,,,,,,,1*03
[2023-11-01 10:35:39.403] 
[2023-11-01 10:35:39.406] $GPGSA,A,1,,,,,,,,,,,,,,,,2*00
[2023-11-01 10:35:39.434] 
[2023-11-01 10:35:39.435] $GPGSV,3,1,11,07,69,182,,09,59,087,,20,46,297,22,30,39,211,,0*69
[2023-11-01 10:35:39.502] 
[2023-11-01 10:35:39.504] $GPGSV,3,2,11,11,34,260,,04,25,088,17,16,21,045,,06,21,222,,0*60
[2023-11-01 10:35:39.571] 
[2023-11-01 10:35:39.571] $GPGSV,3,3,11,05,15,313,,26,04,026,,29,03,331,,0*58
[2023-11-01 10:35:39.627] 
[2023-11-01 10:35:39.627] $GLGSV,3,1,10,68,62,319,,67,57,092,24,77,57,074,,78,35,166,,1*7D
[2023-11-01 10:35:39.699] 
[2023-11-01 10:35:39.699] $GLGSV,3,2,10,84,27,312,,76,21,030,25,69,14,297,,83,14,248,,1*71
[2023-11-01 10:35:39.770] 
[2023-11-01 10:35:39.770] $GLGSV,3,3,10,66,07,108,,85,05,005,,1*7A
[2023-11-01 10:35:39.809] 
[2023-11-01 10:35:39.811] $GPGLL,,,,,103539.863,V,N*7A
[2023-11-01 10:35:39.842] 
[2023-11-01 10:35:39.843] $GPTXT,01,01,02,ANTSTATUS=OPEN*2B
[2023-11-01 10:35:39.877] 
[2023-11-01 10:35:40.237] $GPRMC,103540.863,V,,,,,0.11,0.00,011123,,,N,V*39
[2023-11-01 10:35:40.289] 
[2023-11-01 10:35:40.291] $GPVTG,0.00,T,,M,0.11,N,0.21,K,N*31
[2023-11-01 10:35:40.329] 
[2023-11-01 10:35:40.329] $GPGGA,103540.863,,,,,0,0,,,M,,M,,*46
[2023-11-01 10:35:40.368] 
[2023-11-01 10:35:40.370] $GPGSA,A,1,,,,,,,,,,,,,,,,1*03
[2023-11-01 10:35:40.406] 
[2023-11-01 10:35:40.406] $GPGSA,A,1,,,,,,,,,,,,,,,,2*00
[2023-11-01 10:35:40.437] 
[2023-11-01 10:35:40.437] $GPGSV,3,1,11,07,69,182,18,09,59,087,,20,46,297,22,30,39,211,,0*60
[2023-11-01 10:35:40.506] 
[2023-11-01 10:35:40.507] $GPGSV,3,2,11,11,34,260,,04,25,088,17,16,21,045,,06,21,222,,0*60
[2023-11-01 10:35:40.576] 
[2023-11-01 10:35:40.576] $GPGSV,3,3,11,05,15,313,,26,04,026,,29,03,331,,0*58
[2023-11-01 10:35:40.629] 
[2023-11-01 10:35:40.631] $GLGSV,3,1,10,68,62,319,,67,57,092,23,77,57,074,,78,35,166,,1*7A
[2023-11-01 10:35:40.701] 
[2023-11-01 10:35:40.704] $GLGSV,3,2,10,84,27,312,,76,21,030,25,69,14,297,,83,14,248,,1*71
[2023-11-01 10:35:40.770] 
[2023-11-01 10:35:40.770] $GLGSV,3,3,10,66,07,108,,85,05,005,,1*7A
[2023-11-01 10:35:40.818] 
[2023-11-01 10:35:40.818] $GPGLL,,,,,103540.863,V,N*74
[2023-11-01 10:35:40.845] 
[2023-11-01 10:35:40.848] $GPTXT,01,01,02,ANTSTATUS=OPEN*2B
[2023-11-01 10:35:40.879] 
[2023-11-01 10:35:41.238] $GPRMC,103541.863,V,,,,,0.29,0.00,011123,,,N,V*33
[2023-11-01 10:35:41.291] 
[2023-11-01 10:35:41.291] $GPVTG,0.00,T,,M,0.29,N,0.54,K,N*38
[2023-11-01 10:35:41.329] 
[2023-11-01 10:35:41.330] $GPGGA,103541.863,,,,,0,0,,,M,,M,,*47
[2023-11-01 10:35:41.374] 
[2023-11-01 10:35:41.374] $GPGSA,A,1,,,,,,,,,,,,,,,,1*03
[2023-11-01 10:35:41.404] 
[2023-11-01 10:35:41.406] $GPGSA,A,1,,,,,,,,,,,,,,,,2*00
[2023-11-01 10:35:41.438] 
[2023-11-01 10:35:41.438] $GPGSV,3,1,11,07,69,182,18,09,59,087,,20,46,297,22,30,39,211,,0*60
[2023-11-01 10:35:41.508] 
[2023-11-01 10:35:41.509] $GPGSV,3,2,11,11,34,260,,04,25,088,17,16,21,045,,06,21,222,,0*60
[2023-11-01 10:35:41.576] 
[2023-11-01 10:35:41.577] $GPGSV,3,3,11,05,15,313,,26,04,026,,29,03,331,,0*58
[2023-11-01 10:35:41.631] 
[2023-11-01 10:35:41.632] $GLGSV,3,1,10,68,62,319,,67,57,092,24,77,57,074,,78,35,166,,1*7D
[2023-11-01 10:35:41.698] 
[2023-11-01 10:35:41.700] $GLGSV,3,2,10,84,27,312,,76,21,030,25,69,14,297,,83,14,248,,1*71
[2023-11-01 10:35:41.769] 
[2023-11-01 10:35:41.769] $GLGSV,3,3,10,66,07,108,,85,05,005,,1*7A
[2023-11-01 10:35:41.813] 
[2023-11-01 10:35:41.813] $GPGLL,,,,,103541.863,V,N*75
[2023-11-01 10:35:41.844] 
[2023-11-01 10:35:41.844] $GPTXT,01,01,02,ANTSTATUS=OPEN*2B
[2023-11-01 10:35:41.882] 
[2023-11-01 10:35:42.237] $GPRMC,103542.863,V,,,,,0.10,0.00,011123,,,N,V*3A
[2023-11-01 10:35:42.291] 
[2023-11-01 10:35:42.291] $GPVTG,0.00,T,,M,0.10,N,0.19,K,N*3B
[2023-11-01 10:35:42.329] 
[2023-11-01 10:35:42.330] $GPGGA,103542.863,,,,,0,0,,,M,,M,,*44
[2023-11-01 10:35:42.370] 
[2023-11-01 10:35:42.370] $GPGSA,A,1,,,,,,,,,,,,,,,,1*03
[2023-11-01 10:35:42.403] 
[2023-11-01 10:35:42.403] $GPGSA,A,1,,,,,,,,,,,,,,,,2*00
[2023-11-01 10:35:42.436] 
[2023-11-01 10:35:42.436] $GPGSV,3,1,11,07,69,182,18,09,59,087,,20,46,297,22,30,39,211,,0*60
[2023-11-01 10:35:42.507] 
[2023-11-01 10:35:42.507] $GPGSV,3,2,11,11,34,260,,04,25,088,18,16,21,045,,06,21,222,,0*6F
[2023-11-01 10:35:42.575] 
[2023-11-01 10:35:42.577] $GPGSV,3,3,11,05,15,313,,26,04,026,,29,03,331,,0*58
[2023-11-01 10:35:42.631] 
[2023-11-01 10:35:42.632] $GLGSV,3,1,10,68,62,319,,67,57,092,24,77,57,074,,78,35,166,,1*7D
[2023-11-01 10:35:42.704] 
[2023-11-01 10:35:42.704] $GLGSV,3,2,10,84,27,312,,76,21,030,25,69,14,297,,83,14,248,,1*71
[2023-11-01 10:35:42.772] 
[2023-11-01 10:35:42.772] $GLGSV,3,3,10,66,07,108,,85,05,005,,1*7A
[2023-11-01 10:35:42.813] 
[2023-11-01 10:35:42.813] $GPGLL,,,,,103542.863,V,N*76
[2023-11-01 10:35:42.844] 
[2023-11-01 10:35:42.844] $GPTXT,01,01,02,ANTSTATUS=OPEN*2B
[2023-11-01 10:35:42.883] 
[2023-11-01 10:35:43.236] $GPRMC,103543.863,V,,,,,0.08,0.00,011123,,,N,V*32
[2023-11-01 10:35:43.291] 
[2023-11-01 10:35:43.291] $GPVTG,0.00,T,,M,0.08,N,0.16,K,N*3D
[2023-11-01 10:35:43.328] 
[2023-11-01 10:35:43.328] $GPGGA,103543.863,,,,,0,0,,,M,,M,,*45
[2023-11-01 10:35:43.369] 
[2023-11-01 10:35:43.369] $GPGSA,A,1,,,,,,,,,,,,,,,,1*03
[2023-11-01 10:35:43.403] 
[2023-11-01 10:35:43.403] $GPGSA,A,1,,,,,,,,,,,,,,,,2*00
[2023-11-01 10:35:43.434] 
[2023-11-01 10:35:43.435] $GPGSV,3,1,11,07,69,182,16,09,59,087,,20,46,297,22,30,39,211,,0*6E
[2023-11-01 10:35:43.506] 
[2023-11-01 10:35:43.506] $GPGSV,3,2,11,11,34,260,,04,25,088,18,16,21,045,,06,21,222,,0*6F
[2023-11-01 10:35:43.575] 
[2023-11-01 10:35:43.575] $GPGSV,3,3,11,05,15,313,,26,04,026,,29,03,331,,0*58
[2023-11-01 10:35:43.629] 
[2023-11-01 10:35:43.631] $GLGSV,3,1,10,68,62,319,,67,57,092,24,77,57,074,,78,35,166,,1*7D
[2023-11-01 10:35:43.701] 
[2023-11-01 10:35:43.701] $GLGSV,3,2,10,84,27,312,,76,21,030,25,69,14,297,,83,14,248,,1*71
[2023-11-01 10:35:43.768] 
[2023-11-01 10:35:43.768] $GLGSV,3,3,10,66,07,108,,85,05,005,,1*7A
[2023-11-01 10:35:43.813] 
[2023-11-01 10:35:43.813] $GPGLL,,,,,103543.863,V,N*77
[2023-11-01 10:35:43.843] 
[2023-11-01 10:35:43.843] $GPTXT,01,01,02,ANTSTATUS=OPEN*2B
[2023-11-01 10:35:43.878] 
[2023-11-01 10:35:44.236] $GPRMC,103544.863,V,,,,,0.09,0.00,011123,,,N,V*34
[2023-11-01 10:35:44.294] 
[2023-11-01 10:35:44.294] $GPVTG,0.00,T,,M,0.09,N,0.16,K,N*3C
[2023-11-01 10:35:44.333] 
[2023-11-01 10:35:44.333] $GPGGA,103544.863,,,,,0,0,,,M,,M,,*42
[2023-11-01 10:35:44.374] 
[2023-11-01 10:35:44.374] $GPGSA,A,1,,,,,,,,,,,,,,,,1*03
[2023-11-01 10:35:44.403] 
[2023-11-01 10:35:44.403] $GPGSA,A,1,,,,,,,,,,,,,,,,2*00
[2023-11-01 10:35:44.434] 
[2023-11-01 10:35:44.436] $GPGSV,3,1,11,07,69,182,16,09,59,087,,20,46,297,22,30,39,211,,0*6E
[2023-11-01 10:35:44.507] 
[2023-11-01 10:35:44.507] $GPGSV,3,2,11,11,34,260,,04,25,088,19,16,21,045,,06,21,222,,0*6E
[2023-11-01 10:35:44.575] 
[2023-11-01 10:35:44.576] $GPGSV,3,3,11,05,15,313,,26,04,026,,29,03,331,,0*58
[2023-11-01 10:35:44.630] 
[2023-11-01 10:35:44.630] $GLGSV,3,1,10,68,62,319,,67,57,092,24,77,57,074,,78,35,166,,1*7D
[2023-11-01 10:35:44.699] 
[2023-11-01 10:35:44.700] $GLGSV,3,2,10,84,27,312,,76,21,030,25,69,14,297,,83,14,248,,1*71
[2023-11-01 10:35:44.766] 
[2023-11-01 10:35:44.767] $GLGSV,3,3,10,66,07,108,,85,05,005,,1*7A
[2023-11-01 10:35:44.813] 
[2023-11-01 10:35:44.814] $GPGLL,,,,,103544.863,V,N*70
[2023-11-01 10:35:44.844] 
[2023-11-01 10:35:44.847] $GPTXT,01,01,02,ANTSTATUS=OPEN*2B
[2023-11-01 10:35:44.882] 
[2023-11-01 10:35:45.235] $GPRMC,103545.863,V,,,,,0.25,0.00,011123,,,N,V*3B
[2023-11-01 10:35:45.289] 
[2023-11-01 10:35:45.289] $GPVTG,0.00,T,,M,0.25,N,0.46,K,N*37
[2023-11-01 10:35:45.328] 
[2023-11-01 10:35:45.328] $GPGGA,103545.863,,,,,0,0,,,M,,M,,*43
[2023-11-01 10:35:45.367] 
[2023-11-01 10:35:45.367] $GPGSA,A,1,,,,,,,,,,,,,,,,1*03
[2023-11-01 10:35:45.406] 
[2023-11-01 10:35:45.406] $GPGSA,A,1,,,,,,,,,,,,,,,,2*00
[2023-11-01 10:35:45.433] 
[2023-11-01 10:35:45.435] $GPGSV,3,1,11,07,69,182,18,09,59,087,,20,46,297,22,30,39,211,,0*60
[2023-11-01 10:35:45.506] 
[2023-11-01 10:35:45.506] $GPGSV,3,2,11,11,34,260,,04,25,088,19,16,21,045,,06,21,222,,0*6E
[2023-11-01 10:35:45.577] 
[2023-11-01 10:35:45.577] $GPGSV,3,3,11,05,15,313,,26,04,026,,29,03,331,,0*58
[2023-11-01 10:35:45.630] 
[2023-11-01 10:35:45.630] $GLGSV,3,1,10,68,62,319,,67,57,092,24,77,57,074,,78,35,166,,1*7D
[2023-11-01 10:35:45.697] 
[2023-11-01 10:35:45.698] $GLGSV,3,2,10,84,27,312,,76,21,030,25,69,14,297,,83,14,248,,1*71
[2023-11-01 10:35:45.765] 
[2023-11-01 10:35:45.767] $GLGSV,3,3,10,66,07,108,,85,05,005,,1*7A
[2023-11-01 10:35:45.810] 
[2023-11-01 10:35:45.812] $GPGLL,,,,,103545.863,V,N*71
[2023-11-01 10:35:45.842] 
[2023-11-01 10:35:45.843] $GPTXT,01,01,02,ANTSTATUS=OPEN*2B
[2023-11-01 10:35:45.878] 
[2023-11-01 10:35:46.217] $GPRMC,103546.863,V,,,,,0.11,0.00,011123,,,N,V*3F
[2023-11-01 10:35:46.270] 
[2023-11-01 10:35:46.271] $GPVTG,0.00,T,,M,0.11,N,0.21,K,N*31
[2023-11-01 10:35:46.307] 
[2023-11-01 10:35:46.307] $GPGGA,103546.863,,,,,0,0,,,M,,M,,*40
[2023-11-01 10:35:46.349] 
[2023-11-01 10:35:46.349] $GPGSA,A,1,,,,,,,,,,,,,,,,1*03
[2023-11-01 10:35:46.381] 
[2023-11-01 10:35:46.384] $GPGSA,A,1,,,,,,,,,,,,,,,,2*00
[2023-11-01 10:35:46.416] 
[2023-11-01 10:35:46.416] $GPGSV,3,1,11,07,69,182,18,09,59,087,16,20,46,297,22,30,39,211,,0*67
[2023-11-01 10:35:46.489] 
[2023-11-01 10:35:46.489] $GPGSV,3,2,11,11,34,260,,04,25,088,17,16,21,045,,06,21,222,,0*60
[2023-11-01 10:35:46.559] 
[2023-11-01 10:35:46.561] $GPGSV,3,3,11,05,15,313,,26,04,026,,29,03,331,,0*58
[2023-11-01 10:35:46.613] 
[2023-11-01 10:35:46.613] $GLGSV,3,1,10,68,62,319,,67,57,092,24,77,57,074,,78,35,166,,1*7D
[2023-11-01 10:35:46.682] 
[2023-11-01 10:35:46.684] $GLGSV,3,2,10,84,27,312,,76,21,030,25,69,14,297,,83,14,248,,1*71
[2023-11-01 10:35:46.750] 
[2023-11-01 10:35:46.751] $GLGSV,3,3,10,66,07,108,,85,05,005,,1*7A
[2023-11-01 10:35:46.794] 
[2023-11-01 10:35:46.794] $GPGLL,,,,,103546.863,V,N*72
[2023-11-01 10:35:46.828] 
[2023-11-01 10:35:46.831] $GPTXT,01,01,02,ANTSTATUS=OPEN*2B
[2023-11-01 10:35:46.863] 
[2023-11-01 10:35:47.205] $GPRMC,103547.863,V,,,,,0.04,0.00,011123,,,N,V*3A
[2023-11-01 10:35:47.260] 
[2023-11-01 10:35:47.260] $GPVTG,0.00,T,,M,0.04,N,0.08,K,N*3E
[2023-11-01 10:35:47.298] 
[2023-11-01 10:35:47.298] $GPGGA,103547.863,,,,,0,0,,,M,,M,,*41
[2023-11-01 10:35:47.336] 
[2023-11-01 10:35:47.338] $GPGSA,A,1,,,,,,,,,,,,,,,,1*03
[2023-11-01 10:35:47.372] 
[2023-11-01 10:35:47.372] $GPGSA,A,1,,,,,,,,,,,,,,,,2*00
[2023-11-01 10:35:47.403] 
[2023-11-01 10:35:47.403] $GPGSV,3,1,11,07,69,182,18,09,59,087,16,20,46,297,22,30,39,211,,0*67
[2023-11-01 10:35:47.477] 
[2023-11-01 10:35:47.477] $GPGSV,3,2,11,11,34,260,,04,25,088,18,16,21,045,,06,21,222,,0*6F
[2023-11-01 10:35:47.547] 
[2023-11-01 10:35:47.547] $GPGSV,3,3,11,05,15,313,,26,04,026,,29,03,331,,0*58
[2023-11-01 10:35:47.604] 
[2023-11-01 10:35:47.607] $GLGSV,3,1,10,68,62,319,,67,57,092,24,77,57,074,,78,35,166,,1*7D
[2023-11-01 10:35:47.672] 
[2023-11-01 10:35:47.675] $GLGSV,3,2,10,84,27,312,,76,21,030,25,69,14,297,,83,14,248,,1*71
[2023-11-01 10:35:47.745] 
[2023-11-01 10:35:47.745] $GLGSV,3,3,10,66,07,108,,85,05,005,,1*7A
[2023-11-01 10:35:47.787] 
[2023-11-01 10:35:47.787] $GPGLL,,,,,103547.863,V,N*73
[2023-11-01 10:35:47.815] 
[2023-11-01 10:35:47.815] $GPTXT,01,01,02,ANTSTATUS=OPEN*2B
[2023-11-01 10:35:47.850] 
[2023-11-01 10:35:48.202] $GPRMC,103548.863,V,,,,,0.05,0.00,011123,,,N,V*34
[2023-11-01 10:35:48.258] 
[2023-11-01 10:35:48.258] $GPVTG,0.00,T,,M,0.05,N,0.08,K,N*3F
[2023-11-01 10:35:48.294] 
[2023-11-01 10:35:48.294] $GPGGA,103548.863,,,,,0,0,,,M,,M,,*4E
[2023-11-01 10:35:48.336] 
[2023-11-01 10:35:48.339] $GPGSA,A,1,,,,,,,,,,,,,,,,1*03
[2023-11-01 10:35:48.369] 
[2023-11-01 10:35:48.369] $GPGSA,A,1,,,,,,,,,,,,,,,,2*00
[2023-11-01 10:35:48.401] 
[2023-11-01 10:35:48.401] $GPGSV,3,1,11,07,69,182,18,09,59,087,15,20,46,297,22,30,39,211,,0*64
[2023-11-01 10:35:48.475] 
[2023-11-01 10:35:48.475] $GPGSV,3,2,11,11,34,260,,04,25,088,18,16,21,045,,06,21,222,,0*6F
[2023-11-01 10:35:48.543] 
[2023-11-01 10:35:48.543] $GPGSV,3,3,11,05,15,313,,26,04,026,,29,03,331,,0*58
[2023-11-01 10:35:48.598] 
[2023-11-01 10:35:48.598] $GLGSV,3,1,10,68,62,319,,67,57,092,23,77,57,074,,78,35,166,,1*7A
[2023-11-01 10:35:48.668] 
[2023-11-01 10:35:48.668] $GLGSV,3,2,10,84,27,312,,76,21,030,25,69,14,297,,83,14,248,,1*71
[2023-11-01 10:35:48.736] 
[2023-11-01 10:35:48.736] $GLGSV,3,3,10,66,07,108,,85,05,005,,1*7A
[2023-11-01 10:35:48.779] 
[2023-11-01 10:35:48.781] $GPGLL,,,,,103548.863,V,N*7C
[2023-11-01 10:35:48.811] 
[2023-11-01 10:35:48.811] $GPTXT,01,01,02,ANTSTATUS=OPEN*2B
[2023-11-01 10:35:48.847] 
[2023-11-01 10:35:49.212] $GNRMC,103549.863,A,5216.6970,N,02048.5560,E,0.05,0.00,011123,,,A,V*08
[2023-11-01 10:35:49.287] 
[2023-11-01 10:35:49.287] $GPVTG,0.00,T,,M,0.05,N,0.09,K,A*31
[2023-11-01 10:35:49.326] 
[2023-11-01 10:35:49.326] $GPGGA,103549.863,5216.6970,N,02048.5560,E,1,4,3.84,77.5,M,39.0,M,,*6F
[2023-11-01 10:35:49.401] 
[2023-11-01 10:35:49.402] $GNGSA,A,3,04,09,,,,,,,,,,,3.97,3.84,1.00,1*0F
[2023-11-01 10:35:49.451] 
[2023-11-01 10:35:49.452] $GNGSA,A,3,67,76,,,,,,,,,,,3.97,3.84,1.00,2*01
[2023-11-01 10:35:49.501] 
[2023-11-01 10:35:49.502] $GPGSV,3,1,11,07,69,182,19,09,59,087,15,20,46,297,21,30,39,211,,0*66
[2023-11-01 10:35:49.573] 
[2023-11-01 10:35:49.575] $GPGSV,3,2,11,11,34,260,,04,25,088,18,16,21,045,,06,21,222,,0*6F
[2023-11-01 10:35:49.641] 
[2023-11-01 10:35:49.642] $GPGSV,3,3,11,05,15,313,,26,04,026,,29,03,331,,0*58
[2023-11-01 10:35:49.698] 
[2023-11-01 10:35:49.698] $GLGSV,3,1,10,68,62,319,,67,57,092,23,77,57,074,,78,35,166,,1*7A
[2023-11-01 10:35:49.766] 
[2023-11-01 10:35:49.767] $GLGSV,3,2,10,84,27,312,,76,21,030,25,69,14,297,,83,14,248,,1*71
[2023-11-01 10:35:49.835] 
[2023-11-01 10:35:49.835] $GLGSV,3,3,10,66,07,108,,85,05,005,,1*7A
[2023-11-01 10:35:49.879] 
[2023-11-01 10:35:49.879] $GNGLL,5216.6970,N,02048.5560,E,103549.863,A,A*40
[2023-11-01 10:35:49.932] 
[2023-11-01 10:35:49.934] 2027.11.01 10:35:49
[2023-11-01 10:35:49.937] 4.0,52.278283,20.809267,15,0
[2023-11-01 10:35:49.941] Message sent to the Astronode --> 
[2023-11-01 10:35:49.946] 250100342E302C35322E3237383238332C32302E3830393236372C31352C3006CC
[2023-11-01 10:35:50.034] Message received from the Astronode <-- 
[2023-11-01 10:35:50.041] A50100C1A9
[2023-11-01 10:35:50.041] Payload was successfully queued.
[2023-11-01 10:37:11.155] Hello TSAT_P_P_001
[2023-11-01 10:37:11.408] Message sent to the Astronode --> 
[2023-11-01 10:37:11.416] 0505000792A3
[2023-11-01 10:37:14.281] Hello TSAT_P_P_001
[2023-11-01 10:37:14.908] Message sent to the Astronode --> 
[2023-11-01 10:37:14.916] 0505000792A3
[2023-11-01 10:37:14.936] Message received from the Astronode <-- 
[2023-11-01 10:37:14.944] 85DD20
[2023-11-01 10:37:14.944] Astronode configuration successfully set.
[2023-11-01 10:37:14.949] Message sent to the Astronode --> 
[2023-11-01 10:37:14.954] 10C1F3
[2023-11-01 10:37:14.966] Message received from the Astronode <-- 
[2023-11-01 10:37:14.972] 904962
[2023-11-01 10:37:14.972] Astronode configuration successfully saved in NVM.
[2023-11-01 10:37:14.977] Message sent to the Astronode --> 
[2023-11-01 10:37:14.983] 1BAA42
[2023-11-01 10:37:15.031] Message received from the Astronode <-- 
[2023-11-01 10:37:15.039] 9B41535435303134372D30310000000000D272
[2023-11-01 10:37:15.044] Module's product number is:
[2023-11-01 10:37:15.044] AST50147-01
[2023-11-01 10:37:15.048] Message sent to the Astronode --> 
[2023-11-01 10:37:15.052] 1A8B52
[2023-11-01 10:37:15.097] Message received from the Astronode <-- 
[2023-11-01 10:37:15.103] 9A414E5332323132464C303030303235310969
[2023-11-01 10:37:15.105] Module's Serial Number is:
[2023-11-01 10:37:15.108] ANS2212FL000025
[2023-11-01 10:37:15.110] Message sent to the Astronode --> 
[2023-11-01 10:37:15.113] 19E862
[2023-11-01 10:37:15.205] Message received from the Astronode <-- 
[2023-11-01 10:37:15.213] 9965376139653565612D353039662D343836342D393337332D6264323963386433383966338D64
[2023-11-01 10:37:15.220] Module GUID is:
[2023-11-01 10:37:15.225] e7a9e5ea-509f-4864-9373-bd29c8d389f
[2023-11-01 10:37:15.225] Evt pin is high.
[2023-11-01 10:37:15.229] Message sent to the Astronode --> 
[2023-11-01 10:37:15.232] 65F3DD
[2023-11-01 10:37:15.247] Message received from the Astronode <-- 
[2023-11-01 10:37:15.252] E5020AD2
[2023-11-01 10:37:15.252] Astronode has reset.
[2023-11-01 10:37:15.254] Terminal has been reset.
[2023-11-01 10:37:15.259] Message sent to the Astronode --> 
[2023-11-01 10:37:15.261] 55A0EB
[2023-11-01 10:37:15.277] Message received from the Astronode <-- 
[2023-11-01 10:37:15.283] D5287A
[2023-11-01 10:37:15.283] The reset has been cleared.
[2023-11-01 10:37:15.743] $PMTK011,MTKGPS*08
[2023-11-01 10:37:15.766] 
[2023-11-01 10:37:15.769] $PMTK010,001*2E
[2023-11-01 10:37:15.782] 
[2023-11-01 10:37:16.544] $PMTK011,MTKGPS*08
[2023-11-01 10:37:16.567] 
[2023-11-01 10:37:16.570] $PMTK010,002*2D
[2023-11-01 10:37:16.585] 
[2023-11-01 10:37:16.640] $GPRMC,103717.316,V,,,,,0.00,0.00,011123,,,N,V*30
[2023-11-01 10:37:16.694] 
[2023-11-01 10:37:16.696] $GPVTG,0.00,T,,M,0.00,N,0.00,K,N*32
[2023-11-01 10:37:16.732] 
[2023-11-01 10:37:16.732] $GPGGA,103717.316,,,,,0,0,,,M,,M,,*4F
[2023-11-01 10:37:16.771] 
[2023-11-01 10:37:16.772] $GPGSA,A,1,,,,,,,,,,,,,,,,1*03
[2023-11-01 10:37:16.805] 
[2023-11-01 10:37:16.805] $GPGSA,A,1,,,,,,,,,,,,,,,,2*00
[2023-11-01 10:37:16.840] 
[2023-11-01 10:37:16.840] $GPGSV,3,1,11,07,70,181,,09,58,088,,20,46,296,24,30,40,211,,0*65
[2023-11-01 10:37:16.908] 
[2023-11-01 10:37:16.908] $GPGSV,3,2,11,11,34,259,,04,25,088,,16,21,044,,06,20,222,,0*6C
[2023-11-01 10:37:16.974] 
[2023-11-01 10:37:16.974] $GPGSV,3,3,11,05,15,313,,26,04,025,,29,03,331,,0*5B
[2023-11-01 10:37:17.030] 
[2023-11-01 10:37:17.030] $GLGSV,3,1,10,68,63,320,,77,57,072,,67,56,093,,78,36,166,,1*75
[2023-11-01 10:37:17.101] 
[2023-11-01 10:37:17.101] $GLGSV,3,2,10,84,27,311,,76,20,029,,69,14,298,,83,13,248,,1*74
[2023-11-01 10:37:17.167] 
[2023-11-01 10:37:17.167] $GLGSV,3,3,10,66,06,109,,85,06,005,,1*79
[2023-11-01 10:37:17.206] 
[2023-11-01 10:37:17.207] $GPGLL,,,,,103717.316,V,N*7D
[2023-11-01 10:37:17.238] 
[2023-11-01 10:37:17.238] $GPTXT,01,01,02,ANTSTATUS=OPEN*2B
[2023-11-01 10:37:17.274] 
[2023-11-01 10:37:17.275] $GPRMC,103717.460,V,,,,,0.00,0.00,011123,,,N,V*36
[2023-11-01 10:37:17.328] 
[2023-11-01 10:37:17.328] $GPVTG,0.00,T,,M,0.00,N,0.00,K,N*32
[2023-11-01 10:37:17.366] 
[2023-11-01 10:37:17.367] $GPGGA,103717.460,,,,,0,0,,,M,,M,,*49
[2023-11-01 10:37:17.407] 
[2023-11-01 10:37:17.407] $GPGSA,A,1,,,,,,,,,,,,,,,,1*03
[2023-11-01 10:37:17.439] 
[2023-11-01 10:37:17.442] $GPGSA,A,1,,,,,,,,,,,,,,,,2*00
[2023-11-01 10:37:17.474] 
[2023-11-01 10:37:17.481] $GPGSV,3,1,11,07,70,181,,09,58,088,,20,46,296,23,30,40,211,,0*62
[2023-11-01 10:37:17.542] 
[2023-11-01 10:37:17.543] $GPGSV,3,2,11,11,34,259,,04,25,088,,16,21,044,,06,20,222,,0*6C
[2023-11-01 10:37:17.610] 
[2023-11-01 10:37:17.610] $GPGSV,3,3,11,05,15,313,,26,04,025,,29,03,331,,0*5B
[2023-11-01 10:37:17.664] 
[2023-11-01 10:37:17.664] $GLGSV,3,1,10,68,63,320,,77,57,072,,67,56,093,,78,36,166,,1*75
[2023-11-01 10:37:17.733] 
[2023-11-01 10:37:17.734] $GLGSV,3,2,10,84,27,311,,76,20,029,23,69,14,298,,83,13,248,,1*75
[2023-11-01 10:37:17.799] 
[2023-11-01 10:37:17.800] $GLGSV,3,3,10,66,06,109,,85,06,005,,1*79
[2023-11-01 10:37:17.843] 
[2023-11-01 10:37:17.844] $GPGLL,,,,,103717.460,V,N*7B
[2023-11-01 10:37:17.874] 
[2023-11-01 10:37:17.875] $GPTXT,01,01,02,ANTSTATUS=OPEN*2B
[2023-11-01 10:37:17.916] 
[2023-11-01 10:37:17.916] $GPRMC,103718.460,V,,,,,0.19,0.00,011123,,,N,V*31
[2023-11-01 10:37:17.965] 
[2023-11-01 10:37:17.965] $GPVTG,0.00,T,,M,0.19,N,0.35,K,N*3C
[2023-11-01 10:37:18.006] 
[2023-11-01 10:37:18.006] $GPGGA,103718.460,,,,,0,0,,,M,,M,,*46
[2023-11-01 10:37:18.043] 
[2023-11-01 10:37:18.043] $GPGSA,A,1,,,,,,,,,,,,,,,,1*03
[2023-11-01 10:37:18.077] 
[2023-11-01 10:37:18.078] $GPGSA,A,1,,,,,,,,,,,,,,,,2*00
[2023-11-01 10:37:18.110] 
[2023-11-01 10:37:18.111] $GPGSV,3,1,11,07,70,181,,09,58,088,,20,46,296,23,30,40,211,,0*62
[2023-11-01 10:37:18.179] 
[2023-11-01 10:37:18.179] $GPGSV,3,2,11,11,34,259,,04,25,088,,16,21,044,,06,20,222,,0*6C
[2023-11-01 10:37:18.247] 
[2023-11-01 10:37:18.247] $GPGSV,3,3,11,05,15,313,,26,04,025,,29,03,331,,0*5B
[2023-11-01 10:37:18.301] 
[2023-11-01 10:37:18.302] $GLGSV,3,1,10,68,63,320,,77,57,072,,67,56,093,20,78,36,166,,1*77
[2023-11-01 10:37:18.370] 
[2023-11-01 10:37:18.370] $GLGSV,3,2,10,84,27,311,,76,20,029,22,69,14,298,,83,13,248,,1*74
[2023-11-01 10:37:18.439] 
[2023-11-01 10:37:18.441] $GLGSV,3,3,10,66,06,109,,85,06,005,,1*79
[2023-11-01 10:37:18.487] 
[2023-11-01 10:37:18.487] $GPGLL,,,,,103718.460,V,N*74
[2023-11-01 10:37:18.514] 
[2023-11-01 10:37:18.516] $GPTXT,01,01,02,ANTSTATUS=OPEN*2B
[2023-11-01 10:37:18.550] 
[2023-11-01 10:37:18.799] $GPRMC,103719.460,V,,,,,0.40,0.00,011123,,,N,V*3C
[2023-11-01 10:37:18.852] 
[2023-11-01 10:37:18.852] $GPVTG,0.00,T,,M,0.40,N,0.74,K,N*35
[2023-11-01 10:37:18.892] 
[2023-11-01 10:37:18.892] $GPGGA,103719.460,,,,,0,0,,,M,,M,,*47
[2023-11-01 10:37:18.933] 
[2023-11-01 10:37:18.933] $GPGSA,A,1,,,,,,,,,,,,,,,,1*03
[2023-11-01 10:37:18.970] 
[2023-11-01 10:37:18.970] $GPGSA,A,1,,,,,,,,,,,,,,,,2*00
[2023-11-01 10:37:18.998] 
[2023-11-01 10:37:18.999] $GPGSV,3,1,11,07,70,181,,09,58,088,,20,46,296,22,30,40,211,,0*63
[2023-11-01 10:37:19.067] 
[2023-11-01 10:37:19.068] $GPGSV,3,2,11,11,34,259,,04,25,088,,16,21,044,,06,20,222,,0*6C
[2023-11-01 10:37:19.135] 
[2023-11-01 10:37:19.135] $GPGSV,3,3,11,05,15,313,,26,04,025,,29,03,331,,0*5B
[2023-11-01 10:37:19.190] 
[2023-11-01 10:37:19.190] $GLGSV,3,1,10,68,63,320,,77,57,072,,67,56,093,20,78,36,166,,1*77
[2023-11-01 10:37:19.260] 
[2023-11-01 10:37:19.263] $GLGSV,3,2,10,84,27,311,,76,20,029,24,69,14,298,,83,13,248,,1*72
[2023-11-01 10:37:19.328] 
[2023-11-01 10:37:19.328] $GLGSV,3,3,10,66,06,109,,85,06,005,,1*79
[2023-11-01 10:37:19.371] 
[2023-11-01 10:37:19.371] $GPGLL,,,,,103719.460,V,N*75
[2023-11-01 10:37:19.403] 
[2023-11-01 10:37:19.403] $GPTXT,01,01,02,ANTSTATUS=OPEN*2B
[2023-11-01 10:37:19.444] 
[2023-11-01 10:37:19.814] $GPRMC,103720.460,V,,,,,2.22,211.85,011123,,,N,V*3F
[2023-11-01 10:37:19.870] 
[2023-11-01 10:37:19.870] $GPVTG,211.85,T,,M,2.22,N,4.11,K,N*3B
[2023-11-01 10:37:19.911] 
[2023-11-01 10:37:19.911] $GPGGA,103720.460,,,,,0,0,,,M,,M,,*4D
[2023-11-01 10:37:19.953] 
[2023-11-01 10:37:19.956] $GPGSA,A,1,,,,,,,,,,,,,,,,1*03
[2023-11-01 10:37:19.986] 
[2023-11-01 10:37:19.989] $GPGSA,A,1,,,,,,,,,,,,,,,,2*00
[2023-11-01 10:37:20.020] 
[2023-11-01 10:37:20.020] $GPGSV,3,1,11,07,70,181,,09,58,088,,20,46,296,24,30,40,211,,0*65
[2023-11-01 10:37:20.086] 
[2023-11-01 10:37:20.087] $GPGSV,3,2,11,11,34,259,,04,25,088,18,16,21,044,,06,20,222,,0*65
[2023-11-01 10:37:20.156] 
[2023-11-01 10:37:20.156] $GPGSV,3,3,11,05,15,313,,26,04,025,,29,03,331,,0*5B
[2023-11-01 10:37:20.210] 
[2023-11-01 10:37:20.210] $GLGSV,3,1,10,68,63,320,,77,57,072,,67,56,093,21,78,36,166,,1*76
[2023-11-01 10:37:20.280] 
[2023-11-01 10:37:20.281] $GLGSV,3,2,10,84,27,311,,76,20,029,25,69,14,298,,83,13,248,,1*73
[2023-11-01 10:37:20.347] 
[2023-11-01 10:37:20.348] $GLGSV,3,3,10,66,06,109,,85,06,005,,1*79
[2023-11-01 10:37:20.392] 
[2023-11-01 10:37:20.392] $GPGLL,,,,,103720.460,V,N*7F
[2023-11-01 10:37:20.426] 
[2023-11-01 10:37:20.426] $GPTXT,01,01,02,ANTSTATUS=OPEN*2B
[2023-11-01 10:37:20.461] 
[2023-11-01 10:37:20.798] $GPRMC,103721.460,V,,,,,0.50,211.85,011123,,,N,V*39
[2023-11-01 10:37:20.854] 
[2023-11-01 10:37:20.854] $GPVTG,211.85,T,,M,0.50,N,0.93,K,N*32
[2023-11-01 10:37:20.894] 
[2023-11-01 10:37:20.894] $GPGGA,103721.460,,,,,0,0,,,M,,M,,*4C
[2023-11-01 10:37:20.934] 
[2023-11-01 10:37:20.934] $GPGSA,A,1,,,,,,,,,,,,,,,,1*03
[2023-11-01 10:37:20.973] 
[2023-11-01 10:37:20.973] $GPGSA,A,1,,,,,,,,,,,,,,,,2*00
[2023-11-01 10:37:21.002] 
[2023-11-01 10:37:21.005] $GPGSV,3,1,11,07,70,181,20,09,58,088,19,20,46,296,23,30,40,211,,0*68
[2023-11-01 10:37:21.073] 
[2023-11-01 10:37:21.074] $GPGSV,3,2,11,11,34,259,,04,25,088,17,16,21,044,,06,20,222,,0*6A
[2023-11-01 10:37:21.142] 
[2023-11-01 10:37:21.143] $GPGSV,3,3,11,05,15,313,,26,04,025,,29,03,331,,0*5B
[2023-11-01 10:37:21.197] 
[2023-11-01 10:37:21.198] $GLGSV,3,1,10,68,63,320,,77,57,072,,67,56,093,20,78,36,166,,1*77
[2023-11-01 10:37:21.271] 
[2023-11-01 10:37:21.271] $GLGSV,3,2,10,84,27,311,,76,20,029,24,69,14,298,,83,13,248,,1*72
[2023-11-01 10:37:21.339] 
[2023-11-01 10:37:21.339] $GLGSV,3,3,10,66,06,109,,85,06,005,,1*79
[2023-11-01 10:37:21.380] 
[2023-11-01 10:37:21.380] $GPGLL,,,,,103721.460,V,N*7E
[2023-11-01 10:37:21.410] 
[2023-11-01 10:37:21.411] $GPTXT,01,01,02,ANTSTATUS=OPEN*2B
[2023-11-01 10:37:21.447] 
[2023-11-01 10:37:21.811] $GNRMC,103722.460,A,5216.6823,N,02048.5567,E,0.36,211.85,011123,,,A,V*07
[2023-11-01 10:37:21.891] 
[2023-11-01 10:37:21.891] $GPVTG,211.85,T,,M,0.36,N,0.68,K,A*39
[2023-11-01 10:37:21.929] 
[2023-11-01 10:37:21.931] $GPGGA,103722.460,5216.6823,N,02048.5567,E,1,4,3.88,79.1,M,39.0,M,,*69
[2023-11-01 10:37:22.004] 
[2023-11-01 10:37:22.004] $GNGSA,A,3,09,04,,,,,,,,,,,4.00,3.88,1.00,1*0A
[2023-11-01 10:37:22.060] 
[2023-11-01 10:37:22.060] $GNGSA,A,3,67,76,,,,,,,,,,,4.00,3.88,1.00,2*04
[2023-11-01 10:37:22.109] 
[2023-11-01 10:37:22.109] $GPGSV,3,1,11,07,70,181,21,09,58,088,20,20,46,296,23,30,40,211,,0*63
[2023-11-01 10:37:22.178] 
[2023-11-01 10:37:22.179] $GPGSV,3,2,11,11,34,259,,04,25,088,17,16,21,044,,06,20,222,,0*6A
[2023-11-01 10:37:22.246] 
[2023-11-01 10:37:22.247] $GPGSV,3,3,11,05,15,313,,26,04,025,,29,03,331,,0*5B
[2023-11-01 10:37:22.307] 
[2023-11-01 10:37:22.307] $GLGSV,3,1,10,68,63,320,,77,57,072,,67,56,093,20,78,36,166,,1*77
[2023-11-01 10:37:22.370] 
[2023-11-01 10:37:22.372] $GLGSV,3,2,10,84,27,311,,76,20,029,22,69,14,298,,83,13,248,,1*74
[2023-11-01 10:37:22.438] 
[2023-11-01 10:37:22.439] $GLGSV,3,3,10,66,06,109,,85,06,005,,1*79
[2023-11-01 10:37:22.483] 
[2023-11-01 10:37:22.483] $GNGLL,5216.6823,N,02048.5567,E,103722.460,A,A*40
[2023-11-01 10:37:22.536] 
[2023-11-01 10:37:22.539] 2027.11.01 10:37:22
[2023-11-01 10:37:22.541] 4.0,52.278038,20.809278,7,0
[2023-11-01 10:37:22.545] Message sent to the Astronode --> 
[2023-11-01 10:37:22.548] 250100342E302C35322E3237383033382C32302E3830393237382C372C30771E
[2023-11-01 10:37:22.635] Message received from the Astronode <-- 
[2023-11-01 10:37:22.642] A50100C1A9
[2023-11-01 10:37:22.642] Payload was successfully queued.
[2023-11-01 10:38:10.012] Hello TSAT_P_P_001
[2023-11-01 10:38:13.081] Hello TSAT_P_P_001
[2023-11-01 10:38:13.602] Message sent to the Astronode --> 
[2023-11-01 10:38:13.610] 0505000792A3
[2023-11-01 10:38:13.629] Message received from the Astronode <-- 
[2023-11-01 10:38:13.637] 85DD20
[2023-11-01 10:38:13.637] Astronode configuration successfully set.
[2023-11-01 10:38:13.642] Message sent to the Astronode --> 
[2023-11-01 10:38:13.646] 10C1F3
[2023-11-01 10:38:13.661] Message received from the Astronode <-- 
[2023-11-01 10:38:13.668] 904962
[2023-11-01 10:38:13.669] Astronode configuration successfully saved in NVM.
[2023-11-01 10:38:13.677] Message sent to the Astronode --> 
[2023-11-01 10:38:13.677] 1BAA42
[2023-11-01 10:38:13.724] Message received from the Astronode <-- 
[2023-11-01 10:38:13.732] 9B41535435303134372D30310000000000D272
[2023-11-01 10:38:13.737] Module's product number is:
[2023-11-01 10:38:13.742] AST50147-01
[2023-11-01 10:38:13.742] Message sent to the Astronode --> 
[2023-11-01 10:38:13.742] 1A8B52
[2023-11-01 10:38:13.792] Message received from the Astronode <-- 
[2023-11-01 10:38:13.797] 9A414E5332323132464C303030303235310969
[2023-11-01 10:38:13.800] Module's Serial Number is:
[2023-11-01 10:38:13.805] ANS2212FL000025
[2023-11-01 10:38:13.810] Message sent to the Astronode --> 
[2023-11-01 10:38:13.810] 19E862
[2023-11-01 10:38:13.899] Message received from the Astronode <-- 
[2023-11-01 10:38:13.908] 9965376139653565612D353039662D343836342D393337332D6264323963386433383966338D64
[2023-11-01 10:38:13.915] Module GUID is:
[2023-11-01 10:38:13.915] e7a9e5ea-509f-4864-9373-bd29c8d389f
[2023-11-01 10:38:13.919] Evt pin is high.
[2023-11-01 10:38:13.919] Message sent to the Astronode --> 
[2023-11-01 10:38:13.924] 65F3DD
[2023-11-01 10:38:13.940] Message received from the Astronode <-- 
[2023-11-01 10:38:13.948] E5020AD2
[2023-11-01 10:38:13.948] Astronode has reset.
[2023-11-01 10:38:13.952] Terminal has been reset.
[2023-11-01 10:38:13.957] Message sent to the Astronode --> 
[2023-11-01 10:38:13.957] 55A0EB
[2023-11-01 10:38:13.971] Message received from the Astronode <-- 
[2023-11-01 10:38:13.977] D5287A
[2023-11-01 10:38:13.977] The reset has been cleared.
[2023-11-01 10:38:14.436] $PMTK011,MTKGPS*08
[2023-11-01 10:38:14.459] 
[2023-11-01 10:38:14.459] $PMTK010,001*2E
[2023-11-01 10:38:14.477] 
[2023-11-01 10:38:15.237] $PMTK011,MTKGPS*08
[2023-11-01 10:38:15.263] 
[2023-11-01 10:38:15.263] $PMTK010,002*2D
[2023-11-01 10:38:15.276] 
[2023-11-01 10:38:15.336] $GPRMC,103816.011,V,,,,,0.00,0.00,011123,,,N,V*3A
[2023-11-01 10:38:15.389] 
[2023-11-01 10:38:15.390] $GPVTG,0.00,T,,M,0.00,N,0.00,K,N*32
[2023-11-01 10:38:15.430] 
[2023-11-01 10:38:15.434] $GPGGA,103816.011,,,,,0,0,,,M,,M,,*45
[2023-11-01 10:38:15.473] 
[2023-11-01 10:38:15.473] $GPGSA,A,1,,,,,,,,,,,,,,,,1*03
[2023-11-01 10:38:15.502] 
[2023-11-01 10:38:15.502] $GPGSA,A,1,,,,,,,,,,,,,,,,2*00
[2023-11-01 10:38:15.535] 
[2023-11-01 10:38:15.535] $GPGSV,3,1,11,07,70,180,,09,58,088,,20,47,296,,30,40,211,,0*63
[2023-11-01 10:38:15.602] 
[2023-11-01 10:38:15.602] $GPGSV,3,2,11,11,34,259,,04,24,088,,16,21,044,,06,20,222,,0*6D
[2023-11-01 10:38:15.667] 
[2023-11-01 10:38:15.668] $GPGSV,3,3,11,05,16,313,,26,04,025,,29,03,330,,0*59
[2023-11-01 10:38:15.727] 
[2023-11-01 10:38:15.727] $GLGSV,3,1,10,68,63,321,,67,56,094,,77,56,071,,78,37,166,,1*70
[2023-11-01 10:38:15.792] 
[2023-11-01 10:38:15.796] $GLGSV,3,2,10,84,27,310,,76,20,029,,69,15,298,,83,13,248,,1*74
[2023-11-01 10:38:15.857] 
[2023-11-01 10:38:15.857] $GLGSV,3,3,10,66,06,109,,85,06,004,,1*78
[2023-11-01 10:38:15.902] 
[2023-11-01 10:38:15.905] $GPGLL,,,,,103816.011,V,N*77
[2023-11-01 10:38:15.933] 
[2023-11-01 10:38:15.933] $GPTXT,01,01,02,ANTSTATUS=OPEN*2B
[2023-11-01 10:38:15.973] 
[2023-11-01 10:38:15.973] $GPRMC,103816.155,V,,,,,0.00,0.00,011123,,,N,V*3B
[2023-11-01 10:38:16.022] 
[2023-11-01 10:38:16.023] $GPVTG,0.00,T,,M,0.00,N,0.00,K,N*32
[2023-11-01 10:38:16.066] 
[2023-11-01 10:38:16.066] $GPGGA,103816.155,,,,,0,0,,,M,,M,,*44
[2023-11-01 10:38:16.100] 
[2023-11-01 10:38:16.102] $GPGSA,A,1,,,,,,,,,,,,,,,,1*03
[2023-11-01 10:38:16.134] 
[2023-11-01 10:38:16.135] $GPGSA,A,1,,,,,,,,,,,,,,,,2*00
[2023-11-01 10:38:16.173] 
[2023-11-01 10:38:16.173] $GPGSV,3,1,11,07,70,180,,09,58,088,,20,47,296,,30,40,211,,0*63
[2023-11-01 10:38:16.233] 
[2023-11-01 10:38:16.235] $GPGSV,3,2,11,11,34,259,,04,24,088,,16,21,044,,06,20,222,,0*6D
[2023-11-01 10:38:16.301] 
[2023-11-01 10:38:16.303] $GPGSV,3,3,11,05,16,313,,26,04,025,,29,03,330,,0*59
[2023-11-01 10:38:16.357] 
[2023-11-01 10:38:16.357] $GLGSV,3,1,10,68,63,321,,67,56,094,,77,56,071,,78,37,166,,1*70
[2023-11-01 10:38:16.423] 
[2023-11-01 10:38:16.423] $GLGSV,3,2,10,84,27,310,,76,20,029,,69,15,298,,83,13,248,,1*74
[2023-11-01 10:38:16.489] 
[2023-11-01 10:38:16.489] $GLGSV,3,3,10,66,06,109,,85,06,004,,1*78
[2023-11-01 10:38:16.533] 
[2023-11-01 10:38:16.533] $GPGLL,,,,,103816.155,V,N*76
[2023-11-01 10:38:16.564] 
[2023-11-01 10:38:16.564] $GPTXT,01,01,02,ANTSTATUS=OPEN*2B
[2023-11-01 10:38:16.600] 
[2023-11-01 10:38:16.601] $GPRMC,103817.155,V,,,,,0.03,0.00,011123,,,N,V*39
[2023-11-01 10:38:16.654] 
[2023-11-01 10:38:16.655] $GPVTG,0.00,T,,M,0.03,N,0.06,K,N*37
[2023-11-01 10:38:16.692] 
[2023-11-01 10:38:16.693] $GPGGA,103817.155,,,,,0,0,,,M,,M,,*45
[2023-11-01 10:38:16.733] 
[2023-11-01 10:38:16.733] $GPGSA,A,1,,,,,,,,,,,,,,,,1*03
[2023-11-01 10:38:16.769] 
[2023-11-01 10:38:16.769] $GPGSA,A,1,,,,,,,,,,,,,,,,2*00
[2023-11-01 10:38:16.802] 
[2023-11-01 10:38:16.802] $GPGSV,3,1,11,07,70,180,,09,58,088,,20,47,296,22,30,40,211,,0*63
[2023-11-01 10:38:16.870] 
[2023-11-01 10:38:16.873] $GPGSV,3,2,11,11,34,259,,04,24,088,,16,21,044,,06,20,222,,0*6D
[2023-11-01 10:38:16.937] 
[2023-11-01 10:38:16.938] $GPGSV,3,3,11,05,16,313,,26,04,025,,29,03,330,,0*59
[2023-11-01 10:38:16.991] 
[2023-11-01 10:38:16.992] $GLGSV,3,1,10,68,63,321,,67,56,094,,77,56,071,,78,37,166,,1*70
[2023-11-01 10:38:17.058] 
[2023-11-01 10:38:17.059] $GLGSV,3,2,10,84,27,310,,76,20,029,21,69,15,298,,83,13,248,,1*77
[2023-11-01 10:38:17.127] 
[2023-11-01 10:38:17.127] $GLGSV,3,3,10,66,06,109,,85,06,004,,1*78
[2023-11-01 10:38:17.170] 
[2023-11-01 10:38:17.170] $GPGLL,,,,,103817.155,V,N*77
[2023-11-01 10:38:17.203] 
[2023-11-01 10:38:17.204] $GPTXT,01,01,02,ANTSTATUS=OPEN*2B
[2023-11-01 10:38:17.238] 
[2023-11-01 10:38:17.490] $GPRMC,103818.155,V,,,,,0.09,0.00,011123,,,N,V*3C
[2023-11-01 10:38:17.545] 
[2023-11-01 10:38:17.545] $GPVTG,0.00,T,,M,0.09,N,0.17,K,N*3D
[2023-11-01 10:38:17.584] 
[2023-11-01 10:38:17.587] $GPGGA,103818.155,,,,,0,0,,,M,,M,,*4A
[2023-11-01 10:38:17.623] 
[2023-11-01 10:38:17.623] $GPGSA,A,1,,,,,,,,,,,,,,,,1*03
[2023-11-01 10:38:17.658] 
[2023-11-01 10:38:17.661] $GPGSA,A,1,,,,,,,,,,,,,,,,2*00
[2023-11-01 10:38:17.692] 
[2023-11-01 10:38:17.692] $GPGSV,3,1,11,07,70,180,,09,58,088,,20,47,296,22,30,40,211,,0*63
[2023-11-01 10:38:17.760] 
[2023-11-01 10:38:17.763] $GPGSV,3,2,11,11,34,259,,04,24,088,,16,21,044,,06,20,222,,0*6D
[2023-11-01 10:38:17.826] 
[2023-11-01 10:38:17.826] $GPGSV,3,3,11,05,16,313,,26,04,025,,29,03,330,,0*59
[2023-11-01 10:38:17.884] 
[2023-11-01 10:38:17.884] $GLGSV,3,1,10,68,63,321,,67,56,094,,77,56,071,,78,37,166,,1*70
[2023-11-01 10:38:17.947] 
[2023-11-01 10:38:17.951] $GLGSV,3,2,10,84,27,310,,76,20,029,21,69,15,298,,83,13,248,,1*77
[2023-11-01 10:38:18.019] 
[2023-11-01 10:38:18.019] $GLGSV,3,3,10,66,06,109,,85,06,004,,1*78
[2023-11-01 10:38:18.060] 
[2023-11-01 10:38:18.060] $GPGLL,,,,,103818.155,V,N*78
[2023-11-01 10:38:18.091] 
[2023-11-01 10:38:18.091] $GPTXT,01,01,02,ANTSTATUS=OPEN*2B
[2023-11-01 10:38:18.128] 
[2023-11-01 10:38:18.489] $GPRMC,103819.155,V,,,,,0.29,0.00,011123,,,N,V*3F
[2023-11-01 10:38:18.543] 
[2023-11-01 10:38:18.544] $GPVTG,0.00,T,,M,0.29,N,0.54,K,N*38
[2023-11-01 10:38:18.587] 
[2023-11-01 10:38:18.587] $GPGGA,103819.155,,,,,0,0,,,M,,M,,*4B
[2023-11-01 10:38:18.622] 
[2023-11-01 10:38:18.624] $GPGSA,A,1,,,,,,,,,,,,,,,,1*03
[2023-11-01 10:38:18.655] 
[2023-11-01 10:38:18.656] $GPGSA,A,1,,,,,,,,,,,,,,,,2*00
[2023-11-01 10:38:18.689] 
[2023-11-01 10:38:18.690] $GPGSV,3,1,11,07,70,180,,09,58,088,,20,47,296,20,30,40,211,,0*61
[2023-11-01 10:38:18.758] 
[2023-11-01 10:38:18.758] $GPGSV,3,2,11,11,34,259,,04,24,088,,16,21,044,,06,20,222,,0*6D
[2023-11-01 10:38:18.825] 
[2023-11-01 10:38:18.825] $GPGSV,3,3,11,05,16,313,,26,04,025,,29,03,330,,0*59
[2023-11-01 10:38:18.879] 
[2023-11-01 10:38:18.880] $GLGSV,3,1,10,68,63,321,,67,56,094,,77,56,071,,78,37,166,,1*70
[2023-11-01 10:38:18.948] 
[2023-11-01 10:38:18.950] $GLGSV,3,2,10,84,27,310,,76,20,029,20,69,15,298,,83,13,248,,1*76
[2023-11-01 10:38:19.016] 
[2023-11-01 10:38:19.018] $GLGSV,3,3,10,66,06,109,,85,06,004,,1*78
[2023-11-01 10:38:19.059] 
[2023-11-01 10:38:19.059] $GPGLL,,,,,103819.155,V,N*79
[2023-11-01 10:38:19.090] 
[2023-11-01 10:38:19.090] $GPTXT,01,01,02,ANTSTATUS=OPEN*2B
[2023-11-01 10:38:19.126] 
[2023-11-01 10:38:19.488] $GPRMC,103820.155,V,,,,,0.19,0.00,011123,,,N,V*36
[2023-11-01 10:38:19.543] 
[2023-11-01 10:38:19.546] $GPVTG,0.00,T,,M,0.19,N,0.35,K,N*3C
[2023-11-01 10:38:19.580] 
[2023-11-01 10:38:19.580] $GPGGA,103820.155,,,,,0,0,,,M,,M,,*41
[2023-11-01 10:38:19.622] 
[2023-11-01 10:38:19.622] $GPGSA,A,1,,,,,,,,,,,,,,,,1*03
[2023-11-01 10:38:19.659] 
[2023-11-01 10:38:19.659] $GPGSA,A,1,,,,,,,,,,,,,,,,2*00
[2023-11-01 10:38:19.690] 
[2023-11-01 10:38:19.690] $GPGSV,3,1,11,07,70,180,,09,58,088,,20,47,296,20,30,40,211,,0*61
[2023-11-01 10:38:19.756] 
[2023-11-01 10:38:19.756] $GPGSV,3,2,11,11,34,259,,04,24,088,16,16,21,044,,06,20,222,,0*6A
[2023-11-01 10:38:19.827] 
[2023-11-01 10:38:19.827] $GPGSV,3,3,11,05,16,313,,26,04,025,,29,03,330,,0*59
[2023-11-01 10:38:19.880] 
[2023-11-01 10:38:19.880] $GLGSV,3,1,10,68,63,321,,67,56,094,,77,56,071,,78,37,166,,1*70
[2023-11-01 10:38:19.949] 
[2023-11-01 10:38:19.949] $GLGSV,3,2,10,84,27,310,,76,20,029,21,69,15,298,,83,13,248,,1*77
[2023-11-01 10:38:20.017] 
[2023-11-01 10:38:20.017] $GLGSV,3,3,10,66,06,109,,85,06,004,,1*78
[2023-11-01 10:38:20.064] 
[2023-11-01 10:38:20.064] $GPGLL,,,,,103820.155,V,N*73
[2023-11-01 10:38:20.090] 
[2023-11-01 10:38:20.091] $GPTXT,01,01,02,ANTSTATUS=OPEN*2B
[2023-11-01 10:38:20.133] 
[2023-11-01 10:38:20.494] $GPRMC,103821.155,V,,,,,0.17,0.00,011123,,,N,V*39
[2023-11-01 10:38:20.546] 
[2023-11-01 10:38:20.548] $GPVTG,0.00,T,,M,0.17,N,0.31,K,N*36
[2023-11-01 10:38:20.586] 
[2023-11-01 10:38:20.587] $GPGGA,103821.155,,,,,0,0,,,M,,M,,*40
[2023-11-01 10:38:20.631] 
[2023-11-01 10:38:20.631] $GPGSA,A,1,,,,,,,,,,,,,,,,1*03
[2023-11-01 10:38:20.662] 
[2023-11-01 10:38:20.663] $GPGSA,A,1,,,,,,,,,,,,,,,,2*00
[2023-11-01 10:38:20.693] 
[2023-11-01 10:38:20.694] $GPGSV,3,1,11,07,70,180,,09,58,088,20,20,47,296,22,30,40,211,,0*61
[2023-11-01 10:38:20.766] 
[2023-11-01 10:38:20.766] $GPGSV,3,2,11,11,34,259,,04,24,088,17,16,21,044,,06,20,222,,0*6B
[2023-11-01 10:38:20.833] 
[2023-11-01 10:38:20.834] $GPGSV,3,3,11,05,16,313,,26,04,025,,29,03,330,,0*59
[2023-11-01 10:38:20.889] 
[2023-11-01 10:38:20.889] $GLGSV,3,1,10,68,63,321,,67,56,094,22,77,56,071,,78,37,166,,1*70
[2023-11-01 10:38:20.958] 
[2023-11-01 10:38:20.961] $GLGSV,3,2,10,84,27,310,,76,20,029,20,69,15,298,,83,13,248,,1*76
[2023-11-01 10:38:21.026] 
[2023-11-01 10:38:21.028] $GLGSV,3,3,10,66,06,109,,85,06,004,,1*78
[2023-11-01 10:38:21.071] 
[2023-11-01 10:38:21.074] $GPGLL,,,,,103821.155,V,N*72
[2023-11-01 10:38:21.102] 
[2023-11-01 10:38:21.104] $GPTXT,01,01,02,ANTSTATUS=OPEN*2B
[2023-11-01 10:38:21.137] 
[2023-11-01 10:38:21.501] $GNRMC,103822.155,A,5216.7056,N,02048.5463,E,0.05,0.00,011123,,,A,V*0A
[2023-11-01 10:38:21.577] 
[2023-11-01 10:38:21.577] $GPVTG,0.00,T,,M,0.05,N,0.09,K,A*31
[2023-11-01 10:38:21.619] 
[2023-11-01 10:38:21.619] $GPGGA,103822.155,5216.7056,N,02048.5463,E,1,5,1.78,76.2,M,39.0,M,,*6B
[2023-11-01 10:38:21.691] 
[2023-11-01 10:38:21.691] $GNGSA,A,3,20,04,09,,,,,,,,,,2.02,1.78,0.96,1*0F
[2023-11-01 10:38:21.741] 
[2023-11-01 10:38:21.743] $GNGSA,A,3,76,67,,,,,,,,,,,2.02,1.78,0.96,2*03
[2023-11-01 10:38:21.793] 
[2023-11-01 10:38:21.793] $GPGSV,3,1,11,07,70,180,,09,58,088,21,20,47,296,22,30,40,211,,0*60
[2023-11-01 10:38:21.863] 
[2023-11-01 10:38:21.864] $GPGSV,3,2,11,11,34,259,,04,24,088,17,16,21,044,,06,20,222,,0*6B
[2023-11-01 10:38:21.933] 
[2023-11-01 10:38:21.933] $GPGSV,3,3,11,05,16,313,,26,04,025,,29,03,330,,0*59
[2023-11-01 10:38:21.988] 
[2023-11-01 10:38:21.988] $GLGSV,3,1,10,68,63,321,,67,56,094,20,77,56,071,,78,37,166,,1*72
[2023-11-01 10:38:22.057] 
[2023-11-01 10:38:22.057] $GLGSV,3,2,10,84,27,310,,76,20,029,20,69,15,298,,83,13,248,,1*76
[2023-11-01 10:38:22.128] 
[2023-11-01 10:38:22.128] $GLGSV,3,3,10,66,06,109,,85,06,004,,1*78
[2023-11-01 10:38:22.168] 
[2023-11-01 10:38:22.170] $GNGLL,5216.7056,N,02048.5463,E,103822.155,A,A*42
[2023-11-01 10:38:22.224] 
[2023-11-01 10:38:22.225] 2027.11.01 10:38:22
[2023-11-01 10:38:22.227] 2.0,52.278427,20.809105,8,0
[2023-11-01 10:38:22.231] Message sent to the Astronode --> 
[2023-11-01 10:38:22.234] 250100322E302C35322E3237383432372C32302E3830393130352C382C30D5C8
[2023-11-01 10:38:22.321] Message received from the Astronode <-- 
[2023-11-01 10:38:22.329] A50100C1A9
[2023-11-01 10:38:22.329] Payload was successfully queued.
[2023-11-01 10:40:43.280] Hello TSAT_P_P_001
[2023-11-01 10:40:43.535] Message sent to the Astronode --> 
[2023-11-01 10:40:43.543] 0505000792A3
[2023-11-01 10:40:43.562] Message received from the Astronode <-- 
[2023-11-01 10:40:43.570] 85DD20
[2023-11-01 10:40:43.570] Astronode configuration successfully set.
[2023-11-01 10:40:43.575] Message sent to the Astronode --> 
[2023-11-01 10:40:43.579] 10C1F3
[2023-11-01 10:40:43.592] Message received from the Astronode <-- 
[2023-11-01 10:40:43.600] 904962
[2023-11-01 10:40:43.600] Astronode configuration successfully saved in NVM.
[2023-11-01 10:40:43.605] Message sent to the Astronode --> 
[2023-11-01 10:40:43.610] 1BAA42
[2023-11-01 10:40:43.656] Message received from the Astronode <-- 
[2023-11-01 10:40:43.663] 9B41535435303134372D30310000000000D272
[2023-11-01 10:40:43.667] Module's product number is:
[2023-11-01 10:40:43.672] AST50147-01
[2023-11-01 10:40:43.672] Message sent to the Astronode --> 
[2023-11-01 10:40:43.676] 1A8B52
[2023-11-01 10:40:46.402] Hello TSAT_P_P_001
[2023-11-01 10:40:46.908] Message sent to the Astronode --> 
[2023-11-01 10:40:46.919] 0505000792A3
[2023-11-01 10:40:46.935] Message received from the Astronode <-- 
[2023-11-01 10:40:46.941] 85DD20
[2023-11-01 10:40:46.941] Astronode configuration successfully set.
[2023-11-01 10:40:46.945] Message sent to the Astronode --> 
[2023-11-01 10:40:46.948] 10C1F3
[2023-11-01 10:40:46.966] Message received from the Astronode <-- 
[2023-11-01 10:40:46.970] 904962
[2023-11-01 10:40:46.972] Astronode configuration successfully saved in NVM.
[2023-11-01 10:40:46.977] Message sent to the Astronode --> 
[2023-11-01 10:40:46.980] 1BAA42
[2023-11-01 10:40:47.030] Message received from the Astronode <-- 
[2023-11-01 10:40:47.037] 9B41535435303134372D30310000000000D272
[2023-11-01 10:40:47.042] Module's product number is:
[2023-11-01 10:40:47.046] AST50147-01
[2023-11-01 10:40:47.046] Message sent to the Astronode --> 
[2023-11-01 10:40:47.051] 1A8B52
[2023-11-01 10:40:47.096] Message received from the Astronode <-- 
[2023-11-01 10:40:47.103] 9A414E5332323132464C303030303235310969
[2023-11-01 10:40:47.106] Module's Serial Number is:
[2023-11-01 10:40:47.109] ANS2212FL000025
[2023-11-01 10:40:47.109] Message sent to the Astronode --> 
[2023-11-01 10:40:47.112] 19E862
[2023-11-01 10:40:47.205] Message received from the Astronode <-- 
[2023-11-01 10:40:47.213] 9965376139653565612D353039662D343836342D393337332D6264323963386433383966338D64
[2023-11-01 10:40:47.220] Module GUID is:
[2023-11-01 10:40:47.225] e7a9e5ea-509f-4864-9373-bd29c8d389f
[2023-11-01 10:40:47.225] Evt pin is high.
[2023-11-01 10:40:47.229] Message sent to the Astronode --> 
[2023-11-01 10:40:47.229] 65F3DD
[2023-11-01 10:40:47.245] Message received from the Astronode <-- 
[2023-11-01 10:40:47.251] E5020AD2
[2023-11-01 10:40:47.253] Astronode has reset.
[2023-11-01 10:40:47.256] Terminal has been reset.
[2023-11-01 10:40:47.258] Message sent to the Astronode --> 
[2023-11-01 10:40:47.260] 55A0EB
[2023-11-01 10:40:47.275] Message received from the Astronode <-- 
[2023-11-01 10:40:47.280] D5287A
[2023-11-01 10:40:47.283] The reset has been cleared.
[2023-11-01 10:40:47.742] $PMTK011,MTKGPS*08
[2023-11-01 10:40:47.765] 
[2023-11-01 10:40:47.768] $PMTK010,001*2E
[2023-11-01 10:40:47.783] 
[2023-11-01 10:40:48.542] $PMTK011,MTKGPS*08
[2023-11-01 10:40:48.564] 
[2023-11-01 10:40:48.564] $PMTK010,002*2D
[2023-11-01 10:40:48.582] 
[2023-11-01 10:40:48.639] $GPRMC,104049.318,V,,,,,0.00,0.00,011123,,,N,V*35
[2023-11-01 10:40:48.691] 
[2023-11-01 10:40:48.692] $GPVTG,0.00,T,,M,0.00,N,0.00,K,N*32
[2023-11-01 10:40:48.732] 
[2023-11-01 10:40:48.736] $GPGGA,104049.318,,,,,0,0,,,M,,M,,*4A
[2023-11-01 10:40:48.772] 
[2023-11-01 10:40:48.772] $GPGSA,A,1,,,,,,,,,,,,,,,,1*03
[2023-11-01 10:40:48.811] 
[2023-11-01 10:40:48.811] $GPGSA,A,1,,,,,,,,,,,,,,,,2*00
[2023-11-01 10:40:48.838] 
[2023-11-01 10:40:48.838] $GPGSV,3,1,11,07,71,179,,09,57,089,24,20,47,295,,30,42,211,,0*6D
[2023-11-01 10:40:48.907] 
[2023-11-01 10:40:48.907] $GPGSV,3,2,11,11,33,258,,04,23,089,,16,20,043,,06,19,221,,0*62
[2023-11-01 10:40:48.979] 
[2023-11-01 10:40:48.979] $GPGSV,3,3,11,05,17,313,,26,03,024,,29,02,330,,0*5F
[2023-11-01 10:40:49.032] 
[2023-11-01 10:40:49.032] $GLGSV,3,1,10,68,64,322,,77,56,069,,67,55,095,,78,38,166,,1*70
[2023-11-01 10:40:49.097] 
[2023-11-01 10:40:49.097] $GLGSV,3,2,10,84,26,309,,76,19,029,,69,16,299,,83,11,247,,1*78
[2023-11-01 10:40:49.163] 
[2023-11-01 10:40:49.165] $GLGSV,3,3,10,85,07,004,,66,05,110,,1*72
[2023-11-01 10:40:49.206] 
[2023-11-01 10:40:49.207] $GPGLL,,,,,104049.318,V,N*78
[2023-11-01 10:40:49.239] 
[2023-11-01 10:40:49.242] $GPTXT,01,01,02,ANTSTATUS=OPEN*2B
[2023-11-01 10:40:49.277] 
[2023-11-01 10:40:49.277] $GPRMC,104049.461,V,,,,,0.02,0.00,011123,,,N,V*3E
[2023-11-01 10:40:49.329] 
[2023-11-01 10:40:49.329] $GPVTG,0.00,T,,M,0.02,N,0.04,K,N*34
[2023-11-01 10:40:49.366] 
[2023-11-01 10:40:49.366] $GPGGA,104049.461,,,,,0,0,,,M,,M,,*43
[2023-11-01 10:40:49.409] 
[2023-11-01 10:40:49.412] $GPGSA,A,1,,,,,,,,,,,,,,,,1*03
[2023-11-01 10:40:49.442] 
[2023-11-01 10:40:49.442] $GPGSA,A,1,,,,,,,,,,,,,,,,2*00
[2023-11-01 10:40:49.476] 
[2023-11-01 10:40:49.476] $GPGSV,3,1,11,07,71,179,,09,57,089,26,20,47,295,,30,42,211,,0*6F
[2023-11-01 10:40:49.545] 
[2023-11-01 10:40:49.548] $GPGSV,3,2,11,11,33,258,,04,23,089,,16,20,043,,06,19,221,,0*62
[2023-11-01 10:40:49.609] 
[2023-11-01 10:40:49.611] $GPGSV,3,3,11,05,17,313,,26,03,024,,29,02,330,,0*5F
[2023-11-01 10:40:49.665] 
[2023-11-01 10:40:49.665] $GLGSV,3,1,10,68,64,322,,77,56,069,,67,55,095,,78,38,166,,1*70
[2023-11-01 10:40:49.732] 
[2023-11-01 10:40:49.732] $GLGSV,3,2,10,84,26,309,,76,19,029,,69,16,299,,83,11,247,,1*78
[2023-11-01 10:40:49.798] 
[2023-11-01 10:40:49.799] $GLGSV,3,3,10,85,07,004,,66,05,110,,1*72
[2023-11-01 10:40:49.842] 
[2023-11-01 10:40:49.843] $GPGLL,,,,,104049.461,V,N*71
[2023-11-01 10:40:49.873] 
[2023-11-01 10:40:49.874] $GPTXT,01,01,02,ANTSTATUS=OPEN*2B
[2023-11-01 10:40:49.910] 
[2023-11-01 10:40:49.911] $GPRMC,104050.461,V,,,,,0.22,0.00,011123,,,N,V*34
[2023-11-01 10:40:49.968] 
[2023-11-01 10:40:49.968] $GPVTG,0.00,T,,M,0.22,N,0.41,K,N*37
[2023-11-01 10:40:50.002] 
[2023-11-01 10:40:50.002] $GPGGA,104050.461,,,,,0,0,,,M,,M,,*4B
[2023-11-01 10:40:50.043] 
[2023-11-01 10:40:50.043] $GPGSA,A,1,,,,,,,,,,,,,,,,1*03
[2023-11-01 10:40:50.079] 
[2023-11-01 10:40:50.079] $GPGSA,A,1,,,,,,,,,,,,,,,,2*00
[2023-11-01 10:40:50.110] 
[2023-11-01 10:40:50.112] $GPGSV,3,1,11,07,71,179,,09,57,089,26,20,47,295,,30,42,211,,0*6F
[2023-11-01 10:40:50.178] 
[2023-11-01 10:40:50.179] $GPGSV,3,2,11,11,33,258,,04,23,089,,16,20,043,,06,19,221,,0*62
[2023-11-01 10:40:50.245] 
[2023-11-01 10:40:50.245] $GPGSV,3,3,11,05,17,313,,26,03,024,,29,02,330,,0*5F
[2023-11-01 10:40:50.302] 
[2023-11-01 10:40:50.302] $GLGSV,3,1,10,68,64,322,,77,56,069,,67,55,095,,78,38,166,,1*70
[2023-11-01 10:40:50.367] 
[2023-11-01 10:40:50.368] $GLGSV,3,2,10,84,26,309,,76,19,029,24,69,16,299,,83,11,247,,1*7E
[2023-11-01 10:40:50.437] 
[2023-11-01 10:40:50.437] $GLGSV,3,3,10,85,07,004,,66,05,110,,1*72
[2023-11-01 10:40:50.480] 
[2023-11-01 10:40:50.480] $GPGLL,,,,,104050.461,V,N*79
[2023-11-01 10:40:50.513] 
[2023-11-01 10:40:50.513] $GPTXT,01,01,02,ANTSTATUS=OPEN*2B
[2023-11-01 10:40:50.548] 
[2023-11-01 10:40:50.797] $GPRMC,104051.461,V,,,,,0.03,0.00,011123,,,N,V*36
[2023-11-01 10:40:50.855] 
[2023-11-01 10:40:50.855] $GPVTG,0.00,T,,M,0.03,N,0.06,K,N*37
[2023-11-01 10:40:50.892] 
[2023-11-01 10:40:50.895] $GPGGA,104051.461,,,,,0,0,,,M,,M,,*4A
[2023-11-01 10:40:50.932] 
[2023-11-01 10:40:50.932] $GPGSA,A,1,,,,,,,,,,,,,,,,1*03
[2023-11-01 10:40:50.965] 
[2023-11-01 10:40:50.965] $GPGSA,A,1,,,,,,,,,,,,,,,,2*00
[2023-11-01 10:40:50.999] 
[2023-11-01 10:40:50.999] $GPGSV,3,1,11,07,71,179,,09,57,089,26,20,47,295,,30,42,211,,0*6F
[2023-11-01 10:40:51.066] 
[2023-11-01 10:40:51.067] $GPGSV,3,2,11,11,33,258,,04,23,089,20,16,20,043,,06,19,221,,0*60
[2023-11-01 10:40:51.134] 
[2023-11-01 10:40:51.135] $GPGSV,3,3,11,05,17,313,,26,03,024,,29,02,330,,0*5F
[2023-11-01 10:40:51.191] 
[2023-11-01 10:40:51.191] $GLGSV,3,1,10,68,64,322,,77,56,069,,67,55,095,19,78,38,166,,1*78
[2023-11-01 10:40:51.259] 
[2023-11-01 10:40:51.259] $GLGSV,3,2,10,84,26,309,,76,19,029,20,69,16,299,,83,11,247,,1*7A
[2023-11-01 10:40:51.327] 
[2023-11-01 10:40:51.328] $GLGSV,3,3,10,85,07,004,,66,05,110,,1*72
[2023-11-01 10:40:51.371] 
[2023-11-01 10:40:51.372] $GPGLL,,,,,104051.461,V,N*78
[2023-11-01 10:40:51.403] 
[2023-11-01 10:40:51.404] $GPTXT,01,01,02,ANTSTATUS=OPEN*2B
[2023-11-01 10:40:51.439] 
[2023-11-01 10:40:51.808] $GNRMC,104052.461,A,5216.6957,N,02048.5266,E,0.06,0.00,011123,,,A,V*09
[2023-11-01 10:40:51.882] 
[2023-11-01 10:40:51.884] $GPVTG,0.00,T,,M,0.06,N,0.10,K,A*3A
[2023-11-01 10:40:51.927] 
[2023-11-01 10:40:51.927] $GPGGA,104052.461,5216.6957,N,02048.5266,E,1,4,1.83,77.6,M,39.0,M,,*6B
[2023-11-01 10:40:51.997] 
[2023-11-01 10:40:51.997] $GNGSA,A,3,20,09,04,,,,,,,,,,2.07,1.83,0.97,1*0F
[2023-11-01 10:40:52.049] 
[2023-11-01 10:40:52.050] $GNGSA,A,3,76,,,,,,,,,,,,2.07,1.83,0.97,2*02
[2023-11-01 10:40:52.096] 
[2023-11-01 10:40:52.097] $GPGSV,3,1,11,07,71,179,,09,57,089,27,20,47,295,17,30,42,211,,0*68
[2023-11-01 10:40:52.166] 
[2023-11-01 10:40:52.168] $GPGSV,3,2,11,11,33,258,,04,23,089,22,16,20,043,,06,19,221,,0*62
[2023-11-01 10:40:52.238] 
[2023-11-01 10:40:52.238] $GPGSV,3,3,11,05,17,313,,26,03,024,,29,02,330,,0*5F
[2023-11-01 10:40:52.291] 
[2023-11-01 10:40:52.294] $GLGSV,3,1,10,68,64,322,,77,56,069,,67,55,095,19,78,38,166,,1*78
[2023-11-01 10:40:52.361] 
[2023-11-01 10:40:52.361] $GLGSV,3,2,10,84,26,309,,76,19,029,20,69,16,299,,83,11,247,,1*7A
[2023-11-01 10:40:52.434] 
[2023-11-01 10:40:52.434] $GLGSV,3,3,10,85,07,004,,66,05,110,,1*72
[2023-11-01 10:40:52.475] 
[2023-11-01 10:40:52.475] $GNGLL,5216.6957,N,02048.5266,E,104052.461,A,A*42
[2023-11-01 10:40:52.530] 
[2023-11-01 10:40:52.534] 2027.11.01 10:40:52
[2023-11-01 10:40:52.534] 2.1,52.278262,20.808777,5,0
[2023-11-01 10:40:52.539] Message sent to the Astronode --> 
[2023-11-01 10:40:52.543] 250100322E312C35322E3237383236322C32302E3830383737372C352C30D472
[2023-11-01 10:40:52.627] Message received from the Astronode <-- 
[2023-11-01 10:40:52.635] A50100C1A9
[2023-11-01 10:40:52.635] Payload was successfully queued.
[2023-11-01 10:41:20.614] Hello TSAT_P_P_001
[2023-11-01 10:41:20.868] Message sent to the Astronode --> 
[2023-11-01 10:41:20.877] 0505000792A3
[2023-11-01 10:41:23.651] Hello TSAT_P_P_001
[2023-11-01 10:41:24.160] Message sent to the Astronode --> 
[2023-11-01 10:41:24.164] 0505000792A3
[2023-11-01 10:41:24.184] Message received from the Astronode <-- 
[2023-11-01 10:41:24.192] 85DD20
[2023-11-01 10:41:24.192] Astronode configuration successfully set.
[2023-11-01 10:41:24.197] Message sent to the Astronode --> 
[2023-11-01 10:41:24.201] 10C1F3
[2023-11-01 10:41:24.215] Message received from the Astronode <-- 
[2023-11-01 10:41:24.220] 904962
[2023-11-01 10:41:24.220] Astronode configuration successfully saved in NVM.
[2023-11-01 10:41:24.227] Message sent to the Astronode --> 
[2023-11-01 10:41:24.232] 1BAA42
[2023-11-01 10:41:24.279] Message received from the Astronode <-- 
[2023-11-01 10:41:24.289] 9B41535435303134372D30310000000000D272
[2023-11-01 10:41:24.295] Module's product number is:
[2023-11-01 10:41:24.295] AST50147-01
[2023-11-01 10:41:24.295] Message sent to the Astronode --> 
[2023-11-01 10:41:24.300] 1A8B52
[2023-11-01 10:41:24.345] Message received from the Astronode <-- 
[2023-11-01 10:41:24.350] 9A414E5332323132464C303030303235310969
[2023-11-01 10:41:24.358] Module's Serial Number is:
[2023-11-01 10:41:24.358] ANS2212FL000025
[2023-11-01 10:41:24.362] Message sent to the Astronode --> 
[2023-11-01 10:41:24.367] 19E862
[2023-11-01 10:41:24.454] Message received from the Astronode <-- 
[2023-11-01 10:41:24.462] 9965376139653565612D353039662D343836342D393337332D6264323963386433383966338D64
[2023-11-01 10:41:24.469] Module GUID is:
[2023-11-01 10:41:24.473] e7a9e5ea-509f-4864-9373-bd29c8d389f
[2023-11-01 10:41:24.929] $PMTK011,MTKGPS*08
[2023-11-01 10:41:24.951] 
[2023-11-01 10:41:24.954] $PMTK010,001*2E
[2023-11-01 10:41:24.968] 
[2023-11-01 10:41:25.729] $PMTK011,MTKGPS*08
[2023-11-01 10:41:25.752] 
[2023-11-01 10:41:25.752] $PMTK010,002*2D
[2023-11-01 10:41:25.771] 
