
[2023-10-29 22:35:14.679] Hello TSAT_P_P_001
[2023-10-29 22:35:15.141] $PMTK011,MTKGPS*08
[2023-10-29 22:35:15.160] 
[2023-10-29 22:35:15.160] $PMTK010,001*2E
[2023-10-29 22:35:15.180] 
[2023-10-29 22:35:15.940] $PMTK011,MTKGPS*08
[2023-10-29 22:35:15.961] 
[2023-10-29 22:35:15.966] $PMTK010,002*2D
[2023-10-29 22:35:15.980] 
[2023-10-29 22:35:16.034] $GPRMC,213516.202,V,,,,,0.00,0.00,291023,,,N,V*3E
[2023-10-29 22:35:16.090] 
[2023-10-29 22:35:16.090] $GPVTG,0.00,T,,M,0.00,N,0.01,K,N*33
[2023-10-29 22:35:16.124] 
[2023-10-29 22:35:16.128] $GPGGA,213516.202,,,,,0,0,,,M,,M,,*4A
[2023-10-29 22:35:16.168] 
[2023-10-29 22:35:16.168] $GPGSA,A,1,,,,,,,,,,,,,,,,1*03
[2023-10-29 22:35:16.199] 
[2023-10-29 22:35:16.199] $GPGSA,A,1,,,,,,,,,,,,,,,,2*00
[2023-10-29 22:35:16.231] 
[2023-10-29 22:35:16.234] $GPGSV,4,1,13,29,86,038,,25,48,135,,31,43,279,,28,42,243,,0*60
[2023-10-29 22:35:16.298] 
[2023-10-29 22:35:16.300] $GPGSV,4,2,13,26,31,300,,18,30,194,,20,26,061,,05,24,099,31,0*62
[2023-10-29 22:35:16.367] 
[2023-10-29 22:35:16.369] $GPGSV,4,3,13,11,17,043,,12,12,124,,04,07,332,,16,04,300,,0*67
[2023-10-29 22:35:16.436] 
[2023-10-29 22:35:16.438] $GPGSV,4,4,13,09,02,001,,0*5D
[2023-10-29 22:35:16.467] 
[2023-10-29 22:35:16.467] $GLGSV,1,1,03,82,86,228,,80,77,196,,81,40,043,,1*4B
[2023-10-29 22:35:16.522] 
[2023-10-29 22:35:16.522] $GPGLL,,,,,213516.202,V,N*78
[2023-10-29 22:35:16.553] 
[2023-10-29 22:35:16.557] $GPTXT,01,01,02,ANTSTATUS=OPEN*2B
[2023-10-29 22:35:16.589] 
[2023-10-29 22:35:16.591] $GPRMC,213516.344,V,,,,,0.01,0.00,291023,,,N,V*3C
[2023-10-29 22:35:16.642] 
[2023-10-29 22:35:16.644] $GPVTG,0.00,T,,M,0.01,N,0.01,K,N*32
[2023-10-29 22:35:16.683] 
[2023-10-29 22:35:16.683] $GPGGA,213516.344,,,,,0,0,,,M,,M,,*49
[2023-10-29 22:35:16.725] 
[2023-10-29 22:35:16.725] $GPGSA,A,1,,,,,,,,,,,,,,,,1*03
[2023-10-29 22:35:16.760] 
[2023-10-29 22:35:16.760] $GPGSA,A,1,,,,,,,,,,,,,,,,2*00
[2023-10-29 22:35:16.788] 
[2023-10-29 22:35:16.790] $GPGSV,4,1,13,29,86,038,,25,48,135,,31,43,279,,28,42,243,,0*60
[2023-10-29 22:35:16.858] 
[2023-10-29 22:35:16.858] $GPGSV,4,2,13,26,31,300,24,18,30,194,,20,26,061,,05,24,099,30,0*65
[2023-10-29 22:35:16.925] 
[2023-10-29 22:35:16.927] $GPGSV,4,3,13,11,17,043,,12,12,124,,04,07,332,,16,04,300,,0*67
[2023-10-29 22:35:16.995] 
[2023-10-29 22:35:16.995] $GPGSV,4,4,13,09,02,001,,0*5D
[2023-10-29 22:35:17.025] 
[2023-10-29 22:35:17.027] $GLGSV,1,1,03,82,86,228,,80,77,196,,81,40,043,,1*4B
[2023-10-29 22:35:17.083] 
[2023-10-29 22:35:17.083] $GPGLL,,,,,213516.344,V,N*7B
[2023-10-29 22:35:17.111] 
[2023-10-29 22:35:17.113] $GPTXT,01,01,02,ANTSTATUS=OPEN*2B
[2023-10-29 22:35:17.148] 
[2023-10-29 22:35:17.226] $GPRMC,213517.344,V,,,,,0.07,0.00,291023,,,N,V*3B
[2023-10-29 22:35:17.278] 
[2023-10-29 22:35:17.278] $GPVTG,0.00,T,,M,0.07,N,0.13,K,N*37
[2023-10-29 22:35:17.316] 
[2023-10-29 22:35:17.316] $GPGGA,213517.344,,,,,0,0,,,M,,M,,*48
[2023-10-29 22:35:17.357] 
[2023-10-29 22:35:17.357] $GPGSA,A,1,,,,,,,,,,,,,,,,1*03
[2023-10-29 22:35:17.389] 
[2023-10-29 22:35:17.391] $GPGSA,A,1,,,,,,,,,,,,,,,,2*00
[2023-10-29 22:35:17.423] 
[2023-10-29 22:35:17.425] $GPGSV,4,1,13,29,86,038,,25,48,135,,31,43,279,,28,42,243,,0*60
[2023-10-29 22:35:17.489] 
[2023-10-29 22:35:17.490] $GPGSV,4,2,13,26,31,300,24,18,30,194,,20,26,061,,05,24,099,31,0*64
[2023-10-29 22:35:17.560] 
[2023-10-29 22:35:17.562] $GPGSV,4,3,13,11,17,043,,12,12,124,,04,07,332,,16,04,300,,0*67
[2023-10-29 22:35:17.631] 
[2023-10-29 22:35:17.631] $GPGSV,4,4,13,09,02,001,,0*5D
[2023-10-29 22:35:17.661] 
[2023-10-29 22:35:17.661] $GLGSV,1,1,03,82,86,228,,80,77,196,,81,40,043,,1*4B
[2023-10-29 22:35:17.718] 
[2023-10-29 22:35:17.720] $GPGLL,,,,,213517.344,V,N*7A
[2023-10-29 22:35:17.746] 
[2023-10-29 22:35:17.747] $GPTXT,01,01,02,ANTSTATUS=OPEN*2B
[2023-10-29 22:35:17.783] 
[2023-10-29 22:35:18.175] $GPRMC,213518.344,V,,,,,0.02,0.00,291023,,,N,V*31
[2023-10-29 22:35:18.229] 
[2023-10-29 22:35:18.229] $GPVTG,0.00,T,,M,0.02,N,0.03,K,N*33
[2023-10-29 22:35:18.267] 
[2023-10-29 22:35:18.267] $GPGGA,213518.344,,,,,0,0,,,M,,M,,*47
[2023-10-29 22:35:18.306] 
[2023-10-29 22:35:18.306] $GPGSA,A,1,,,,,,,,,,,,,,,,1*03
[2023-10-29 22:35:18.341] 
[2023-10-29 22:35:18.341] $GPGSA,A,1,,,,,,,,,,,,,,,,2*00
[2023-10-29 22:35:18.373] 
[2023-10-29 22:35:18.375] $GPGSV,4,1,13,29,86,038,,25,48,135,,31,43,279,,28,42,243,,0*60
[2023-10-29 22:35:18.439] 
[2023-10-29 22:35:18.441] $GPGSV,4,2,13,26,31,300,24,18,30,194,,20,26,061,25,05,24,099,31,0*63
[2023-10-29 22:35:18.513] 
[2023-10-29 22:35:18.513] $GPGSV,4,3,13,11,17,043,,12,12,124,,04,07,332,,16,04,300,,0*67
[2023-10-29 22:35:18.578] 
[2023-10-29 22:35:18.580] $GPGSV,4,4,13,09,02,001,,0*5D
[2023-10-29 22:35:18.612] 
[2023-10-29 22:35:18.612] $GLGSV,1,1,03,82,86,228,,80,77,196,,81,40,043,,1*4B
[2023-10-29 22:35:18.668] 
[2023-10-29 22:35:18.668] $GPGLL,,,,,213518.344,V,N*75
[2023-10-29 22:35:18.698] 
[2023-10-29 22:35:18.698] $GPTXT,01,01,02,ANTSTATUS=OPEN*2B
[2023-10-29 22:35:18.734] 
[2023-10-29 22:35:19.190] $GPRMC,213519.344,V,,,,,1.60,0.03,291023,,,N,V*36
[2023-10-29 22:35:19.245] 
[2023-10-29 22:35:19.245] $GPVTG,0.03,T,,M,1.60,N,2.97,K,N*3A
[2023-10-29 22:35:19.281] 
[2023-10-29 22:35:19.281] $GPGGA,213519.344,,,,,0,0,,,M,,M,,*46
[2023-10-29 22:35:19.323] 
[2023-10-29 22:35:19.323] $GPGSA,A,1,,,,,,,,,,,,,,,,1*03
[2023-10-29 22:35:19.354] 
[2023-10-29 22:35:19.356] $GPGSA,A,1,,,,,,,,,,,,,,,,2*00
[2023-10-29 22:35:19.389] 
[2023-10-29 22:35:19.389] $GPGSV,4,1,13,29,86,038,,25,48,135,,31,43,279,18,28,42,243,,0*69
[2023-10-29 22:35:19.457] 
[2023-10-29 22:35:19.458] $GPGSV,4,2,13,26,31,300,23,18,30,194,,20,26,061,23,05,24,099,30,0*63
[2023-10-29 22:35:19.531] 
[2023-10-29 22:35:19.531] $GPGSV,4,3,13,11,17,043,,12,12,124,,04,07,332,,16,04,300,,0*67
[2023-10-29 22:35:19.598] 
[2023-10-29 22:35:19.598] $GPGSV,4,4,13,09,02,001,,0*5D
[2023-10-29 22:35:19.632] 
[2023-10-29 22:35:19.632] $GLGSV,1,1,03,82,86,228,,80,77,196,,81,40,043,,1*4B
[2023-10-29 22:35:19.688] 
[2023-10-29 22:35:19.688] $GPGLL,,,,,213519.344,V,N*74
[2023-10-29 22:35:19.716] 
[2023-10-29 22:35:19.716] $GPTXT,01,01,02,ANTSTATUS=OPEN*2B
[2023-10-29 22:35:19.753] 
[2023-10-29 22:35:20.182] $GNRMC,213520.344,A,5216.7008,N,02048.5573,E,0.35,0.03,291023,,,A,V*05
[2023-10-29 22:35:20.256] 
[2023-10-29 22:35:20.258] $GPVTG,0.03,T,,M,0.35,N,0.64,K,A*3A
[2023-10-29 22:35:20.297] 
[2023-10-29 22:35:20.297] $GPGGA,213520.344,5216.7008,N,02048.5573,E,1,4,2.27,83.4,M,39.0,M,,*6B
[2023-10-29 22:35:20.370] 
[2023-10-29 22:35:20.372] $GNGSA,A,3,26,05,31,20,,,,,,,,,2.48,2.27,0.99,1*09
[2023-10-29 22:35:20.426] 
[2023-10-29 22:35:20.426] $GNGSA,A,3,,,,,,,,,,,,,2.48,2.27,0.99,2*0B
[2023-10-29 22:35:20.472] 
[2023-10-29 22:35:20.472] $GPGSV,4,1,13,29,86,038,,25,48,135,,31,43,279,18,28,42,243,,0*69
[2023-10-29 22:35:20.539] 
[2023-10-29 22:35:20.542] $GPGSV,4,2,13,26,31,300,24,18,30,194,,20,26,061,23,05,24,099,31,0*65
[2023-10-29 22:35:20.619] 
[2023-10-29 22:35:20.619] $GPGSV,4,3,13,11,17,043,17,12,12,124,,04,07,332,,16,04,300,,0*61
[2023-10-29 22:35:20.682] 
[2023-10-29 22:35:20.682] $GPGSV,4,4,13,09,02,001,,0*5D
[2023-10-29 22:35:20.717] 
[2023-10-29 22:35:20.717] $GLGSV,1,1,03,82,86,228,,80,77,196,,81,40,043,,1*4B
[2023-10-29 22:35:20.770] 
[2023-10-29 22:35:20.770] $GNGLL,5216.7008,N,02048.5573,E,213520.344,A,A*46
[2023-10-29 22:35:20.823] 
[2023-10-29 22:35:20.823] $GPTXT,01,01,02,ANTSTATUS=OPEN*2B
[2023-10-29 22:35:20.857] 
[2023-10-29 22:35:21.183] $GNRMC,213521.344,A,5216.7022,N,02048.5576,E,0.39,0.03,291023,,,A,V*05
[2023-10-29 22:35:21.259] 
[2023-10-29 22:35:21.259] $GPVTG,0.03,T,,M,0.39,N,0.73,K,A*30
[2023-10-29 22:35:21.302] 
[2023-10-29 22:35:21.302] $GPGGA,213521.344,5216.7022,N,02048.5576,E,1,4,2.28,83.2,M,39.0,M,,*6E
[2023-10-29 22:35:21.375] 
[2023-10-29 22:35:21.375] $GNGSA,A,3,26,05,31,20,,,,,,,,,2.48,2.28,0.99,1*06
[2023-10-29 22:35:21.424] 
[2023-10-29 22:35:21.425] $GNGSA,A,3,,,,,,,,,,,,,2.48,2.28,0.99,2*04
[2023-10-29 22:35:21.470] 
[2023-10-29 22:35:21.472] $GPGSV,4,1,13,29,86,038,,25,48,135,17,31,43,279,17,28,42,243,16,0*67
[2023-10-29 22:35:21.543] 
[2023-10-29 22:35:21.545] $GPGSV,4,2,13,26,31,300,23,18,30,194,,20,26,061,21,05,24,099,31,0*60
[2023-10-29 22:35:21.617] 
[2023-10-29 22:35:21.617] $GPGSV,4,3,13,11,17,043,17,12,12,124,,04,07,332,,16,04,300,,0*61
[2023-10-29 22:35:21.685] 
[2023-10-29 22:35:21.687] $GPGSV,4,4,13,09,02,001,,0*5D
[2023-10-29 22:35:21.720] 
[2023-10-29 22:35:21.720] $GLGSV,1,1,03,82,86,228,,80,77,196,,81,40,043,,1*4B
[2023-10-29 22:35:21.774] 
[2023-10-29 22:35:21.774] $GNGLL,5216.7022,N,02048.5576,E,213521.344,A,A*4A
[2023-10-29 22:35:21.828] 
[2023-10-29 22:35:21.828] $GPTXT,01,01,02,ANTSTATUS=OPEN*2B
[2023-10-29 22:35:21.862] 
[2023-10-29 22:35:22.841] $GNRMC,213523.000,A,5216.7031,N,02048.5578,E,0.20,0.03,291023,,,A,V*00
[2023-10-29 22:35:22.925] 
[2023-10-29 22:35:22.925] $GPVTG,0.03,T,,M,0.20,N,0.36,K,A*39
[2023-10-29 22:35:22.957] 
[2023-10-29 22:35:22.957] $GPGGA,213523.000,5216.7031,N,02048.5578,E,1,7,1.11,83.1,M,39.0,M,,*6A
[2023-10-29 22:35:23.031] 
[2023-10-29 22:35:23.033] $GNGSA,A,3,26,05,25,31,28,20,11,,,,,,1.49,1.11,0.98,1*01
[2023-10-29 22:35:23.092] 
[2023-10-29 22:35:23.092] $GNGSA,A,3,,,,,,,,,,,,,1.49,1.11,0.98,2*0E
[2023-10-29 22:35:23.144] 
[2023-10-29 22:35:23.144] $GPGSV,4,1,13,29,86,038,,25,48,135,17,31,43,279,16,28,42,243,16,0*66
[2023-10-29 22:35:23.209] 
[2023-10-29 22:35:23.209] $GPGSV,4,2,13,26,31,300,23,18,30,194,,20,26,061,22,05,24,099,31,0*63
[2023-10-29 22:35:23.287] 
[2023-10-29 22:35:23.289] $GPGSV,4,3,13,11,17,043,16,12,12,124,,04,07,332,,16,04,300,,0*60
[2023-10-29 22:35:23.352] 
[2023-10-29 22:35:23.352] $GPGSV,4,4,13,09,02,001,,0*5D
[2023-10-29 22:35:23.385] 
[2023-10-29 22:35:23.385] $GLGSV,1,1,03,82,86,228,,80,77,196,,81,40,043,,1*4B
[2023-10-29 22:35:23.446] 
[2023-10-29 22:35:23.446] $GNGLL,5216.7031,N,02048.5578,E,213523.000,A,A*47
[2023-10-29 22:35:23.495] 
[2023-10-29 22:35:23.495] $GPTXT,01,01,02,ANTSTATUS=OPEN*2B
[2023-10-29 22:35:23.532] 
[2023-10-29 22:35:23.844] $GNRMC,213524.000,A,5216.7032,N,02048.5579,E,0.13,0.03,291023,,,A,V*05
[2023-10-29 22:35:23.925] 
[2023-10-29 22:35:23.925] $GPVTG,0.03,T,,M,0.13,N,0.24,K,A*3A
[2023-10-29 22:35:23.963] 
[2023-10-29 22:35:23.963] $GPGGA,213524.000,5216.7032,N,02048.5579,E,1,5,3.20,83.1,M,39.0,M,,*6D
[2023-10-29 22:35:24.033] 
[2023-10-29 22:35:24.036] $GNGSA,A,3,05,25,20,11,12,,,,,,,,3.34,3.20,0.96,1*08
[2023-10-29 22:35:24.092] 
[2023-10-29 22:35:24.092] $GNGSA,A,3,,,,,,,,,,,,,3.34,3.20,0.96,2*08
[2023-10-29 22:35:24.133] 
[2023-10-29 22:35:24.136] $GPGSV,4,1,14,29,86,038,17,25,48,135,16,31,43,279,15,28,42,243,16,0*65
[2023-10-29 22:35:24.209] 
[2023-10-29 22:35:24.211] $GPGSV,4,2,14,26,31,300,23,18,30,194,,37,30,179,,20,26,061,22,0*6D
[2023-10-29 22:35:24.283] 
[2023-10-29 22:35:24.283] $GPGSV,4,3,14,05,24,099,31,11,17,043,14,12,12,124,18,04,07,332,,0*6D
[2023-10-29 22:35:24.358] 
[2023-10-29 22:35:24.358] $GPGSV,4,4,14,16,04,300,,09,02,001,,0*6A
[2023-10-29 22:35:24.402] 
[2023-10-29 22:35:24.404] $GLGSV,1,1,03,82,86,228,,80,77,196,,81,40,043,,1*4B
[2023-10-29 22:35:24.454] 
[2023-10-29 22:35:24.454] $GNGLL,5216.7032,N,02048.5579,E,213524.000,A,A*42
[2023-10-29 22:35:24.507] 
[2023-10-29 22:35:24.507] $GPTXT,01,01,02,ANTSTATUS=OPEN*2B
[2023-10-29 22:35:24.548] 
[2023-10-29 22:35:24.841] $GNRMC,213525.000,A,5216.7033,N,02048.5576,E,0.36,0.03,291023,,,A,V*0D
[2023-10-29 22:35:24.923] 
[2023-10-29 22:35:24.923] $GPVTG,0.03,T,,M,0.36,N,0.66,K,A*3B
[2023-10-29 22:35:24.962] 
[2023-10-29 22:35:24.964] $GPGGA,213525.000,5216.7033,N,02048.5576,E,1,8,0.97,83.1,M,39.0,M,,*60
[2023-10-29 22:35:25.033] 
[2023-10-29 22:35:25.033] $GNGSA,A,3,26,05,25,31,28,20,11,12,,,,,1.35,0.97,0.94,1*0A
[2023-10-29 22:35:25.093] 
[2023-10-29 22:35:25.094] $GNGSA,A,3,,,,,,,,,,,,,1.35,0.97,0.94,2*06
[2023-10-29 22:35:25.140] 
[2023-10-29 22:35:25.140] $GPGSV,4,1,14,29,86,038,,25,48,135,17,31,43,279,17,28,42,243,16,0*60
[2023-10-29 22:35:25.215] 
[2023-10-29 22:35:25.215] $GPGSV,4,2,14,26,31,300,23,18,30,194,,37,30,179,,20,26,061,22,0*6D
[2023-10-29 22:35:25.285] 
[2023-10-29 22:35:25.285] $GPGSV,4,3,14,05,24,099,31,11,17,043,14,12,12,124,20,04,07,332,,0*66
[2023-10-29 22:35:25.362] 
[2023-10-29 22:35:25.362] $GPGSV,4,4,14,16,04,300,,09,02,001,,0*6A
[2023-10-29 22:35:25.403] 
[2023-10-29 22:35:25.405] $GLGSV,1,1,03,82,86,228,,80,77,196,,81,40,043,,1*4B
[2023-10-29 22:35:25.458] 
[2023-10-29 22:35:25.458] $GNGLL,5216.7033,N,02048.5576,E,213525.000,A,A*4D
[2023-10-29 22:35:25.509] 
[2023-10-29 22:35:25.509] $GPTXT,01,01,02,ANTSTATUS=OPEN*2B
[2023-10-29 22:35:25.546] 
[2023-10-29 22:35:25.844] $GNRMC,213526.000,A,5216.7033,N,02048.5572,E,0.52,0.03,291023,,,A,V*08
[2023-10-29 22:35:25.924] 
[2023-10-29 22:35:25.932] $GPVTG,0.03,T,,M,0.52,N,0.97,K,A*37
[2023-10-29 22:35:25.963] 
[2023-10-29 22:35:25.963] $GPGGA,213526.000,5216.7033,N,02048.5572,E,1,8,0.97,83.1,M,39.0,M,,*67
[2023-10-29 22:35:26.042] 
[2023-10-29 22:35:26.042] $GNGSA,A,3,26,05,25,31,28,20,11,12,,,,,1.35,0.97,0.94,1*0A
[2023-10-29 22:35:26.103] 
[2023-10-29 22:35:26.103] $GNGSA,A,3,,,,,,,,,,,,,1.35,0.97,0.94,2*06
[2023-10-29 22:35:26.145] 
[2023-10-29 22:35:26.145] $GPGSV,4,1,14,29,86,038,,25,48,135,17,31,43,279,17,28,42,243,16,0*60
[2023-10-29 22:35:26.214] 
[2023-10-29 22:35:26.214] $GPGSV,4,2,14,26,31,300,23,18,30,194,,37,30,179,,20,26,061,22,0*6D
[2023-10-29 22:35:26.287] 
[2023-10-29 22:35:26.287] $GPGSV,4,3,14,05,24,099,33,11,17,043,14,12,12,124,20,04,07,332,,0*64
[2023-10-29 22:35:26.364] 
[2023-10-29 22:35:26.364] $GPGSV,4,4,14,16,04,300,,09,02,001,,0*6A
[2023-10-29 22:35:26.406] 
[2023-10-29 22:35:26.406] $GLGSV,1,1,03,82,86,228,,80,77,196,,81,40,043,,1*4B
[2023-10-29 22:35:26.464] 
[2023-10-29 22:35:26.464] $GNGLL,5216.7033,N,02048.5572,E,213526.000,A,A*4A
[2023-10-29 22:35:26.513] 
[2023-10-29 22:35:26.513] $GPTXT,01,01,02,ANTSTATUS=OPEN*2B
[2023-10-29 22:35:26.548] 
[2023-10-29 22:35:26.843] $GNRMC,213527.000,A,5216.7026,N,02048.5566,E,0.35,0.03,291023,,,A,V*09
[2023-10-29 22:35:26.924] 
[2023-10-29 22:35:26.924] $GPVTG,0.03,T,,M,0.35,N,0.66,K,A*38
[2023-10-29 22:35:26.956] 
[2023-10-29 22:35:26.965] $GPGGA,213527.000,5216.7026,N,02048.5566,E,1,8,0.97,83.1,M,39.0,M,,*67
[2023-10-29 22:35:27.032] 
[2023-10-29 22:35:27.032] $GNGSA,A,3,26,05,25,31,28,20,11,12,,,,,1.35,0.97,0.94,1*0A
[2023-10-29 22:35:27.103] 
[2023-10-29 22:35:27.103] $GNGSA,A,3,,,,,,,,,,,,,1.35,0.97,0.94,2*06
[2023-10-29 22:35:27.148] 
[2023-10-29 22:35:27.148] $GPGSV,4,1,14,29,86,038,,25,48,135,16,31,43,279,17,28,42,243,16,0*61
[2023-10-29 22:35:27.212] 
[2023-10-29 22:35:27.214] $GPGSV,4,2,14,26,31,300,23,18,30,194,,37,30,179,,20,26,061,22,0*6D
[2023-10-29 22:35:27.282] 
[2023-10-29 22:35:27.284] $GPGSV,4,3,14,05,24,099,33,11,17,043,13,12,12,124,20,04,07,332,,0*63
[2023-10-29 22:35:27.357] 
[2023-10-29 22:35:27.357] $GPGSV,4,4,14,16,04,300,,09,02,001,,0*6A
[2023-10-29 22:35:27.398] 
[2023-10-29 22:35:27.400] $GLGSV,1,1,03,82,86,228,,80,77,196,,81,40,043,,1*4B
[2023-10-29 22:35:27.458] 
[2023-10-29 22:35:27.458] $GNGLL,5216.7026,N,02048.5566,E,213527.000,A,A*4A
[2023-10-29 22:35:27.508] 
[2023-10-29 22:35:27.508] $GPTXT,01,01,02,ANTSTATUS=OPEN*2B
[2023-10-29 22:35:27.546] 
[2023-10-29 22:35:27.846] $GNRMC,213528.000,A,5216.7016,N,02048.5559,E,0.31,0.03,291023,,,A,V*0D
[2023-10-29 22:35:27.921] 
[2023-10-29 22:35:27.921] $GPVTG,0.03,T,,M,0.31,N,0.58,K,A*31
[2023-10-29 22:35:27.960] 
[2023-10-29 22:35:27.960] $GPGGA,213528.000,5216.7016,N,02048.5559,E,1,8,0.97,83.0,M,39.0,M,,*66
[2023-10-29 22:35:28.034] 
[2023-10-29 22:35:28.036] $GNGSA,A,3,26,05,25,31,28,20,11,12,,,,,1.35,0.97,0.94,1*0A
[2023-10-29 22:35:28.097] 
[2023-10-29 22:35:28.097] $GNGSA,A,3,,,,,,,,,,,,,1.35,0.97,0.94,2*06
[2023-10-29 22:35:28.145] 
[2023-10-29 22:35:28.149] $GPGSV,4,1,14,29,86,038,,25,48,135,16,31,43,279,17,28,42,243,16,0*61
[2023-10-29 22:35:28.215] 
[2023-10-29 22:35:28.217] $GPGSV,4,2,14,26,31,300,23,18,30,194,,37,30,179,,20,26,061,22,0*6D
[2023-10-29 22:35:28.287] 
[2023-10-29 22:35:28.287] $GPGSV,4,3,14,05,24,099,33,11,17,043,15,12,12,124,20,04,07,332,,0*65
[2023-10-29 22:35:28.360] 
[2023-10-29 22:35:28.360] $GPGSV,4,4,14,16,04,300,,09,02,001,,0*6A
[2023-10-29 22:35:28.405] 
[2023-10-29 22:35:28.405] $GLGSV,1,1,03,82,86,228,,80,77,196,,81,40,043,,1*4B
[2023-10-29 22:35:28.458] 
[2023-10-29 22:35:28.460] $GNGLL,5216.7016,N,02048.5559,E,213528.000,A,A*4A
[2023-10-29 22:35:28.512] 
[2023-10-29 22:35:28.513] $GPTXT,01,01,02,ANTSTATUS=OPEN*2B
[2023-10-29 22:35:28.547] 
[2023-10-29 22:35:28.840] $GNRMC,213529.000,A,5216.7014,N,02048.5555,E,0.36,0.03,291023,,,A,V*05
[2023-10-29 22:35:28.915] 
[2023-10-29 22:35:28.917] $GPVTG,0.03,T,,M,0.36,N,0.68,K,A*35
[2023-10-29 22:35:28.953] 
[2023-10-29 22:35:28.957] $GPGGA,213529.000,5216.7014,N,02048.5555,E,1,5,3.20,83.0,M,39.0,M,,*6B
[2023-10-29 22:35:29.028] 
[2023-10-29 22:35:29.029] $GNGSA,A,3,05,25,20,11,12,,,,,,,,3.34,3.20,0.96,1*08
[2023-10-29 22:35:29.085] 
[2023-10-29 22:35:29.087] $GNGSA,A,3,,,,,,,,,,,,,3.34,3.20,0.96,2*08
[2023-10-29 22:35:29.134] 
[2023-10-29 22:35:29.134] $GPGSV,4,1,14,29,86,038,18,25,48,135,16,31,43,279,17,28,42,243,16,0*68
[2023-10-29 22:35:29.208] 
[2023-10-29 22:35:29.208] $GPGSV,4,2,14,26,31,300,23,18,30,194,,37,30,179,,20,26,061,22,0*6D
[2023-10-29 22:35:29.278] 
[2023-10-29 22:35:29.278] $GPGSV,4,3,14,05,24,099,33,11,17,043,13,12,12,124,20,04,07,332,,0*63
[2023-10-29 22:35:29.352] 
[2023-10-29 22:35:29.352] $GPGSV,4,4,14,16,04,300,,09,02,001,,0*6A
[2023-10-29 22:35:29.393] 
[2023-10-29 22:35:29.396] $GLGSV,1,1,03,82,86,228,,80,77,196,,81,40,043,,1*4B
[2023-10-29 22:35:29.449] 
[2023-10-29 22:35:29.451] $GNGLL,5216.7014,N,02048.5555,E,213529.000,A,A*45
[2023-10-29 22:35:29.501] 
[2023-10-29 22:35:29.503] $GPTXT,01,01,02,ANTSTATUS=OPEN*2B
[2023-10-29 22:35:29.538] 
[2023-10-29 22:35:29.843] $GNRMC,213530.000,A,5216.7014,N,02048.5552,E,0.45,0.03,291023,,,A,V*0E
[2023-10-29 22:35:29.918] 
[2023-10-29 22:35:29.920] $GPVTG,0.03,T,,M,0.45,N,0.83,K,A*34
[2023-10-29 22:35:29.958] 
[2023-10-29 22:35:29.958] $GPGGA,213530.000,5216.7014,N,02048.5552,E,1,5,3.20,83.0,M,39.0,M,,*64
[2023-10-29 22:35:30.036] 
[2023-10-29 22:35:30.036] $GNGSA,A,3,05,25,20,11,12,,,,,,,,3.34,3.20,0.96,1*08
[2023-10-29 22:35:30.090] 
[2023-10-29 22:35:30.090] $GNGSA,A,3,,,,,,,,,,,,,3.34,3.20,0.96,2*08
[2023-10-29 22:35:30.142] 
[2023-10-29 22:35:30.142] $GPGSV,4,1,14,29,86,038,16,25,48,135,15,31,43,279,18,28,42,243,16,0*6A
[2023-10-29 22:35:30.211] 
[2023-10-29 22:35:30.211] $GPGSV,4,2,14,26,31,300,21,18,30,194,,37,30,179,,20,26,061,23,0*6E
[2023-10-29 22:35:30.282] 
[2023-10-29 22:35:30.282] $GPGSV,4,3,14,05,24,099,32,11,17,043,14,12,12,124,20,04,07,332,,0*65
[2023-10-29 22:35:30.354] 
[2023-10-29 22:35:30.355] $GPGSV,4,4,14,16,04,300,,09,02,001,,0*6A
[2023-10-29 22:35:30.398] 
[2023-10-29 22:35:30.398] $GLGSV,1,1,03,82,86,228,,80,77,196,,81,40,043,,1*4B
[2023-10-29 22:35:30.457] 
[2023-10-29 22:35:30.457] $GNGLL,5216.7014,N,02048.5552,E,213530.000,A,A*4A
[2023-10-29 22:35:30.505] 
[2023-10-29 22:35:30.506] $GPTXT,01,01,02,ANTSTATUS=OPEN*2B
[2023-10-29 22:35:30.541] 
[2023-10-29 22:35:30.843] $GNRMC,213531.000,A,5216.7011,N,02048.5548,E,0.42,0.03,291023,,,A,V*06
[2023-10-29 22:35:30.920] 
[2023-10-29 22:35:30.920] $GPVTG,0.03,T,,M,0.42,N,0.79,K,A*36
[2023-10-29 22:35:30.958] 
[2023-10-29 22:35:30.958] $GPGGA,213531.000,5216.7011,N,02048.5548,E,1,5,3.20,83.0,M,39.0,M,,*6B
[2023-10-29 22:35:31.032] 
[2023-10-29 22:35:31.032] $GNGSA,A,3,05,25,20,11,12,,,,,,,,3.34,3.20,0.96,1*08
[2023-10-29 22:35:31.089] 
[2023-10-29 22:35:31.089] $GNGSA,A,3,,,,,,,,,,,,,3.34,3.20,0.96,2*08
[2023-10-29 22:35:31.135] 
[2023-10-29 22:35:31.138] $GPGSV,4,1,14,29,86,038,17,25,48,135,15,31,43,279,18,28,42,243,16,0*6B
[2023-10-29 22:35:31.209] 
[2023-10-29 22:35:31.209] $GPGSV,4,2,14,26,31,300,23,18,30,194,,37,30,179,,20,26,061,23,0*6C
[2023-10-29 22:35:31.280] 
[2023-10-29 22:35:31.280] $GPGSV,4,3,14,05,24,099,32,11,17,043,16,12,12,124,20,04,07,332,,0*67
[2023-10-29 22:35:31.355] 
[2023-10-29 22:35:31.355] $GPGSV,4,4,14,16,04,300,,09,02,001,,0*6A
[2023-10-29 22:35:31.398] 
[2023-10-29 22:35:31.398] $GLGSV,1,1,03,82,86,228,,80,77,196,,81,40,043,,1*4B
[2023-10-29 22:35:31.453] 
[2023-10-29 22:35:31.453] $GNGLL,5216.7011,N,02048.5548,E,213531.000,A,A*45
[2023-10-29 22:35:31.506] 
[2023-10-29 22:35:31.506] $GPTXT,01,01,02,ANTSTATUS=OPEN*2B
[2023-10-29 22:35:31.542] 
[2023-10-29 22:35:31.845] $GNRMC,213532.000,A,5216.7005,N,02048.5542,E,0.42,0.03,291023,,,A,V*0A
[2023-10-29 22:35:31.926] 
[2023-10-29 22:35:31.927] $GPVTG,0.03,T,,M,0.42,N,0.78,K,A*37
[2023-10-29 22:35:31.961] 
[2023-10-29 22:35:31.961] $GPGGA,213532.000,5216.7005,N,02048.5542,E,1,5,3.20,83.0,M,39.0,M,,*67
[2023-10-29 22:35:32.032] 
[2023-10-29 22:35:32.035] $GNGSA,A,3,05,25,20,11,12,,,,,,,,3.34,3.20,0.96,1*08
[2023-10-29 22:35:32.091] 
[2023-10-29 22:35:32.091] $GNGSA,A,3,,,,,,,,,,,,,3.34,3.20,0.96,2*08
[2023-10-29 22:35:32.140] 
[2023-10-29 22:35:32.140] $GPGSV,4,1,14,29,86,038,18,25,48,135,16,31,43,279,18,28,42,243,17,0*66
[2023-10-29 22:35:32.212] 
[2023-10-29 22:35:32.213] $GPGSV,4,2,14,26,31,300,24,18,30,194,18,37,30,179,,20,26,061,24,0*65
[2023-10-29 22:35:32.285] 
[2023-10-29 22:35:32.285] $GPGSV,4,3,14,05,24,099,32,11,17,043,17,12,12,124,20,04,07,332,,0*66
[2023-10-29 22:35:32.361] 
[2023-10-29 22:35:32.361] $GPGSV,4,4,14,16,04,300,,09,02,001,,0*6A
[2023-10-29 22:35:32.405] 
[2023-10-29 22:35:32.405] $GLGSV,1,1,03,82,86,228,,80,77,196,,81,40,043,,1*4B
[2023-10-29 22:35:32.456] 
[2023-10-29 22:35:32.463] $GNGLL,5216.7005,N,02048.5542,E,213532.000,A,A*49
[2023-10-29 22:35:32.510] 
[2023-10-29 22:35:32.510] $GPTXT,01,01,02,ANTSTATUS=OPEN*2B
[2023-10-29 22:35:32.544] 
[2023-10-29 22:35:32.842] $GNRMC,213533.000,A,5216.7001,N,02048.5537,E,0.46,0.03,291023,,,A,V*09
[2023-10-29 22:35:32.925] 
[2023-10-29 22:35:32.925] $GPVTG,0.03,T,,M,0.46,N,0.85,K,A*31
[2023-10-29 22:35:32.965] 
[2023-10-29 22:35:32.965] $GPGGA,213533.000,5216.7001,N,02048.5537,E,1,5,3.20,83.0,M,39.0,M,,*60
[2023-10-29 22:35:33.030] 
[2023-10-29 22:35:33.033] $GNGSA,A,3,05,25,20,11,12,,,,,,,,3.34,3.20,0.96,1*08
[2023-10-29 22:35:33.086] 
[2023-10-29 22:35:33.088] $GNGSA,A,3,,,,,,,,,,,,,3.34,3.20,0.96,2*08
[2023-10-29 22:35:33.134] 
[2023-10-29 22:35:33.143] $GPGSV,4,1,14,29,86,038,14,25,48,135,15,31,43,279,19,28,42,243,17,0*68
[2023-10-29 22:35:33.208] 
[2023-10-29 22:35:33.211] $GPGSV,4,2,14,26,31,300,23,18,30,194,17,37,30,179,,20,26,061,24,0*6D
[2023-10-29 22:35:33.284] 
[2023-10-29 22:35:33.284] $GPGSV,4,3,14,05,24,099,31,11,17,043,16,12,12,124,20,04,07,332,,0*64
[2023-10-29 22:35:33.353] 
[2023-10-29 22:35:33.362] $GPGSV,4,4,14,16,04,300,,09,02,001,,0*6A
[2023-10-29 22:35:33.403] 
[2023-10-29 22:35:33.404] $GLGSV,1,1,03,82,86,228,,80,77,196,,81,40,043,,1*4B
[2023-10-29 22:35:33.463] 
[2023-10-29 22:35:33.463] $GNGLL,5216.7001,N,02048.5537,E,213533.000,A,A*4E
[2023-10-29 22:35:33.511] 
[2023-10-29 22:35:33.511] $GPTXT,01,01,02,ANTSTATUS=OPEN*2B
[2023-10-29 22:35:33.546] 
[2023-10-29 22:35:33.845] $GNRMC,213534.000,A,5216.6996,N,02048.5532,E,0.50,0.03,291023,,,A,V*0A
[2023-10-29 22:35:33.927] 
[2023-10-29 22:35:33.927] $GPVTG,0.03,T,,M,0.50,N,0.93,K,A*31
[2023-10-29 22:35:33.967] 
[2023-10-29 22:35:33.967] $GPGGA,213534.000,5216.6996,N,02048.5532,E,1,5,3.20,82.9,M,39.0,M,,*6C
[2023-10-29 22:35:34.037] 
[2023-10-29 22:35:34.037] $GNGSA,A,3,05,25,20,11,12,,,,,,,,3.34,3.20,0.96,1*08
[2023-10-29 22:35:34.092] 
[2023-10-29 22:35:34.092] $GNGSA,A,3,,,,,,,,,,,,,3.34,3.20,0.96,2*08
[2023-10-29 22:35:34.138] 
[2023-10-29 22:35:34.138] $GPGSV,4,1,14,29,86,038,17,25,48,135,15,31,43,279,19,28,42,243,17,0*6B
[2023-10-29 22:35:34.214] 
[2023-10-29 22:35:34.214] $GPGSV,4,2,14,26,31,300,23,18,30,194,17,39,29,174,,20,26,061,24,0*66
[2023-10-29 22:35:34.284] 
[2023-10-29 22:35:34.284] $GPGSV,4,3,14,05,24,099,31,11,17,043,17,12,12,124,20,04,07,332,,0*65
[2023-10-29 22:35:34.362] 
[2023-10-29 22:35:34.364] $GPGSV,4,4,14,16,04,300,,09,02,001,,0*6A
[2023-10-29 22:35:34.405] 
[2023-10-29 22:35:34.405] $GLGSV,1,1,03,82,86,228,,80,77,196,,81,40,043,,1*4B
[2023-10-29 22:35:34.463] 
[2023-10-29 22:35:34.463] $GNGLL,5216.6996,N,02048.5532,E,213534.000,A,A*4A
[2023-10-29 22:35:34.509] 
[2023-10-29 22:35:34.509] $GPTXT,01,01,02,ANTSTATUS=OPEN*2B
[2023-10-29 22:35:34.545] 
[2023-10-29 22:35:34.844] $GNRMC,213535.000,A,5216.6990,N,02048.5527,E,0.64,234.71,291023,,,A,V*0E
[2023-10-29 22:35:34.926] 
[2023-10-29 22:35:34.926] $GPVTG,234.71,T,,M,0.64,N,1.19,K,A*35
[2023-10-29 22:35:34.965] 
[2023-10-29 22:35:34.965] $GPGGA,213535.000,5216.6990,N,02048.5527,E,1,4,8.06,82.9,M,39.0,M,,*61
[2023-10-29 22:35:35.043] 
[2023-10-29 22:35:35.043] $GNGSA,A,3,05,20,11,12,,,,,,,,,8.12,8.06,1.00,1*01
[2023-10-29 22:35:35.094] 
[2023-10-29 22:35:35.103] $GNGSA,A,3,,,,,,,,,,,,,8.12,8.06,1.00,2*06
[2023-10-29 22:35:35.146] 
[2023-10-29 22:35:35.146] $GPGSV,4,1,14,29,86,038,16,25,48,135,16,31,43,279,18,28,42,243,17,0*68
[2023-10-29 22:35:35.213] 
[2023-10-29 22:35:35.217] $GPGSV,4,2,14,26,31,300,23,18,30,194,17,39,29,174,,20,26,061,24,0*66
[2023-10-29 22:35:35.287] 
[2023-10-29 22:35:35.287] $GPGSV,4,3,14,05,24,099,31,11,17,043,17,12,12,124,20,04,07,332,,0*65
[2023-10-29 22:35:35.365] 
[2023-10-29 22:35:35.365] $GPGSV,4,4,14,16,04,300,,09,02,001,,0*6A
[2023-10-29 22:35:35.405] 
[2023-10-29 22:35:35.405] $GLGSV,1,1,03,82,86,228,,80,77,196,,81,40,043,,1*4B
[2023-10-29 22:35:35.463] 
[2023-10-29 22:35:35.465] $GNGLL,5216.6990,N,02048.5527,E,213535.000,A,A*49
[2023-10-29 22:35:35.513] 
[2023-10-29 22:35:35.513] $GPTXT,01,01,02,ANTSTATUS=OPEN*2B
[2023-10-29 22:35:35.545] 
[2023-10-29 22:35:35.842] $GNRMC,213536.000,A,5216.6987,N,02048.5521,E,0.66,243.15,291023,,,A,V*0D
[2023-10-29 22:35:35.928] 
[2023-10-29 22:35:35.929] $GPVTG,243.15,T,,M,0.66,N,1.23,K,A*3C
[2023-10-29 22:35:35.964] 
[2023-10-29 22:35:35.964] $GPGGA,213536.000,5216.6987,N,02048.5521,E,1,4,8.07,82.9,M,39.0,M,,*63
[2023-10-29 22:35:36.035] 
[2023-10-29 22:35:36.043] $GNGSA,A,3,05,20,11,12,,,,,,,,,8.13,8.07,1.00,1*01
[2023-10-29 22:35:36.091] 
[2023-10-29 22:35:36.091] $GNGSA,A,3,,,,,,,,,,,,,8.13,8.07,1.00,2*06
[2023-10-29 22:35:36.136] 
[2023-10-29 22:35:36.136] $GPGSV,4,1,14,29,86,038,15,25,48,135,13,31,43,279,18,28,42,243,16,0*6F
[2023-10-29 22:35:36.212] 
[2023-10-29 22:35:36.212] $GPGSV,4,2,14,26,31,300,22,18,30,194,17,39,29,174,,20,26,061,24,0*67
[2023-10-29 22:35:36.285] 
[2023-10-29 22:35:36.285] $GPGSV,4,3,14,05,24,099,31,11,17,043,17,12,12,124,20,04,07,332,,0*65
[2023-10-29 22:35:36.363] 
[2023-10-29 22:35:36.363] $GPGSV,4,4,14,16,04,300,,09,02,001,,0*6A
[2023-10-29 22:35:36.405] 
[2023-10-29 22:35:36.405] $GLGSV,1,1,03,82,86,228,,80,77,196,,81,40,043,,1*4B
[2023-10-29 22:35:36.455] 
[2023-10-29 22:35:36.463] $GNGLL,5216.6987,N,02048.5521,E,213536.000,A,A*4A
[2023-10-29 22:35:36.509] 
[2023-10-29 22:35:36.509] $GPTXT,01,01,02,ANTSTATUS=OPEN*2B
[2023-10-29 22:35:36.544] 
[2023-10-29 22:35:36.842] $GNRMC,213537.000,A,5216.6983,N,02048.5516,E,0.68,246.10,291023,,,A,V*02
[2023-10-29 22:35:36.928] 
[2023-10-29 22:35:36.928] $GPVTG,246.10,T,,M,0.68,N,1.25,K,A*34
[2023-10-29 22:35:36.965] 
[2023-10-29 22:35:36.965] $GPGGA,213537.000,5216.6983,N,02048.5516,E,1,4,8.06,82.9,M,39.0,M,,*63
[2023-10-29 22:35:37.042] 
[2023-10-29 22:35:37.042] $GNGSA,A,3,05,20,11,12,,,,,,,,,8.12,8.06,1.00,1*01
[2023-10-29 22:35:37.088] 
[2023-10-29 22:35:37.091] $GNGSA,A,3,,,,,,,,,,,,,8.12,8.06,1.00,2*06
[2023-10-29 22:35:37.144] 
[2023-10-29 22:35:37.144] $GPGSV,4,1,14,29,86,038,14,25,48,135,14,31,43,279,18,28,42,243,16,0*69
[2023-10-29 22:35:37.209] 
[2023-10-29 22:35:37.211] $GPGSV,4,2,14,26,31,300,22,18,30,194,16,39,29,174,,20,26,061,22,0*60
[2023-10-29 22:35:37.286] 
[2023-10-29 22:35:37.286] $GPGSV,4,3,14,05,24,099,31,11,17,043,16,12,12,124,18,04,07,332,,0*6F
[2023-10-29 22:35:37.359] 
[2023-10-29 22:35:37.359] $GPGSV,4,4,14,16,04,300,,09,02,001,,0*6A
[2023-10-29 22:35:37.400] 
[2023-10-29 22:35:37.400] $GLGSV,1,1,03,82,86,228,,80,77,196,,81,40,043,,1*4B
[2023-10-29 22:35:37.456] 
[2023-10-29 22:35:37.456] $GNGLL,5216.6983,N,02048.5516,E,213537.000,A,A*4B
[2023-10-29 22:35:37.508] 
[2023-10-29 22:35:37.508] $GPTXT,01,01,02,ANTSTATUS=OPEN*2B
[2023-10-29 22:35:37.543] 
[2023-10-29 22:35:37.848] $GNRMC,213538.000,A,5216.6977,N,02048.5511,E,0.77,234.38,291023,,,A,V*00
[2023-10-29 22:35:37.926] 
[2023-10-29 22:35:37.926] $GPVTG,234.38,T,,M,0.77,N,1.42,K,A*34
[2023-10-29 22:35:37.968] 
[2023-10-29 22:35:37.968] $GPGGA,213538.000,5216.6977,N,02048.5511,E,1,4,8.08,82.9,M,39.0,M,,*6E
[2023-10-29 22:35:38.044] 
[2023-10-29 22:35:38.044] $GNGSA,A,3,05,20,11,12,,,,,,,,,8.14,8.08,1.00,1*09
[2023-10-29 22:35:38.097] 
[2023-10-29 22:35:38.097] $GNGSA,A,3,,,,,,,,,,,,,8.14,8.08,1.00,2*0E
[2023-10-29 22:35:38.144] 
[2023-10-29 22:35:38.144] $GPGSV,4,1,14,29,86,038,14,25,48,135,13,31,43,279,18,28,42,243,16,0*6E
[2023-10-29 22:35:38.216] 
[2023-10-29 22:35:38.218] $GPGSV,4,2,14,26,31,300,22,18,30,194,16,39,29,174,,20,26,061,23,0*61
[2023-10-29 22:35:38.292] 
[2023-10-29 22:35:38.292] $GPGSV,4,3,14,05,24,099,31,11,17,043,16,12,12,124,18,04,07,332,,0*6F
[2023-10-29 22:35:38.362] 
[2023-10-29 22:35:38.362] $GPGSV,4,4,14,16,04,300,,09,02,001,,0*6A
[2023-10-29 22:35:38.405] 
[2023-10-29 22:35:38.407] $GLGSV,1,1,03,82,86,228,,80,77,196,,81,40,043,,1*4B
[2023-10-29 22:35:38.463] 
[2023-10-29 22:35:38.463] $GNGLL,5216.6977,N,02048.5511,E,213538.000,A,A*48
[2023-10-29 22:35:38.514] 
[2023-10-29 22:35:38.516] $GPTXT,01,01,02,ANTSTATUS=OPEN*2B
[2023-10-29 22:35:38.551] 
[2023-10-29 22:35:38.847] $GNRMC,213539.000,A,5216.6972,N,02048.5503,E,0.89,230.44,291023,,,A,V*09
[2023-10-29 22:35:38.927] 
[2023-10-29 22:35:38.927] $GPVTG,230.44,T,,M,0.89,N,1.65,K,A*3F
[2023-10-29 22:35:38.967] 
[2023-10-29 22:35:38.967] $GPGGA,213539.000,5216.6972,N,02048.5503,E,1,4,8.07,82.9,M,39.0,M,,*66
[2023-10-29 22:35:39.044] 
[2023-10-29 22:35:39.044] $GNGSA,A,3,05,20,11,12,,,,,,,,,8.13,8.07,1.00,1*01
[2023-10-29 22:35:39.101] 
[2023-10-29 22:35:39.101] $GNGSA,A,3,,,,,,,,,,,,,8.13,8.07,1.00,2*06
[2023-10-29 22:35:39.164] 
[2023-10-29 22:35:39.164] $GPGSV,4,1,14,29,86,038,14,25,48,135,13,31,43,279,18,28,42,243,16,0*6E
[2023-10-29 22:35:39.222] 
[2023-10-29 22:35:39.222] $GPGSV,4,2,14,26,31,300,22,18,30,194,16,39,29,174,,20,26,061,21,0*63
[2023-10-29 22:35:39.290] 
[2023-10-29 22:35:39.290] $GPGSV,4,3,14,05,24,099,31,11,17,043,17,12,12,124,18,04,07,332,,0*6E
[2023-10-29 22:35:39.365] 
[2023-10-29 22:35:39.365] $GPGSV,4,4,14,16,04,300,,09,02,001,,0*6A
[2023-10-29 22:35:39.410] 
[2023-10-29 22:35:39.410] $GLGSV,1,1,03,82,86,228,,80,77,196,,81,40,043,,1*4B
[2023-10-29 22:35:39.461] 
[2023-10-29 22:35:39.461] $GNGLL,5216.6972,N,02048.5503,E,213539.000,A,A*4F
[2023-10-29 22:35:39.517] 
[2023-10-29 22:35:39.517] $GPTXT,01,01,02,ANTSTATUS=OPEN*2B
[2023-10-29 22:35:39.550] 
[2023-10-29 22:35:39.845] $GNRMC,213540.000,A,5216.6969,N,02048.5496,E,0.94,235.83,291023,,,A,V*02
[2023-10-29 22:35:39.926] 
[2023-10-29 22:35:39.926] $GPVTG,235.83,T,,M,0.94,N,1.75,K,A*3C
[2023-10-29 22:35:39.965] 
[2023-10-29 22:35:39.965] $GPGGA,213540.000,5216.6969,N,02048.5496,E,1,3,8.79,82.9,M,39.0,M,,*61
[2023-10-29 22:35:40.040] 
[2023-10-29 22:35:40.040] $GNGSA,A,2,05,11,12,,,,,,,,,,8.85,8.79,1.00,1*04
[2023-10-29 22:35:40.093] 
[2023-10-29 22:35:40.093] $GNGSA,A,2,,,,,,,,,,,,,8.85,8.79,1.00,2*01
[2023-10-29 22:35:40.140] 
[2023-10-29 22:35:40.142] $GPGSV,4,1,14,29,86,038,15,25,48,135,12,31,43,279,19,28,42,243,17,0*6E
[2023-10-29 22:35:40.213] 
[2023-10-29 22:35:40.221] $GPGSV,4,2,14,26,31,300,22,18,30,194,16,39,29,174,,20,26,061,21,0*63
[2023-10-29 22:35:40.284] 
[2023-10-29 22:35:40.286] $GPGSV,4,3,14,05,24,099,31,11,17,043,18,12,12,124,19,04,07,332,,0*60
[2023-10-29 22:35:40.357] 
[2023-10-29 22:35:40.364] $GPGSV,4,4,14,16,04,300,,09,02,001,,0*6A
[2023-10-29 22:35:40.402] 
[2023-10-29 22:35:40.402] $GLGSV,1,1,03,82,86,228,,80,77,196,,81,40,043,,1*4B
[2023-10-29 22:35:40.457] 
[2023-10-29 22:35:40.459] $GNGLL,5216.6969,N,02048.5496,E,213540.000,A,A*46
[2023-10-29 22:35:40.511] 
[2023-10-29 22:35:40.512] $GPTXT,01,01,02,ANTSTATUS=OPEN*2B
[2023-10-29 22:35:40.547] 
[2023-10-29 22:35:40.848] $GNRMC,213541.000,A,5216.6959,N,02048.5482,E,1.25,224.51,291023,,,A,V*01
[2023-10-29 22:35:40.926] 
[2023-10-29 22:35:40.926] $GPVTG,224.51,T,,M,1.25,N,2.31,K,A*3B
[2023-10-29 22:35:40.966] 
[2023-10-29 22:35:40.966] $GPGGA,213541.000,5216.6959,N,02048.5482,E,1,4,8.07,82.8,M,39.0,M,,*69
[2023-10-29 22:35:41.041] 
[2023-10-29 22:35:41.043] $GNGSA,A,3,05,20,11,12,,,,,,,,,8.13,8.07,1.00,1*01
[2023-10-29 22:35:41.097] 
[2023-10-29 22:35:41.097] $GNGSA,A,3,,,,,,,,,,,,,8.13,8.07,1.00,2*06
[2023-10-29 22:35:41.144] 
[2023-10-29 22:35:41.144] $GPGSV,4,1,14,29,86,038,14,25,48,135,,31,43,279,20,28,42,243,17,0*66
[2023-10-29 22:35:41.241] 
[2023-10-29 22:35:41.241] $GPGSV,4,2,14,26,31,300,22,18,30,194,16,39,29,174,,20,26,061,22,0*60
[2023-10-29 22:35:41.288] 
[2023-10-29 22:35:41.288] $GPGSV,4,3,14,05,24,099,32,11,17,043,18,12,12,124,20,04,07,332,,0*69
[2023-10-29 22:35:41.362] 
[2023-10-29 22:35:41.362] $GPGSV,4,4,14,16,04,300,,09,02,001,,0*6A
[2023-10-29 22:35:41.407] 
[2023-10-29 22:35:41.407] $GLGSV,1,1,03,82,86,228,,80,77,196,,81,40,043,,1*4B
[2023-10-29 22:35:41.466] 
[2023-10-29 22:35:41.466] $GNGLL,5216.6959,N,02048.5482,E,213541.000,A,A*41
[2023-10-29 22:35:41.514] 
[2023-10-29 22:35:41.514] $GPTXT,01,01,02,ANTSTATUS=OPEN*2B
[2023-10-29 22:35:41.550] 
[2023-10-29 22:35:41.847] $GNRMC,213542.000,A,5216.6961,N,02048.5500,E,0.86,220.20,291023,,,A,V*08
[2023-10-29 22:35:41.924] 
[2023-10-29 22:35:41.925] $GPVTG,220.20,T,,M,0.86,N,1.59,K,A*3C
[2023-10-29 22:35:41.964] 
[2023-10-29 22:35:41.965] $GPGGA,213542.000,5216.6961,N,02048.5500,E,1,7,1.04,82.8,M,39.0,M,,*63
[2023-10-29 22:35:42.038] 
[2023-10-29 22:35:42.040] $GNGSA,A,3,26,05,31,28,20,11,12,,,,,,1.43,1.04,0.97,1*04
[2023-10-29 22:35:42.104] 
[2023-10-29 22:35:42.104] $GNGSA,A,3,,,,,,,,,,,,,1.43,1.04,0.97,2*0F
[2023-10-29 22:35:42.147] 
[2023-10-29 22:35:42.147] $GPGSV,4,1,14,29,86,038,13,25,48,135,,31,43,279,20,28,42,243,17,0*61
[2023-10-29 22:35:42.223] 
[2023-10-29 22:35:42.223] $GPGSV,4,2,14,26,31,300,22,18,30,194,16,39,29,174,,20,26,061,22,0*60
[2023-10-29 22:35:42.296] 
[2023-10-29 22:35:42.296] $GPGSV,4,3,14,05,24,099,32,11,17,043,18,12,12,124,20,04,07,332,,0*69
[2023-10-29 22:35:42.364] 
[2023-10-29 22:35:42.365] $GPGSV,4,4,14,16,04,300,,09,02,001,,0*6A
[2023-10-29 22:35:42.408] 
[2023-10-29 22:35:42.410] $GLGSV,1,1,03,82,86,228,,80,77,196,,81,40,043,,1*4B
[2023-10-29 22:35:42.464] 
[2023-10-29 22:35:42.464] $GNGLL,5216.6961,N,02048.5500,E,213542.000,A,A*42
[2023-10-29 22:35:42.520] 
[2023-10-29 22:35:42.520] $GPTXT,01,01,02,ANTSTATUS=OPEN*2B
[2023-10-29 22:35:42.556] 
[2023-10-29 22:35:42.853] $GNRMC,213543.000,A,5216.6960,N,02048.5508,E,0.64,209.23,291023,,,A,V*04
[2023-10-29 22:35:42.929] 
[2023-10-29 22:35:42.929] $GPVTG,209.23,T,,M,0.64,N,1.19,K,A*3C
[2023-10-29 22:35:42.971] 
[2023-10-29 22:35:42.971] $GPGGA,213543.000,5216.6960,N,02048.5508,E,1,7,1.04,82.8,M,39.0,M,,*6B
[2023-10-29 22:35:43.044] 
[2023-10-29 22:35:43.044] $GNGSA,A,3,26,05,31,28,20,11,12,,,,,,1.43,1.04,0.97,1*04
[2023-10-29 22:35:43.102] 
[2023-10-29 22:35:43.105] $GNGSA,A,3,,,,,,,,,,,,,1.43,1.04,0.97,2*0F
[2023-10-29 22:35:43.151] 
[2023-10-29 22:35:43.151] $GPGSV,4,1,14,29,86,038,13,25,48,135,,31,43,279,20,28,42,243,17,0*61
[2023-10-29 22:35:43.224] 
[2023-10-29 22:35:43.224] $GPGSV,4,2,14,26,31,300,21,18,30,194,15,39,29,174,,20,26,061,21,0*63
[2023-10-29 22:35:43.295] 
[2023-10-29 22:35:43.297] $GPGSV,4,3,14,05,24,099,32,11,17,043,18,12,12,124,20,04,07,332,,0*69
[2023-10-29 22:35:43.370] 
[2023-10-29 22:35:43.370] $GPGSV,4,4,14,16,04,300,,09,02,001,,0*6A
[2023-10-29 22:35:43.414] 
[2023-10-29 22:35:43.414] $GLGSV,1,1,03,82,86,228,,80,77,196,,81,40,043,,1*4B
[2023-10-29 22:35:43.468] 
[2023-10-29 22:35:43.468] $GNGLL,5216.6960,N,02048.5508,E,213543.000,A,A*4A
[2023-10-29 22:35:43.522] 
[2023-10-29 22:35:43.523] $GPTXT,01,01,02,ANTSTATUS=OPEN*2B
[2023-10-29 22:35:43.557] 
[2023-10-29 22:35:43.845] $GNRMC,213544.000,A,5216.6960,N,02048.5509,E,0.50,209.23,291023,,,A,V*05
[2023-10-29 22:35:43.923] 
[2023-10-29 22:35:43.923] $GPVTG,209.23,T,,M,0.50,N,0.93,K,A*38
[2023-10-29 22:35:43.967] 
[2023-10-29 22:35:43.967] $GPGGA,213544.000,5216.6960,N,02048.5509,E,1,7,1.04,82.8,M,39.0,M,,*6D
[2023-10-29 22:35:44.039] 
[2023-10-29 22:35:44.039] $GNGSA,A,3,26,05,31,28,20,11,12,,,,,,1.43,1.04,0.97,1*04
[2023-10-29 22:35:44.107] 
[2023-10-29 22:35:44.107] $GNGSA,A,3,,,,,,,,,,,,,1.43,1.04,0.97,2*0F
[2023-10-29 22:35:44.144] 
[2023-10-29 22:35:44.146] $GPGSV,4,1,14,29,86,040,13,25,48,135,,31,43,279,20,28,42,243,17,0*6E
[2023-10-29 22:35:44.218] 
[2023-10-29 22:35:44.218] $GPGSV,4,2,14,26,31,300,21,18,30,194,15,39,29,174,,20,26,061,21,0*63
[2023-10-29 22:35:44.291] 
[2023-10-29 22:35:44.292] $GPGSV,4,3,14,05,24,099,32,11,17,043,18,12,12,124,19,04,07,332,,0*63
[2023-10-29 22:35:44.362] 
[2023-10-29 22:35:44.364] $GPGSV,4,4,14,16,04,300,,09,02,001,,0*6A
[2023-10-29 22:35:44.407] 
[2023-10-29 22:35:44.407] $GLGSV,1,1,03,82,86,228,,80,77,196,,81,40,043,,1*4B
[2023-10-29 22:35:44.462] 
[2023-10-29 22:35:44.463] $GNGLL,5216.6960,N,02048.5509,E,213544.000,A,A*4C
[2023-10-29 22:35:44.515] 
[2023-10-29 22:35:44.515] $GPTXT,01,01,02,ANTSTATUS=OPEN*2B
[2023-10-29 22:35:44.552] 
[2023-10-29 22:35:44.846] $GNRMC,213545.000,A,5216.6956,N,02048.5509,E,0.57,209.23,291023,,,A,V*06
[2023-10-29 22:35:44.922] 
[2023-10-29 22:35:44.922] $GPVTG,209.23,T,,M,0.57,N,1.05,K,A*31
[2023-10-29 22:35:44.964] 
[2023-10-29 22:35:44.964] $GPGGA,213545.000,5216.6956,N,02048.5509,E,1,7,1.04,82.8,M,39.0,M,,*69
[2023-10-29 22:35:45.037] 
[2023-10-29 22:35:45.039] $GNGSA,A,3,26,05,31,28,20,11,12,,,,,,1.42,1.04,0.97,1*05
[2023-10-29 22:35:45.097] 
[2023-10-29 22:35:45.099] $GNGSA,A,3,,,,,,,,,,,,,1.42,1.04,0.97,2*0E
[2023-10-29 22:35:45.143] 
[2023-10-29 22:35:45.145] $GPGSV,4,1,14,29,86,040,13,25,48,135,,31,43,279,20,28,42,243,17,0*6E
[2023-10-29 22:35:45.218] 
[2023-10-29 22:35:45.218] $GPGSV,4,2,14,26,31,300,21,18,30,194,15,39,29,174,,20,26,061,22,0*60
[2023-10-29 22:35:45.289] 
[2023-10-29 22:35:45.291] $GPGSV,4,3,14,05,24,099,32,11,17,043,18,12,12,124,19,04,07,332,,0*63
[2023-10-29 22:35:45.365] 
[2023-10-29 22:35:45.365] $GPGSV,4,4,14,16,04,300,,09,02,001,,0*6A
[2023-10-29 22:35:45.408] 
[2023-10-29 22:35:45.408] $GLGSV,1,1,03,82,86,228,,80,77,196,,81,40,043,,1*4B
[2023-10-29 22:35:45.463] 
[2023-10-29 22:35:45.463] $GNGLL,5216.6956,N,02048.5509,E,213545.000,A,A*48
[2023-10-29 22:35:45.515] 
[2023-10-29 22:35:45.515] $GPTXT,01,01,02,ANTSTATUS=OPEN*2B
[2023-10-29 22:35:45.555] 
[2023-10-29 22:35:45.844] $GNRMC,213546.000,A,5216.6953,N,02048.5510,E,0.62,211.67,291023,,,A,V*07
[2023-10-29 22:35:45.921] 
[2023-10-29 22:35:45.924] $GPVTG,211.67,T,,M,0.62,N,1.15,K,A*3F
[2023-10-29 22:35:45.964] 
[2023-10-29 22:35:45.964] $GPGGA,213546.000,5216.6953,N,02048.5510,E,1,7,1.04,82.8,M,39.0,M,,*67
[2023-10-29 22:35:46.038] 
[2023-10-29 22:35:46.038] $GNGSA,A,3,26,05,31,28,20,11,12,,,,,,1.43,1.04,0.97,1*04
[2023-10-29 22:35:46.100] 
[2023-10-29 22:35:46.100] $GNGSA,A,3,,,,,,,,,,,,,1.43,1.04,0.97,2*0F
[2023-10-29 22:35:46.144] 
[2023-10-29 22:35:46.146] $GPGSV,4,1,14,29,86,040,14,25,48,135,,31,43,278,20,28,42,243,17,0*68
[2023-10-29 22:35:46.218] 
[2023-10-29 22:35:46.218] $GPGSV,4,2,14,26,31,300,21,18,30,194,15,39,29,174,,20,26,061,22,0*60
[2023-10-29 22:35:46.290] 
[2023-10-29 22:35:46.290] $GPGSV,4,3,14,05,24,099,32,11,17,043,17,12,12,124,19,04,07,332,,0*6C
[2023-10-29 22:35:46.364] 
[2023-10-29 22:35:46.365] $GPGSV,4,4,14,16,04,300,,09,02,001,,0*6A
[2023-10-29 22:35:46.408] 
[2023-10-29 22:35:46.408] $GLGSV,1,1,03,82,86,228,,80,77,196,,81,40,043,,1*4B
[2023-10-29 22:35:46.462] 
[2023-10-29 22:35:46.464] $GNGLL,5216.6953,N,02048.5510,E,213546.000,A,A*46
[2023-10-29 22:35:46.517] 
[2023-10-29 22:35:46.517] $GPTXT,01,01,02,ANTSTATUS=OPEN*2B
[2023-10-29 22:35:46.551] 
[2023-10-29 22:35:46.852] $GNRMC,213547.000,A,5216.6952,N,02048.5518,E,0.53,211.67,291023,,,A,V*0D
[2023-10-29 22:35:46.930] 
[2023-10-29 22:35:46.930] $GPVTG,211.67,T,,M,0.53,N,0.99,K,A*38
[2023-10-29 22:35:46.971] 
[2023-10-29 22:35:46.974] $GPGGA,213547.000,5216.6952,N,02048.5518,E,1,7,1.04,82.8,M,39.0,M,,*6F
[2023-10-29 22:35:47.046] 
[2023-10-29 22:35:47.046] $GNGSA,A,3,26,05,31,28,20,11,12,,,,,,1.42,1.04,0.97,1*05
[2023-10-29 22:35:47.110] 
[2023-10-29 22:35:47.110] $GNGSA,A,3,,,,,,,,,,,,,1.42,1.04,0.97,2*0E
[2023-10-29 22:35:47.149] 
[2023-10-29 22:35:47.151] $GPGSV,4,1,14,29,86,040,15,25,48,135,,31,43,278,20,28,42,243,18,0*66
[2023-10-29 22:35:47.231] 
[2023-10-29 22:35:47.231] $GPGSV,4,2,14,26,31,300,21,18,30,194,15,39,29,174,,20,26,061,22,0*60
[2023-10-29 22:35:47.296] 
[2023-10-29 22:35:47.297] $GPGSV,4,3,14,05,24,099,32,11,17,043,17,12,12,124,19,04,07,332,,0*6C
[2023-10-29 22:35:47.369] 
[2023-10-29 22:35:47.371] $GPGSV,4,4,14,16,04,300,,09,02,001,,0*6A
[2023-10-29 22:35:47.414] 
[2023-10-29 22:35:47.414] $GLGSV,1,1,03,82,86,228,,80,77,196,,81,40,043,,1*4B
[2023-10-29 22:35:47.468] 
[2023-10-29 22:35:47.471] $GNGLL,5216.6952,N,02048.5518,E,213547.000,A,A*4E
[2023-10-29 22:35:47.525] 
[2023-10-29 22:35:47.525] $GPTXT,01,01,02,ANTSTATUS=OPEN*2B
[2023-10-29 22:35:47.558] 
[2023-10-29 22:35:47.846] $GNRMC,213548.000,A,5216.6951,N,02048.5523,E,0.56,211.67,291023,,,A,V*0C
[2023-10-29 22:35:47.926] 
[2023-10-29 22:35:47.926] $GPVTG,211.67,T,,M,0.56,N,1.04,K,A*38
[2023-10-29 22:35:47.963] 
[2023-10-29 22:35:47.963] $GPGGA,213548.000,5216.6951,N,02048.5523,E,1,7,1.04,82.8,M,39.0,M,,*6B
[2023-10-29 22:35:48.037] 
[2023-10-29 22:35:48.039] $GNGSA,A,3,26,05,31,28,20,11,12,,,,,,1.42,1.04,0.97,1*05
[2023-10-29 22:35:48.099] 
[2023-10-29 22:35:48.099] $GNGSA,A,3,,,,,,,,,,,,,1.42,1.04,0.97,2*0E
[2023-10-29 22:35:48.143] 
[2023-10-29 22:35:48.144] $GPGSV,4,1,14,29,86,040,15,25,48,135,,31,43,278,20,28,42,243,18,0*66
[2023-10-29 22:35:48.217] 
[2023-10-29 22:35:48.217] $GPGSV,4,2,14,26,31,300,22,18,30,194,16,39,29,174,,20,26,061,22,0*60
[2023-10-29 22:35:48.289] 
[2023-10-29 22:35:48.291] $GPGSV,4,3,14,05,24,099,32,11,17,043,17,12,12,124,18,04,07,332,,0*6D
[2023-10-29 22:35:48.362] 
[2023-10-29 22:35:48.364] $GPGSV,4,4,14,16,04,300,,09,02,001,,0*6A
[2023-10-29 22:35:48.409] 
[2023-10-29 22:35:48.409] $GLGSV,1,1,03,82,86,228,,80,77,196,,81,40,043,,1*4B
[2023-10-29 22:35:48.466] 
[2023-10-29 22:35:48.466] $GNGLL,5216.6951,N,02048.5523,E,213548.000,A,A*4A
[2023-10-29 22:35:48.516] 
[2023-10-29 22:35:48.516] $GPTXT,01,01,02,ANTSTATUS=OPEN*2B
[2023-10-29 22:35:48.550] 
[2023-10-29 22:35:48.849] $GNRMC,213549.000,A,5216.6952,N,02048.5527,E,0.50,211.67,291023,,,A,V*0C
[2023-10-29 22:35:48.925] 
[2023-10-29 22:35:48.927] $GPVTG,211.67,T,,M,0.50,N,0.92,K,A*30
[2023-10-29 22:35:48.966] 
[2023-10-29 22:35:48.968] $GPGGA,213549.000,5216.6952,N,02048.5527,E,1,7,1.04,82.8,M,39.0,M,,*6D
[2023-10-29 22:35:49.046] 
[2023-10-29 22:35:49.046] $GNGSA,A,3,26,05,31,28,20,11,12,,,,,,1.43,1.04,0.97,1*04
[2023-10-29 22:35:49.102] 
[2023-10-29 22:35:49.104] $GNGSA,A,3,,,,,,,,,,,,,1.43,1.04,0.97,2*0F
[2023-10-29 22:35:49.149] 
[2023-10-29 22:35:49.151] $GPGSV,4,1,14,29,86,040,,25,48,135,,31,43,278,21,28,42,243,18,0*63
[2023-10-29 22:35:49.218] 
[2023-10-29 22:35:49.220] $GPGSV,4,2,14,26,31,300,22,18,30,194,16,39,29,174,,20,26,061,21,0*63
[2023-10-29 22:35:49.292] 
[2023-10-29 22:35:49.292] $GPGSV,4,3,14,05,24,099,32,11,17,043,17,12,12,124,18,04,07,332,,0*6D
[2023-10-29 22:35:49.366] 
[2023-10-29 22:35:49.366] $GPGSV,4,4,14,16,04,300,,09,02,001,,0*6A
[2023-10-29 22:35:49.408] 
[2023-10-29 22:35:49.410] $GLGSV,1,1,03,82,86,228,,80,77,196,,81,40,043,,1*4B
[2023-10-29 22:35:49.464] 
[2023-10-29 22:35:49.464] $GNGLL,5216.6952,N,02048.5527,E,213549.000,A,A*4C
[2023-10-29 22:35:49.517] 
[2023-10-29 22:35:49.519] $GPTXT,01,01,02,ANTSTATUS=OPEN*2B
[2023-10-29 22:35:49.555] 
[2023-10-29 22:35:49.846] $GNRMC,213550.000,A,5216.6951,N,02048.5532,E,0.52,211.67,291023,,,A,V*01
[2023-10-29 22:35:49.922] 
[2023-10-29 22:35:49.922] $GPVTG,211.67,T,,M,0.52,N,0.97,K,A*37
[2023-10-29 22:35:49.962] 
[2023-10-29 22:35:49.963] $GPGGA,213550.000,5216.6951,N,02048.5532,E,1,7,1.04,82.8,M,39.0,M,,*62
[2023-10-29 22:35:50.038] 
[2023-10-29 22:35:50.038] $GNGSA,A,3,26,05,31,28,20,11,12,,,,,,1.42,1.04,0.97,1*05
[2023-10-29 22:35:50.098] 
[2023-10-29 22:35:50.100] $GNGSA,A,3,,,,,,,,,,,,,1.42,1.04,0.97,2*0E
[2023-10-29 22:35:50.144] 
[2023-10-29 22:35:50.146] $GPGSV,4,1,14,29,86,040,,25,48,135,,31,43,278,22,28,42,243,18,0*60
[2023-10-29 22:35:50.215] 
[2023-10-29 22:35:50.215] $GPGSV,4,2,14,26,31,300,22,18,30,194,16,39,29,174,,20,26,061,22,0*60
[2023-10-29 22:35:50.288] 
[2023-10-29 22:35:50.288] $GPGSV,4,3,14,05,24,099,32,11,17,043,17,12,12,124,18,04,07,332,,0*6D
[2023-10-29 22:35:50.363] 
[2023-10-29 22:35:50.367] $GPGSV,4,4,14,16,04,300,,09,02,001,,0*6A
[2023-10-29 22:35:50.409] 
[2023-10-29 22:35:50.409] $GLGSV,1,1,03,82,86,228,,80,77,196,,81,40,043,,1*4B
[2023-10-29 22:35:50.460] 
[2023-10-29 22:35:50.460] $GNGLL,5216.6951,N,02048.5532,E,213550.000,A,A*43
[2023-10-29 22:35:50.515] 
[2023-10-29 22:35:50.515] $GPTXT,01,01,02,ANTSTATUS=OPEN*2B
[2023-10-29 22:35:50.551] 
[2023-10-29 22:35:50.848] $GNRMC,213551.000,A,5216.6951,N,02048.5533,E,0.40,211.67,291023,,,A,V*02
[2023-10-29 22:35:50.924] 
[2023-10-29 22:35:50.926] $GPVTG,211.67,T,,M,0.40,N,0.73,K,A*3E
[2023-10-29 22:35:50.967] 
[2023-10-29 22:35:50.967] $GPGGA,213551.000,5216.6951,N,02048.5533,E,1,7,1.04,82.8,M,39.0,M,,*62
[2023-10-29 22:35:51.045] 
[2023-10-29 22:35:51.045] $GNGSA,A,3,26,05,31,28,20,11,12,,,,,,1.42,1.04,0.97,1*05
[2023-10-29 22:35:51.100] 
[2023-10-29 22:35:51.102] $GNGSA,A,3,,,,,,,,,,,,,1.42,1.04,0.97,2*0E
[2023-10-29 22:35:51.151] 
[2023-10-29 22:35:51.151] $GPGSV,4,1,14,29,86,040,,25,48,135,,31,43,278,23,28,42,243,19,0*60
[2023-10-29 22:35:51.219] 
[2023-10-29 22:35:51.221] $GPGSV,4,2,14,26,31,300,23,18,30,194,16,39,29,174,,20,26,061,22,0*61
[2023-10-29 22:35:51.292] 
[2023-10-29 22:35:51.292] $GPGSV,4,3,14,05,24,099,33,11,17,043,17,12,12,124,19,04,07,332,,0*6D
[2023-10-29 22:35:51.372] 
[2023-10-29 22:35:51.372] $GPGSV,4,4,14,16,04,300,,09,02,001,,0*6A
[2023-10-29 22:35:51.408] 
[2023-10-29 22:35:51.408] $GLGSV,1,1,03,82,86,228,,80,77,196,,81,40,043,,1*4B
[2023-10-29 22:35:51.462] 
[2023-10-29 22:35:51.463] $GNGLL,5216.6951,N,02048.5533,E,213551.000,A,A*43
[2023-10-29 22:35:51.517] 
[2023-10-29 22:35:51.518] $GPTXT,01,01,02,ANTSTATUS=OPEN*2B
[2023-10-29 22:35:51.552] 
[2023-10-29 22:35:51.866] $GNRMC,213552.000,A,5216.6956,N,02048.5536,E,0.00,211.67,291023,,,A,V*07
[2023-10-29 22:35:51.943] 
[2023-10-29 22:35:51.943] $GPVTG,211.67,T,,M,0.00,N,0.00,K,A*3E
[2023-10-29 22:35:51.983] 
[2023-10-29 22:35:51.984] $GPGGA,213552.000,5216.6956,N,02048.5536,E,1,7,1.04,82.8,M,39.0,M,,*63
[2023-10-29 22:35:52.060] 
[2023-10-29 22:35:52.060] $GNGSA,A,3,26,05,31,28,20,11,12,,,,,,1.42,1.04,0.97,1*05
[2023-10-29 22:35:52.119] 
[2023-10-29 22:35:52.121] $GNGSA,A,3,,,,,,,,,,,,,1.42,1.04,0.97,2*0E
[2023-10-29 22:35:52.164] 
[2023-10-29 22:35:52.165] $GPGSV,4,1,14,29,86,040,,25,48,135,,31,43,278,23,28,42,243,19,0*60
[2023-10-29 22:35:52.235] 
[2023-10-29 22:35:52.236] $GPGSV,4,2,14,26,31,300,21,18,30,194,15,20,26,061,21,05,24,099,33,0*63
[2023-10-29 22:35:52.312] 
[2023-10-29 22:35:52.312] $GPGSV,4,3,14,33,21,222,,11,17,043,17,12,12,124,19,04,07,332,,0*6F
[2023-10-29 22:35:52.380] 
[2023-10-29 22:35:52.382] $GPGSV,4,4,14,16,04,300,,09,02,001,,0*6A
[2023-10-29 22:35:52.427] 
[2023-10-29 22:35:52.427] $GLGSV,1,1,03,82,86,228,,80,77,196,,81,40,043,,1*4B
[2023-10-29 22:35:52.480] 
[2023-10-29 22:35:52.482] $GNGLL,5216.6956,N,02048.5536,E,213552.000,A,A*42
[2023-10-29 22:35:52.534] 
[2023-10-29 22:35:52.534] $GPTXT,01,01,02,ANTSTATUS=OPEN*2B
[2023-10-29 22:35:52.573] 
[2023-10-29 22:35:52.863] $GNRMC,213553.000,A,5216.6957,N,02048.5540,E,0.00,211.67,291023,,,A,V*06
[2023-10-29 22:35:52.941] 
[2023-10-29 22:35:52.941] $GPVTG,211.67,T,,M,0.00,N,0.00,K,A*3E
[2023-10-29 22:35:52.982] 
[2023-10-29 22:35:52.982] $GPGGA,213553.000,5216.6957,N,02048.5540,E,1,7,1.04,82.8,M,39.0,M,,*62
[2023-10-29 22:35:53.054] 
[2023-10-29 22:35:53.056] $GNGSA,A,3,26,05,31,28,20,11,12,,,,,,1.42,1.04,0.97,1*05
[2023-10-29 22:35:53.118] 
[2023-10-29 22:35:53.118] $GNGSA,A,3,,,,,,,,,,,,,1.42,1.04,0.97,2*0E
[2023-10-29 22:35:53.161] 
[2023-10-29 22:35:53.163] $GPGSV,4,1,14,29,86,040,,25,48,135,,31,43,278,22,28,42,243,19,0*61
[2023-10-29 22:35:53.233] 
[2023-10-29 22:35:53.233] $GPGSV,4,2,14,26,31,300,22,18,30,194,15,20,26,061,20,05,24,099,33,0*61
[2023-10-29 22:35:53.307] 
[2023-10-29 22:35:53.309] $GPGSV,4,3,14,33,21,222,,11,17,043,17,12,12,124,19,04,07,332,,0*6F
[2023-10-29 22:35:53.380] 
[2023-10-29 22:35:53.380] $GPGSV,4,4,14,16,04,300,,09,02,001,,0*6A
[2023-10-29 22:35:53.423] 
[2023-10-29 22:35:53.423] $GLGSV,1,1,03,82,86,228,,80,77,196,,81,40,043,,1*4B
[2023-10-29 22:35:53.478] 
[2023-10-29 22:35:53.478] $GNGLL,5216.6957,N,02048.5540,E,213553.000,A,A*43
[2023-10-29 22:35:53.532] 
[2023-10-29 22:35:53.532] $GPTXT,01,01,02,ANTSTATUS=OPEN*2B
[2023-10-29 22:35:53.568] 
[2023-10-29 22:35:53.866] $GNRMC,213554.000,A,5216.6958,N,02048.5543,E,0.00,211.67,291023,,,A,V*0D
[2023-10-29 22:35:53.942] 
[2023-10-29 22:35:53.944] $GPVTG,211.67,T,,M,0.00,N,0.00,K,A*3E
[2023-10-29 22:35:53.984] 
[2023-10-29 22:35:53.984] $GPGGA,213554.000,5216.6958,N,02048.5543,E,1,7,1.04,82.8,M,39.0,M,,*69
[2023-10-29 22:35:54.059] 
[2023-10-29 22:35:54.059] $GNGSA,A,3,26,05,31,28,20,11,12,,,,,,1.42,1.04,0.97,1*05
[2023-10-29 22:35:54.118] 
[2023-10-29 22:35:54.119] $GNGSA,A,3,,,,,,,,,,,,,1.42,1.04,0.97,2*0E
[2023-10-29 22:35:54.167] 
[2023-10-29 22:35:54.169] $GPGSV,4,1,14,29,86,040,,25,48,135,,31,43,278,22,28,42,243,19,0*61
[2023-10-29 22:35:54.236] 
[2023-10-29 22:35:54.237] $GPGSV,4,2,14,26,31,300,20,18,30,194,15,20,26,061,19,05,24,099,33,0*69
[2023-10-29 22:35:54.311] 
[2023-10-29 22:35:54.311] $GPGSV,4,3,14,33,21,222,,11,17,043,16,12,12,124,19,04,07,332,,0*6E
[2023-10-29 22:35:54.384] 
[2023-10-29 22:35:54.384] $GPGSV,4,4,14,16,04,300,,09,02,001,,0*6A
[2023-10-29 22:35:54.426] 
[2023-10-29 22:35:54.426] $GLGSV,1,1,03,82,86,228,,80,77,196,,81,40,043,,1*4B
[2023-10-29 22:35:54.480] 
[2023-10-29 22:35:54.482] $GNGLL,5216.6958,N,02048.5543,E,213554.000,A,A*48
[2023-10-29 22:35:54.534] 
[2023-10-29 22:35:54.534] $GPTXT,01,01,02,ANTSTATUS=OPEN*2B
[2023-10-29 22:35:54.569] 
[2023-10-29 22:35:54.862] $GNRMC,213555.000,A,5216.6958,N,02048.5543,E,1.49,173.42,291023,,,A,V*00
[2023-10-29 22:35:54.942] 
[2023-10-29 22:35:54.942] $GPVTG,173.42,T,,M,1.49,N,2.76,K,A*31
[2023-10-29 22:35:54.981] 
[2023-10-29 22:35:54.981] $GPGGA,213555.000,5216.6958,N,02048.5543,E,1,7,1.04,82.8,M,39.0,M,,*68
[2023-10-29 22:35:55.060] 
[2023-10-29 22:35:55.060] $GNGSA,A,3,26,05,31,28,20,11,12,,,,,,1.42,1.04,0.97,1*05
[2023-10-29 22:35:55.115] 
[2023-10-29 22:35:55.117] $GNGSA,A,3,,,,,,,,,,,,,1.42,1.04,0.97,2*0E
[2023-10-29 22:35:55.164] 
[2023-10-29 22:35:55.171] $GPGSV,4,1,14,29,86,040,,25,48,135,,31,43,278,22,28,42,243,19,0*61
[2023-10-29 22:35:55.233] 
[2023-10-29 22:35:55.233] $GPGSV,4,2,14,26,31,300,20,18,30,194,15,20,26,061,19,05,24,099,32,0*68
[2023-10-29 22:35:55.307] 
[2023-10-29 22:35:55.309] $GPGSV,4,3,14,33,21,222,,11,17,043,15,12,12,124,19,04,07,332,,0*6D
[2023-10-29 22:35:55.379] 
[2023-10-29 22:35:55.379] $GPGSV,4,4,14,16,04,300,,09,02,001,,0*6A
[2023-10-29 22:35:55.423] 
[2023-10-29 22:35:55.423] $GLGSV,1,1,03,82,86,228,,80,77,196,,81,40,043,,1*4B
[2023-10-29 22:35:55.478] 
[2023-10-29 22:35:55.478] $GNGLL,5216.6958,N,02048.5543,E,213555.000,A,A*49
[2023-10-29 22:35:55.535] 
[2023-10-29 22:35:55.535] $GPTXT,01,01,02,ANTSTATUS=OPEN*2B
[2023-10-29 22:35:55.567] 
[2023-10-29 22:35:55.863] $GNRMC,213556.000,A,5216.6950,N,02048.5548,E,1.51,165.08,291023,,,A,V*00
[2023-10-29 22:35:55.939] 
[2023-10-29 22:35:55.941] $GPVTG,165.08,T,,M,1.51,N,2.80,K,A*38
[2023-10-29 22:35:55.981] 
[2023-10-29 22:35:55.981] $GPGGA,213556.000,5216.6950,N,02048.5548,E,1,7,1.04,82.8,M,39.0,M,,*68
[2023-10-29 22:35:56.057] 
[2023-10-29 22:35:56.057] $GNGSA,A,3,26,05,31,28,20,11,12,,,,,,1.42,1.04,0.97,1*05
[2023-10-29 22:35:56.117] 
[2023-10-29 22:35:56.117] $GNGSA,A,3,,,,,,,,,,,,,1.42,1.04,0.97,2*0E
[2023-10-29 22:35:56.162] 
[2023-10-29 22:35:56.162] $GPGSV,4,1,14,29,86,040,,25,48,135,,31,43,278,22,28,42,243,19,0*61
[2023-10-29 22:35:56.234] 
[2023-10-29 22:35:56.234] $GPGSV,4,2,14,26,31,300,21,18,30,194,15,20,26,061,19,05,24,099,32,0*69
[2023-10-29 22:35:56.312] 
[2023-10-29 22:35:56.312] $GPGSV,4,3,14,33,21,222,,11,17,043,16,12,12,124,19,04,07,332,,0*6E
[2023-10-29 22:35:56.378] 
[2023-10-29 22:35:56.379] $GPGSV,4,4,14,16,04,300,,09,02,001,,0*6A
[2023-10-29 22:35:56.426] 
[2023-10-29 22:35:56.431] $GLGSV,1,1,03,82,86,228,,80,77,196,,81,40,043,,1*4B
[2023-10-29 22:35:56.479] 
[2023-10-29 22:35:56.479] $GNGLL,5216.6950,N,02048.5548,E,213556.000,A,A*49
[2023-10-29 22:35:56.530] 
[2023-10-29 22:35:56.531] $GPTXT,01,01,02,ANTSTATUS=OPEN*2B
[2023-10-29 22:35:56.568] 
[2023-10-29 22:35:56.861] $GNRMC,213557.000,A,5216.6948,N,02048.5551,E,1.16,160.04,291023,,,A,V*0A
[2023-10-29 22:35:56.937] 
[2023-10-29 22:35:56.939] $GPVTG,160.04,T,,M,1.16,N,2.14,K,A*3F
[2023-10-29 22:35:56.982] 
[2023-10-29 22:35:56.983] $GPGGA,213557.000,5216.6948,N,02048.5551,E,1,7,1.04,82.8,M,39.0,M,,*68
[2023-10-29 22:35:57.063] 
[2023-10-29 22:35:57.063] $GNGSA,A,3,26,05,31,28,20,11,12,,,,,,1.42,1.04,0.97,1*05
[2023-10-29 22:35:57.114] 
[2023-10-29 22:35:57.116] $GNGSA,A,3,,,,,,,,,,,,,1.42,1.04,0.97,2*0E
[2023-10-29 22:35:57.159] 
[2023-10-29 22:35:57.160] $GPGSV,4,1,14,29,86,040,,25,48,135,,31,43,278,22,28,42,243,19,0*61
[2023-10-29 22:35:57.232] 
[2023-10-29 22:35:57.232] $GPGSV,4,2,14,26,31,300,21,18,30,194,14,20,26,061,19,05,24,099,32,0*68
[2023-10-29 22:35:57.306] 
[2023-10-29 22:35:57.306] $GPGSV,4,3,14,33,21,222,,11,17,043,16,12,12,124,18,04,07,332,,0*6F
[2023-10-29 22:35:57.377] 
[2023-10-29 22:35:57.377] $GPGSV,4,4,14,16,04,300,,09,02,001,,0*6A
[2023-10-29 22:35:57.421] 
[2023-10-29 22:35:57.421] $GLGSV,1,1,03,82,86,228,,80,77,196,,81,40,043,,1*4B
[2023-10-29 22:35:57.476] 
[2023-10-29 22:35:57.478] $GNGLL,5216.6948,N,02048.5551,E,213557.000,A,A*49
[2023-10-29 22:35:57.530] 
[2023-10-29 22:35:57.530] $GPTXT,01,01,02,ANTSTATUS=OPEN*2B
[2023-10-29 22:35:57.567] 
[2023-10-29 22:35:57.862] $GNRMC,213558.000,A,5216.6943,N,02048.5551,E,1.65,173.04,291023,,,A,V*08
[2023-10-29 22:35:57.944] 
[2023-10-29 22:35:57.944] $GPVTG,173.04,T,,M,1.65,N,3.06,K,A*3B
[2023-10-29 22:35:57.981] 
[2023-10-29 22:35:57.981] $GPGGA,213558.000,5216.6943,N,02048.5551,E,1,7,1.04,82.7,M,39.0,M,,*63
[2023-10-29 22:35:58.056] 
[2023-10-29 22:35:58.056] $GNGSA,A,3,26,05,31,28,20,11,12,,,,,,1.42,1.04,0.97,1*05
[2023-10-29 22:35:58.114] 
[2023-10-29 22:35:58.116] $GNGSA,A,3,,,,,,,,,,,,,1.42,1.04,0.97,2*0E
[2023-10-29 22:35:58.164] 
[2023-10-29 22:35:58.165] $GPGSV,4,1,14,29,86,040,,25,48,135,,31,43,278,22,28,42,243,19,0*61
[2023-10-29 22:35:58.235] 
[2023-10-29 22:35:58.240] $GPGSV,4,2,14,26,31,300,21,18,30,194,14,20,26,061,19,05,24,099,32,0*68
[2023-10-29 22:35:58.306] 
[2023-10-29 22:35:58.308] $GPGSV,4,3,14,33,21,222,,11,17,043,17,12,12,124,18,04,07,332,,0*6E
[2023-10-29 22:35:58.379] 
[2023-10-29 22:35:58.379] $GPGSV,4,4,14,16,04,300,,09,02,001,,0*6A
[2023-10-29 22:35:58.422] 
[2023-10-29 22:35:58.427] $GLGSV,1,1,03,82,86,228,,80,77,196,,81,40,043,,1*4B
[2023-10-29 22:35:58.477] 
[2023-10-29 22:35:58.477] $GNGLL,5216.6943,N,02048.5551,E,213558.000,A,A*4D
[2023-10-29 22:35:58.529] 
[2023-10-29 22:35:58.531] $GPTXT,01,01,02,ANTSTATUS=OPEN*2B
[2023-10-29 22:35:58.567] 
[2023-10-29 22:35:58.861] $GNRMC,213559.000,A,5216.6942,N,02048.5552,E,1.08,164.76,291023,,,A,V*03
[2023-10-29 22:35:58.941] 
[2023-10-29 22:35:58.946] $GPVTG,164.76,T,,M,1.08,N,1.99,K,A*37
[2023-10-29 22:35:58.980] 
[2023-10-29 22:35:58.980] $GPGGA,213559.000,5216.6942,N,02048.5552,E,1,7,1.04,82.7,M,39.0,M,,*60
[2023-10-29 22:35:59.063] 
[2023-10-29 22:35:59.063] $GNGSA,A,3,26,05,31,28,20,11,12,,,,,,1.42,1.04,0.97,1*05
[2023-10-29 22:35:59.115] 
[2023-10-29 22:35:59.115] $GNGSA,A,3,,,,,,,,,,,,,1.42,1.04,0.97,2*0E
[2023-10-29 22:35:59.162] 
[2023-10-29 22:35:59.166] $GPGSV,4,1,14,29,86,040,,25,48,135,,31,43,278,22,28,42,243,19,0*61
[2023-10-29 22:35:59.230] 
[2023-10-29 22:35:59.231] $GPGSV,4,2,14,26,31,300,22,18,30,194,14,20,26,061,19,05,24,099,32,0*6B
[2023-10-29 22:35:59.307] 
[2023-10-29 22:35:59.307] $GPGSV,4,3,14,33,21,222,,11,17,043,16,12,12,124,18,04,07,332,,0*6F
[2023-10-29 22:35:59.378] 
[2023-10-29 22:35:59.378] $GPGSV,4,4,14,16,04,300,,09,02,001,,0*6A
[2023-10-29 22:35:59.424] 
[2023-10-29 22:35:59.424] $GLGSV,1,1,03,82,86,228,,80,77,196,,81,40,043,,1*4B
[2023-10-29 22:35:59.476] 
[2023-10-29 22:35:59.476] $GNGLL,5216.6942,N,02048.5552,E,213559.000,A,A*4E
[2023-10-29 22:35:59.530] 
[2023-10-29 22:35:59.530] $GPTXT,01,01,02,ANTSTATUS=OPEN*2B
[2023-10-29 22:35:59.565] 
[2023-10-29 22:35:59.863] $GNRMC,213600.000,A,5216.6942,N,02048.5553,E,1.06,164.76,291023,,,A,V*03
[2023-10-29 22:35:59.939] 
[2023-10-29 22:35:59.941] $GPVTG,164.76,T,,M,1.06,N,1.96,K,A*36
[2023-10-29 22:35:59.982] 
[2023-10-29 22:35:59.982] $GPGGA,213600.000,5216.6942,N,02048.5553,E,1,7,1.04,82.7,M,39.0,M,,*6E
[2023-10-29 22:36:00.057] 
[2023-10-29 22:36:00.057] $GNGSA,A,3,26,05,31,28,20,11,12,,,,,,1.42,1.04,0.97,1*05
[2023-10-29 22:36:00.116] 
[2023-10-29 22:36:00.116] $GNGSA,A,3,,,,,,,,,,,,,1.42,1.04,0.97,2*0E
[2023-10-29 22:36:00.161] 
[2023-10-29 22:36:00.162] $GPGSV,4,1,14,29,86,040,,25,48,135,,31,43,278,22,28,42,243,19,0*61
[2023-10-29 22:36:00.237] 
[2023-10-29 22:36:00.237] $GPGSV,4,2,14,26,31,300,23,18,30,194,14,20,26,061,19,05,24,099,32,0*6A
[2023-10-29 22:36:00.308] 
[2023-10-29 22:36:00.308] $GPGSV,4,3,14,33,21,222,,11,17,043,17,12,12,124,18,04,07,332,,0*6E
[2023-10-29 22:36:00.378] 
[2023-10-29 22:36:00.379] $GPGSV,4,4,14,16,04,300,,09,02,001,,0*6A
[2023-10-29 22:36:00.423] 
[2023-10-29 22:36:00.423] $GLGSV,1,1,03,82,86,228,,80,77,196,,81,40,043,,1*4B
[2023-10-29 22:36:00.479] 
[2023-10-29 22:36:00.479] $GNGLL,5216.6942,N,02048.5553,E,213600.000,A,A*40
[2023-10-29 22:36:00.532] 
[2023-10-29 22:36:00.535] $GPTXT,01,01,02,ANTSTATUS=OPEN*2B
[2023-10-29 22:36:00.572] 
[2023-10-29 22:36:00.866] $GNRMC,213601.000,A,5216.6942,N,02048.5556,E,1.00,164.76,291023,,,A,V*01
[2023-10-29 22:36:00.944] 
[2023-10-29 22:36:00.944] $GPVTG,164.76,T,,M,1.00,N,1.85,K,A*32
[2023-10-29 22:36:00.983] 
[2023-10-29 22:36:00.985] $GPGGA,213601.000,5216.6942,N,02048.5556,E,1,7,1.04,82.7,M,39.0,M,,*6A
[2023-10-29 22:36:01.058] 
[2023-10-29 22:36:01.059] $GNGSA,A,3,26,05,31,28,20,11,12,,,,,,1.42,1.04,0.97,1*05
[2023-10-29 22:36:01.124] 
[2023-10-29 22:36:01.124] $GNGSA,A,3,,,,,,,,,,,,,1.42,1.04,0.97,2*0E
[2023-10-29 22:36:01.164] 
[2023-10-29 22:36:01.165] $GPGSV,4,1,14,29,86,040,,25,48,135,,31,43,278,22,28,42,243,19,0*61
[2023-10-29 22:36:01.236] 
[2023-10-29 22:36:01.236] $GPGSV,4,2,14,26,31,300,23,18,30,194,14,20,26,061,19,05,24,099,32,0*6A
[2023-10-29 22:36:01.311] 
[2023-10-29 22:36:01.312] $GPGSV,4,3,14,40,18,130,,11,17,043,16,12,12,124,18,04,07,332,,0*61
[2023-10-29 22:36:01.381] 
[2023-10-29 22:36:01.382] $GPGSV,4,4,14,16,04,300,,09,02,001,,0*6A
[2023-10-29 22:36:01.428] 
[2023-10-29 22:36:01.428] $GLGSV,1,1,03,82,86,228,,80,77,196,,81,40,043,,1*4B
[2023-10-29 22:36:01.481] 
[2023-10-29 22:36:01.481] $GNGLL,5216.6942,N,02048.5556,E,213601.000,A,A*44
[2023-10-29 22:36:01.535] 
[2023-10-29 22:36:01.538] $GPTXT,01,01,02,ANTSTATUS=OPEN*2B
[2023-10-29 22:36:01.572] 
[2023-10-29 22:36:01.863] $GNRMC,213602.000,A,5216.6938,N,02048.5558,E,1.40,164.76,291023,,,A,V*05
[2023-10-29 22:36:01.941] 
[2023-10-29 22:36:01.941] $GPVTG,164.76,T,,M,1.40,N,2.59,K,A*34
[2023-10-29 22:36:01.981] 
[2023-10-29 22:36:01.981] $GPGGA,213602.000,5216.6938,N,02048.5558,E,1,7,1.04,82.7,M,39.0,M,,*6A
[2023-10-29 22:36:02.063] 
[2023-10-29 22:36:02.063] $GNGSA,A,3,26,05,31,28,20,11,12,,,,,,1.42,1.04,0.97,1*05
[2023-10-29 22:36:02.116] 
[2023-10-29 22:36:02.116] $GNGSA,A,3,,,,,,,,,,,,,1.42,1.04,0.97,2*0E
[2023-10-29 22:36:02.165] 
[2023-10-29 22:36:02.165] $GPGSV,4,1,14,29,86,040,,25,48,135,,31,43,278,22,28,42,243,19,0*61
[2023-10-29 22:36:02.232] 
