[2023-11-02 10:47:07.898] Hello TSAT_P_P_001
[2023-11-02 10:47:07.898] Hello TSAT_P_P_001
[2023-11-02 10:47:07.898] Message sent to the Astronode --> 
[2023-11-02 10:47:07.898] 05070007F2CD
[2023-11-02 10:47:07.898] Message received from the Astronode <-- 
[2023-11-02 10:47:07.898] 85DD20
[2023-11-02 10:47:07.898] Astronode configuration successfully set.
[2023-11-02 10:47:07.898] Message sent to the Astronode --> 
[2023-11-02 10:47:07.898] 10C1F3
[2023-11-02 10:47:07.898] Message received from the Astronode <-- 
[2023-11-02 10:47:07.898] 904962
[2023-11-02 10:47:07.898] Astronode configuration successfully saved in NVM.
[2023-11-02 10:47:07.898] Message sent to the Astronode --> 
[2023-11-02 10:47:07.898] 1BAA42
[2023-11-02 10:47:07.898] Message received from the Astronode <-- 
[2023-11-02 10:47:07.898] 9B41535435303134372D30310000000000D272
[2023-11-02 10:47:07.898] Module's product number is:
[2023-11-02 10:47:07.898] AST50147-01
[2023-11-02 10:47:07.898] Message sent to the Astronode --> 
[2023-11-02 10:47:07.898] 1A8B52
[2023-11-02 10:47:07.898] Message received from the Astronode <-- 
[2023-11-02 10:47:07.898] 9A414E5332323132464C303030303235310969
[2023-11-02 10:47:07.898] Module's Serial Number is:
[2023-11-02 10:47:07.898] ANS2212FL000025
[2023-11-02 10:47:07.898] Message sent to the Astronode --> 
[2023-11-02 10:47:07.898] 19E862
[2023-11-02 10:47:07.898] Message received from the Astronode <-- 
[2023-11-02 10:47:07.898] 9965376139653565612D353039662D343836342D393337332D6264323963386433383966338D64
[2023-11-02 10:47:07.898] Module GUID is:
[2023-11-02 10:47:07.898] e7a9e5ea-509f-4864-9373-bd29c8d389f
[2023-11-02 10:47:07.898] $PMTK011,MTKGPS*08
[2023-11-02 10:47:07.898] 
[2023-11-02 10:47:07.898] $PMTK010,001*.Hello TSAT_P_P_001
[2023-11-02 10:47:08.150] Message sent to the Astronode --> 
[2023-11-02 10:47:08.155] 05070007F2CD
[2023-11-02 10:47:09.676] ERROR : Received answer timeout..
[2023-11-02 10:47:09.682] Message sent to the Astronode --> 
[2023-11-02 10:47:09.685] 10C1F3
[2023-11-02 10:47:11.199] ERROR : Received answer timeout..
[2023-11-02 10:47:11.202] Failed to save the Astronode configuration in NVM.
[2023-11-02 10:47:11.208] Message sent to the Astronode --> 
[2023-11-02 10:47:11.211] 1BAA42
[2023-11-02 10:47:12.727] ERROR : Received answer timeout..
[2023-11-02 10:47:12.734] Message sent to the Astronode --> 
[2023-11-02 10:47:12.734] 1A8B52
[2023-11-02 10:47:14.250] ERROR : Received answer timeout..
[2023-11-02 10:47:14.254] Message sent to the Astronode --> 
[2023-11-02 10:47:14.260] 19E862
[2023-11-02 10:47:15.774] ERROR : Received answer timeout..
[2023-11-02 10:47:16.234] $PMTK011,MTKGPS*08
[2023-11-02 10:47:16.255] 
[2023-11-02 10:47:16.258] $PMTK010,001*2E
[2023-11-02 10:47:16.274] 
[2023-11-02 10:47:17.033] $PMTK011,MTKGPS*08
[2023-11-02 10:47:17.053] 
[2023-11-02 10:47:17.055] $PMTK010,002*2D
[2023-11-02 10:47:17.072] 
[2023-11-02 10:47:17.105] $GPRMC,094717.172,V,,,,,0.00,0.00,021123,,,N,V*3C
[2023-11-02 10:47:17.156] 
[2023-11-02 10:47:17.158] $GPVTG,0.00,T,,M,0.00,N,0.00,K,N*32
[2023-11-02 10:47:17.195] 
[2023-11-02 10:47:17.197] $GPGGA,094717.172,,,,,0,0,,,M,,M,,*40
[2023-11-02 10:47:17.236] 
[2023-11-02 10:47:17.236] $GPGSA,A,1,,,,,,,,,,,,,,,,1*03
[2023-11-02 10:47:17.269] 
[2023-11-02 10:47:17.271] $GPGSA,A,1,,,,,,,,,,,,,,,,2*00
[2023-11-02 10:47:17.304] 
[2023-11-02 10:47:17.304] $GPGSV,3,1,11,09,79,068,,07,49,190,,04,43,078,,11,39,285,,0*65
[2023-11-02 10:47:17.370] 
[2023-11-02 10:47:17.370] $GPGSV,3,2,11,06,38,236,,20,29,306,,16,23,065,,30,19,207,,0*69
[2023-11-02 10:47:17.437] 
[2023-11-02 10:47:17.438] $GPGSV,3,3,11,26,15,038,,03,09,133,,29,05,348,,0*54
[2023-11-02 10:47:17.491] 
[2023-11-02 10:47:17.494] $GLGSV,1,1,00,1*78
[2023-11-02 10:47:17.512] 
[2023-11-02 10:47:17.516] $GPGLL,,,,,094717.172,V,N*72
[2023-11-02 10:47:17.543] 
[2023-11-02 10:47:17.545] $GPTXT,01,01,02,ANTSTATUS=OPEN*2B
[2023-11-02 10:47:17.581] 
[2023-11-02 10:47:18.104] $GPRMC,094718.172,V,,,,,0.00,0.00,021123,,,N,V*33
[2023-11-02 10:47:18.156] 
[2023-11-02 10:47:18.158] $GPVTG,0.00,T,,M,0.00,N,0.00,K,N*32
[2023-11-02 10:47:18.195] 
[2023-11-02 10:47:18.199] $GPGGA,094718.172,,,,,0,0,,,M,,M,,*4F
[2023-11-02 10:47:18.237] 
[2023-11-02 10:47:18.237] $GPGSA,A,1,,,,,,,,,,,,,,,,1*03
[2023-11-02 10:47:18.270] 
[2023-11-02 10:47:18.271] $GPGSA,A,1,,,,,,,,,,,,,,,,2*00
[2023-11-02 10:47:18.302] 
[2023-11-02 10:47:18.305] $GPGSV,3,1,11,09,79,068,,07,49,190,,04,43,078,,11,39,285,,0*65
[2023-11-02 10:47:18.370] 
[2023-11-02 10:47:18.371] $GPGSV,3,2,11,06,38,236,,20,29,306,,16,23,065,,30,19,207,,0*69
[2023-11-02 10:47:18.437] 
[2023-11-02 10:47:18.437] $GPGSV,3,3,11,26,15,038,,03,09,133,,29,05,348,,0*54
[2023-11-02 10:47:18.492] 
[2023-11-02 10:47:18.494] $GLGSV,1,1,00,1*78
[2023-11-02 10:47:18.513] 
[2023-11-02 10:47:18.514] $GPGLL,,,,,094718.172,V,N*7D
[2023-11-02 10:47:18.544] 
[2023-11-02 10:47:18.545] $GPTXT,01,01,02,ANTSTATUS=OPEN*2B
[2023-11-02 10:47:18.581] 
[2023-11-02 10:47:19.104] $GPRMC,094719.172,V,,,,,0.00,0.00,021123,,,N,V*32
[2023-11-02 10:47:19.159] 
[2023-11-02 10:47:19.159] $GPVTG,0.00,T,,M,0.00,N,0.00,K,N*32
[2023-11-02 10:47:19.199] 
[2023-11-02 10:47:19.199] $GPGGA,094719.172,,,,,0,0,,,M,,M,,*4E
[2023-11-02 10:47:19.240] 
[2023-11-02 10:47:19.240] $GPGSA,A,1,,,,,,,,,,,,,,,,1*03
[2023-11-02 10:47:19.270] 
[2023-11-02 10:47:19.271] $GPGSA,A,1,,,,,,,,,,,,,,,,2*00
[2023-11-02 10:47:19.303] 
[2023-11-02 10:47:19.304] $GPGSV,3,1,11,09,79,068,,07,49,190,,04,43,078,,11,39,285,,0*65
[2023-11-02 10:47:19.370] 
[2023-11-02 10:47:19.371] $GPGSV,3,2,11,06,38,236,,20,29,306,,16,23,065,,30,19,207,,0*69
[2023-11-02 10:47:19.437] 
[2023-11-02 10:47:19.439] $GPGSV,3,3,11,26,15,038,,03,09,133,,29,05,348,,0*54
[2023-11-02 10:47:19.492] 
[2023-11-02 10:47:19.493] $GLGSV,1,1,00,1*78
[2023-11-02 10:47:19.513] 
[2023-11-02 10:47:19.516] $GPGLL,,,,,094719.172,V,N*7C
[2023-11-02 10:47:19.544] 
[2023-11-02 10:47:19.545] $GPTXT,01,01,02,ANTSTATUS=OPEN*2B
[2023-11-02 10:47:19.580] 
[2023-11-02 10:47:20.103] $GPRMC,094720.172,V,,,,,0.00,0.00,021123,,,N,V*38
[2023-11-02 10:47:20.156] 
[2023-11-02 10:47:20.157] $GPVTG,0.00,T,,M,0.00,N,0.00,K,N*32
[2023-11-02 10:47:20.196] 
[2023-11-02 10:47:20.196] $GPGGA,094720.172,,,,,0,0,,,M,,M,,*44
[2023-11-02 10:47:20.236] 
[2023-11-02 10:47:20.236] $GPGSA,A,1,,,,,,,,,,,,,,,,1*03
[2023-11-02 10:47:20.269] 
[2023-11-02 10:47:20.270] $GPGSA,A,1,,,,,,,,,,,,,,,,2*00
[2023-11-02 10:47:20.302] 
[2023-11-02 10:47:20.303] $GPGSV,3,1,11,09,79,068,,07,49,190,,04,43,078,,11,39,285,,0*65
[2023-11-02 10:47:20.369] 
[2023-11-02 10:47:20.370] $GPGSV,3,2,11,06,38,236,,20,29,306,,16,23,065,,30,19,207,,0*69
[2023-11-02 10:47:20.437] 
[2023-11-02 10:47:20.437] $GPGSV,3,3,11,26,15,038,,03,09,133,,29,05,348,,0*54
[2023-11-02 10:47:20.491] 
[2023-11-02 10:47:20.492] $GLGSV,1,1,00,1*78
[2023-11-02 10:47:20.512] 
[2023-11-02 10:47:20.514] $GPGLL,,,,,094720.172,V,N*76
[2023-11-02 10:47:20.543] 
[2023-11-02 10:47:20.544] $GPTXT,01,01,02,ANTSTATUS=OPEN*2B
[2023-11-02 10:47:20.581] 
[2023-11-02 10:47:21.107] $GPRMC,094721.172,V,,,,,0.00,0.00,021123,,,N,V*39
[2023-11-02 10:47:21.161] 
[2023-11-02 10:47:21.161] $GPVTG,0.00,T,,M,0.00,N,0.00,K,N*32
[2023-11-02 10:47:21.199] 
[2023-11-02 10:47:21.199] $GPGGA,094721.172,,,,,0,0,,,M,,M,,*45
[2023-11-02 10:47:21.238] 
[2023-11-02 10:47:21.239] $GPGSA,A,1,,,,,,,,,,,,,,,,1*03
[2023-11-02 10:47:21.273] 
[2023-11-02 10:47:21.274] $GPGSA,A,1,,,,,,,,,,,,,,,,2*00
[2023-11-02 10:47:21.306] 
[2023-11-02 10:47:21.307] $GPGSV,3,1,11,09,79,068,,07,49,190,,04,43,078,18,11,39,285,,0*6C
[2023-11-02 10:47:21.376] 
[2023-11-02 10:47:21.378] $GPGSV,3,2,11,06,38,236,,20,29,306,,16,23,065,,30,19,207,,0*69
[2023-11-02 10:47:21.442] 
[2023-11-02 10:47:21.442] $GPGSV,3,3,11,26,15,038,,03,09,133,,29,05,348,,0*54
[2023-11-02 10:47:21.497] 
[2023-11-02 10:47:21.498] $GLGSV,1,1,00,1*78
[2023-11-02 10:47:21.518] 
[2023-11-02 10:47:21.519] $GPGLL,,,,,094721.172,V,N*77
[2023-11-02 10:47:21.549] 
[2023-11-02 10:47:21.550] $GPTXT,01,01,02,ANTSTATUS=OPEN*2B
[2023-11-02 10:47:21.586] 
[2023-11-02 10:47:22.112] $GPRMC,094722.172,V,,,,,0.07,0.00,021123,,,N,V*3D
[2023-11-02 10:47:22.163] 
[2023-11-02 10:47:22.165] $GPVTG,0.00,T,,M,0.07,N,0.12,K,N*36
[2023-11-02 10:47:22.204] 
[2023-11-02 10:47:22.204] $GPGGA,094722.172,,,,,0,0,,,M,,M,,*46
[2023-11-02 10:47:22.243] 
[2023-11-02 10:47:22.245] $GPGSA,A,1,,,,,,,,,,,,,,,,1*03
[2023-11-02 10:47:22.278] 
[2023-11-02 10:47:22.278] $GPGSA,A,1,,,,,,,,,,,,,,,,2*00
[2023-11-02 10:47:22.310] 
[2023-11-02 10:47:22.311] $GPGSV,3,1,11,09,79,068,,07,49,190,,04,43,078,19,11,39,285,,0*6D
[2023-11-02 10:47:22.380] 
[2023-11-02 10:47:22.380] $GPGSV,3,2,11,06,38,236,,20,29,306,,16,23,065,,30,19,207,,0*69
[2023-11-02 10:47:22.446] 
[2023-11-02 10:47:22.448] $GPGSV,3,3,11,26,15,038,,03,09,133,,29,05,348,,0*54
[2023-11-02 10:47:22.502] 
[2023-11-02 10:47:22.502] $GLGSV,1,1,00,1*78
[2023-11-02 10:47:22.522] 
[2023-11-02 10:47:22.524] $GPGLL,,,,,094722.172,V,N*74
[2023-11-02 10:47:22.555] 
[2023-11-02 10:47:22.556] $GPTXT,01,01,02,ANTSTATUS=OPEN*2B
[2023-11-02 10:47:22.590] 
[2023-11-02 10:47:23.112] $GPRMC,094723.172,V,,,,,0.03,0.00,021123,,,N,V*38
[2023-11-02 10:47:23.165] 
[2023-11-02 10:47:23.167] $GPVTG,0.00,T,,M,0.03,N,0.05,K,N*34
[2023-11-02 10:47:23.205] 
[2023-11-02 10:47:23.205] $GPGGA,094723.172,,,,,0,0,,,M,,M,,*47
[2023-11-02 10:47:23.245] 
[2023-11-02 10:47:23.247] $GPGSA,A,1,,,,,,,,,,,,,,,,1*03
[2023-11-02 10:47:23.280] 
[2023-11-02 10:47:23.280] $GPGSA,A,1,,,,,,,,,,,,,,,,2*00
[2023-11-02 10:47:23.311] 
[2023-11-02 10:47:23.312] $GPGSV,3,1,11,09,79,068,,07,49,190,,04,43,078,20,11,39,285,18,0*6E
[2023-11-02 10:47:23.383] 
[2023-11-02 10:47:23.384] $GPGSV,3,2,11,06,38,236,,20,29,306,,16,23,065,,30,19,207,,0*69
[2023-11-02 10:47:23.449] 
[2023-11-02 10:47:23.450] $GPGSV,3,3,11,26,15,038,,03,09,133,,29,05,348,,0*54
[2023-11-02 10:47:23.505] 
[2023-11-02 10:47:23.506] $GLGSV,1,1,00,1*78
[2023-11-02 10:47:23.525] 
[2023-11-02 10:47:23.526] $GPGLL,,,,,094723.172,V,N*75
[2023-11-02 10:47:23.557] 
[2023-11-02 10:47:23.559] $GPTXT,01,01,02,ANTSTATUS=OPEN*2B
[2023-11-02 10:47:23.595] 
[2023-11-02 10:47:24.112] $GPRMC,094724.172,V,,,,,0.03,0.00,021123,,,N,V*3F
[2023-11-02 10:47:24.165] 
[2023-11-02 10:47:24.167] $GPVTG,0.00,T,,M,0.03,N,0.05,K,N*34
[2023-11-02 10:47:24.205] 
[2023-11-02 10:47:24.205] $GPGGA,094724.172,,,,,0,0,,,M,,M,,*40
[2023-11-02 10:47:24.245] 
[2023-11-02 10:47:24.245] $GPGSA,A,1,,,,,,,,,,,,,,,,1*03
[2023-11-02 10:47:24.280] 
[2023-11-02 10:47:24.280] $GPGSA,A,1,,,,,,,,,,,,,,,,2*00
[2023-11-02 10:47:24.311] 
[2023-11-02 10:47:24.312] $GPGSV,3,1,11,09,79,068,,07,49,190,,04,43,078,20,11,39,285,17,0*61
[2023-11-02 10:47:24.382] 
[2023-11-02 10:47:24.384] $GPGSV,3,2,11,06,38,236,,20,29,306,,16,23,065,,30,19,207,,0*69
[2023-11-02 10:47:24.449] 
[2023-11-02 10:47:24.451] $GPGSV,3,3,11,26,15,038,,03,09,133,,29,05,348,,0*54
[2023-11-02 10:47:24.504] 
[2023-11-02 10:47:24.506] $GLGSV,1,1,00,1*78
[2023-11-02 10:47:24.524] 
[2023-11-02 10:47:24.526] $GPGLL,,,,,094724.172,V,N*72
[2023-11-02 10:47:24.558] 
[2023-11-02 10:47:24.558] $GPTXT,01,01,02,ANTSTATUS=OPEN*2B
[2023-11-02 10:47:24.593] 
[2023-11-02 10:47:25.115] $GPRMC,094725.172,V,,,,,0.50,0.00,021123,,,N,V*38
[2023-11-02 10:47:25.168] 
[2023-11-02 10:47:25.170] $GPVTG,0.00,T,,M,0.50,N,0.92,K,N*3C
[2023-11-02 10:47:25.207] 
[2023-11-02 10:47:25.208] $GPGGA,094725.172,,,,,0,0,,,M,,M,,*41
[2023-11-02 10:47:25.246] 
[2023-11-02 10:47:25.248] $GPGSA,A,1,,,,,,,,,,,,,,,,1*03
[2023-11-02 10:47:25.281] 
[2023-11-02 10:47:25.282] $GPGSA,A,1,,,,,,,,,,,,,,,,2*00
[2023-11-02 10:47:25.314] 
[2023-11-02 10:47:25.316] $GPGSV,3,1,11,09,79,068,,07,49,190,,04,43,078,21,11,39,285,17,0*60
[2023-11-02 10:47:25.385] 
[2023-11-02 10:47:25.385] $GPGSV,3,2,11,06,38,236,,20,29,306,,16,23,065,18,30,19,207,,0*60
[2023-11-02 10:47:25.454] 
[2023-11-02 10:47:25.455] $GPGSV,3,3,11,26,15,038,,03,09,133,,29,05,348,,0*54
[2023-11-02 10:47:25.510] 
[2023-11-02 10:47:25.511] $GLGSV,1,1,00,1*78
[2023-11-02 10:47:25.530] 
[2023-11-02 10:47:25.531] $GPGLL,,,,,094725.172,V,N*73
[2023-11-02 10:47:25.562] 
[2023-11-02 10:47:25.563] $GPTXT,01,01,02,ANTSTATUS=OPEN*2B
[2023-11-02 10:47:25.599] 
[2023-11-02 10:47:26.114] $GPRMC,094726.172,V,,,,,0.00,0.00,021123,,,N,V*3E
[2023-11-02 10:47:26.169] 
[2023-11-02 10:47:26.169] $GPVTG,0.00,T,,M,0.00,N,0.01,K,N*33
[2023-11-02 10:47:26.206] 
[2023-11-02 10:47:26.207] $GPGGA,094726.172,,,,,0,0,,,M,,M,,*42
[2023-11-02 10:47:26.246] 
[2023-11-02 10:47:26.247] $GPGSA,A,1,,,,,,,,,,,,,,,,1*03
[2023-11-02 10:47:26.280] 
[2023-11-02 10:47:26.280] $GPGSA,A,1,,,,,,,,,,,,,,,,2*00
[2023-11-02 10:47:26.313] 
[2023-11-02 10:47:26.314] $GPGSV,3,1,11,09,79,068,,07,49,190,,04,43,078,21,11,39,285,18,0*6F
[2023-11-02 10:47:26.384] 
[2023-11-02 10:47:26.386] $GPGSV,3,2,11,06,38,236,17,20,29,306,,16,23,065,,30,19,207,,0*6F
[2023-11-02 10:47:26.453] 
[2023-11-02 10:47:26.455] $GPGSV,3,3,11,26,15,038,,03,09,133,,29,05,348,,0*54
[2023-11-02 10:47:26.509] 
[2023-11-02 10:47:26.510] $GLGSV,1,1,00,1*78
[2023-11-02 10:47:26.530] 
[2023-11-02 10:47:26.530] $GPGLL,,,,,094726.172,V,N*70
[2023-11-02 10:47:26.561] 
[2023-11-02 10:47:26.562] $GPTXT,01,01,02,ANTSTATUS=OPEN*2B
[2023-11-02 10:47:26.597] 
[2023-11-02 10:47:27.118] $GPRMC,094727.172,V,,,,,0.19,0.00,021123,,,N,V*37
[2023-11-02 10:47:27.173] 
[2023-11-02 10:47:27.173] $GPVTG,0.00,T,,M,0.19,N,0.36,K,N*3F
[2023-11-02 10:47:27.210] 
[2023-11-02 10:47:27.211] $GPGGA,094727.172,,,,,0,0,,,M,,M,,*43
[2023-11-02 10:47:27.250] 
[2023-11-02 10:47:27.251] $GPGSA,A,1,,,,,,,,,,,,,,,,1*03
[2023-11-02 10:47:27.284] 
[2023-11-02 10:47:27.284] $GPGSA,A,1,,,,,,,,,,,,,,,,2*00
[2023-11-02 10:47:27.317] 
[2023-11-02 10:47:27.318] $GPGSV,3,1,11,09,79,068,,07,49,190,,04,43,078,21,11,39,285,18,0*6F
[2023-11-02 10:47:27.389] 
[2023-11-02 10:47:27.389] $GPGSV,3,2,11,06,38,236,18,20,29,306,,16,23,065,,30,19,207,,0*60
[2023-11-02 10:47:27.457] 
[2023-11-02 10:47:27.457] $GPGSV,3,3,11,26,15,038,18,03,09,133,,29,05,348,,0*5D
[2023-11-02 10:47:27.514] 
[2023-11-02 10:47:27.517] $GLGSV,1,1,00,1*78
[2023-11-02 10:47:27.535] 
[2023-11-02 10:47:27.538] $GPGLL,,,,,094727.172,V,N*71
[2023-11-02 10:47:27.567] 
[2023-11-02 10:47:27.568] $GPTXT,01,01,02,ANTSTATUS=OPEN*2B
[2023-11-02 10:47:27.603] 
[2023-11-02 10:47:28.119] $GPRMC,094728.172,V,,,,,0.14,0.00,021123,,,N,V*35
[2023-11-02 10:47:28.174] 
[2023-11-02 10:47:28.174] $GPVTG,0.00,T,,M,0.14,N,0.26,K,N*33
[2023-11-02 10:47:28.211] 
[2023-11-02 10:47:28.213] $GPGGA,094728.172,,,,,0,0,,,M,,M,,*4C
[2023-11-02 10:47:28.252] 
[2023-11-02 10:47:28.254] $GPGSA,A,1,,,,,,,,,,,,,,,,1*03
[2023-11-02 10:47:28.285] 
[2023-11-02 10:47:28.286] $GPGSA,A,1,,,,,,,,,,,,,,,,2*00
[2023-11-02 10:47:28.319] 
[2023-11-02 10:47:28.319] $GPGSV,3,1,11,09,79,068,,07,49,190,,04,43,078,21,11,39,285,17,0*60
[2023-11-02 10:47:28.389] 
[2023-11-02 10:47:28.390] $GPGSV,3,2,11,06,38,236,17,20,29,306,,16,23,065,,30,19,207,,0*6F
[2023-11-02 10:47:28.458] 
[2023-11-02 10:47:28.459] $GPGSV,3,3,11,26,15,038,18,03,09,133,,29,05,348,,0*5D
[2023-11-02 10:47:28.516] 
[2023-11-02 10:47:28.516] $GLGSV,1,1,00,1*78
[2023-11-02 10:47:28.539] 
[2023-11-02 10:47:28.539] $GPGLL,,,,,094728.172,V,N*7E
[2023-11-02 10:47:28.569] 
[2023-11-02 10:47:28.569] $GPTXT,01,01,02,ANTSTATUS=OPEN*2B
[2023-11-02 10:47:28.604] 
[2023-11-02 10:47:29.129] $GPRMC,094729.172,V,,,,,0.21,0.00,021123,,,N,V*32
[2023-11-02 10:47:29.183] 
[2023-11-02 10:47:29.183] $GPVTG,0.00,T,,M,0.21,N,0.39,K,N*3B
[2023-11-02 10:47:29.221] 
[2023-11-02 10:47:29.221] $GPGGA,094729.172,,,,,0,0,,,M,,M,,*4D
[2023-11-02 10:47:29.261] 
[2023-11-02 10:47:29.263] $GPGSA,A,1,,,,,,,,,,,,,,,,1*03
[2023-11-02 10:47:29.295] 
[2023-11-02 10:47:29.298] $GPGSA,A,1,,,,,,,,,,,,,,,,2*00
[2023-11-02 10:47:29.328] 
[2023-11-02 10:47:29.329] $GPGSV,3,1,11,09,79,068,,07,49,190,,04,43,078,20,11,39,285,16,0*60
[2023-11-02 10:47:29.399] 
[2023-11-02 10:47:29.401] $GPGSV,3,2,11,06,38,236,16,20,29,306,,16,23,065,,30,19,207,,0*6E
[2023-11-02 10:47:29.468] 
[2023-11-02 10:47:29.470] $GPGSV,3,3,11,26,15,038,18,03,09,133,,29,05,348,,0*5D
[2023-11-02 10:47:29.526] 
[2023-11-02 10:47:29.528] $GLGSV,1,1,00,1*78
[2023-11-02 10:47:29.547] 
[2023-11-02 10:47:29.548] $GPGLL,,,,,094729.172,V,N*7F
[2023-11-02 10:47:29.579] 
[2023-11-02 10:47:29.579] $GPTXT,01,01,02,ANTSTATUS=OPEN*2B
[2023-11-02 10:47:29.615] 
[2023-11-02 10:47:30.155] $GNRMC,094730.176,A,5216.6869,N,02048.5524,E,1.84,122.14,021123,,,A,V*00
[2023-11-02 10:47:30.234] 
[2023-11-02 10:47:30.236] $GPVTG,122.14,T,,M,1.84,N,3.41,K,A*32
[2023-11-02 10:47:30.274] 
[2023-11-02 10:47:30.276] $GPGGA,094730.176,5216.6869,N,02048.5524,E,1,4,2.48,101.3,M,39.0,M,,*5F
[2023-11-02 10:47:30.352] 
[2023-11-02 10:47:30.354] $GNGSA,A,3,04,11,26,16,,,,,,,,,2.68,2.48,0.99,1*04
[2023-11-02 10:47:30.403] 
[2023-11-02 10:47:30.404] $GNGSA,A,3,,,,,,,,,,,,,2.68,2.48,0.99,2*00
[2023-11-02 10:47:30.450] 
[2023-11-02 10:47:30.451] $GPGSV,3,1,11,09,79,068,,07,49,190,,04,43,078,20,11,39,285,17,0*61
[2023-11-02 10:47:30.521] 
[2023-11-02 10:47:30.522] $GPGSV,3,2,11,06,38,236,17,20,29,306,,16,23,065,18,30,19,207,,0*66
[2023-11-02 10:47:30.592] 
[2023-11-02 10:47:30.594] $GPGSV,3,3,11,26,15,038,18,03,09,133,,29,05,348,,0*5D
[2023-11-02 10:47:30.649] 
[2023-11-02 10:47:30.650] $GLGSV,1,1,00,1*78
[2023-11-02 10:47:30.670] 
[2023-11-02 10:47:30.670] $GNGLL,5216.6869,N,02048.5524,E,094730.176,A,A*47
[2023-11-02 10:47:30.724] 
[2023-11-02 10:47:30.726] 2027.11.02 09:47:30
[2023-11-02 10:47:30.729] Message sent to the Astronode --> 
[2023-11-02 10:47:30.732] 3560140000000800001849
[2023-11-02 10:47:32.267] ERROR : Received answer timeout..
[2023-11-02 10:47:32.274] 2.7,52.278115,20.809207,15,0
[2023-11-02 10:47:32.279] Message sent to the Astronode --> 
[2023-11-02 10:47:32.283] 250100322E372C35322E3237383131352C32302E3830393230372C31352C302494
[2023-11-02 10:47:33.862] ERROR : Received answer timeout..
[2023-11-02 10:47:33.868] Evt pin is high.
[2023-11-02 10:47:33.874] Message sent to the Astronode --> 
[2023-11-02 10:47:33.874] 65F3DD
[2023-11-02 10:47:35.387] ERROR : Received answer timeout..
[2023-11-02 10:47:35.395] Evt pin is high.
[2023-11-02 10:47:35.395] Message sent to the Astronode --> 
[2023-11-02 10:47:35.399] 65F3DD
[2023-11-02 10:47:36.913] ERROR : Received answer timeout..
[2023-11-02 10:47:36.917] Evt pin is high.
[2023-11-02 10:47:36.921] Message sent to the Astronode --> 
[2023-11-02 10:47:36.925] 65F3DD
[2023-11-02 10:47:38.437] ERROR : Received answer timeout..
[2023-11-02 10:47:38.443] Evt pin is high.
[2023-11-02 10:47:38.443] Message sent to the Astronode --> 
[2023-11-02 10:47:38.448] 65F3DD
[2023-11-02 10:47:39.962] ERROR : Received answer timeout..
[2023-11-02 10:47:39.968] Evt pin is high.
[2023-11-02 10:47:39.974] Message sent to the Astronode --> 
[2023-11-02 10:47:39.979] 65F3DD
[2023-11-02 10:47:40.432] Hello TSAT_P_P_001
[2023-11-02 10:47:40.687] Message sent to the Astronode --> 
[2023-11-02 10:47:40.693] 05070007F2CD
[2023-11-02 10:47:40.715] Message received from the Astronode <-- 
[2023-11-02 10:47:40.720] 85DD20
[2023-11-02 10:47:40.720] Astronode configuration successfully set.
[2023-11-02 10:47:40.725] Message sent to the Astronode --> 
[2023-11-02 10:47:40.730] 10C1F3
[2023-11-02 10:47:40.744] Message received from the Astronode <-- 
[2023-11-02 10:47:40.751] 904962
[2023-11-02 10:47:40.751] Astronode configuration successfully saved in NVM.
[2023-11-02 10:47:40.758] Message sent to the Astronode --> 
[2023-11-02 10:47:40.761] 1BAA42
[2023-11-02 10:47:40.808] Message received from the Astronode <-- 
[2023-11-02 10:47:40.815] 9B41535435303134372D30310000000000D272
[2023-11-02 10:47:40.819] Module's product number is:
[2023-11-02 10:47:40.824] AST50147-01
[2023-11-02 10:47:40.824] Message sent to the Astronode --> 
[2023-11-02 10:47:40.829] 1A8B52
[2023-11-02 10:47:40.874] Message received from the Astronode <-- 
[2023-11-02 10:47:40.880] 9A414E5332323132464C303030303235310969
[2023-11-02 10:47:40.885] Module's Serial Number is:
[2023-11-02 10:47:40.889] ANS2212FL000025
[2023-11-02 10:47:40.894] Message sent to the Astronode --> 
[2023-11-02 10:47:40.894] 19E862
[2023-11-02 10:47:40.983] Message received from the Astronode <-- 
[2023-11-02 10:47:40.989] 9965376139653565612D353039662D343836342D393337332D6264323963386433383966338D64
[2023-11-02 10:47:40.996] Module GUID is:
[2023-11-02 10:47:41.001] e7a9e5ea-509f-4864-9373-bd29c8d389f
[2023-11-02 10:47:41.458] $PMTK011,MTKGPS*08
[2023-11-02 10:47:41.480] 
[2023-11-02 10:47:41.480] $PMTK010,001*2E
[2023-11-02 10:47:41.498] 
[2023-11-02 10:47:42.256] $PMTK011,MTKGPS*08
[2023-11-02 10:47:42.277] 
[2023-11-02 10:47:42.281] $PMTK010,002*2D
[2023-11-02 10:47:42.297] 
[2023-11-02 10:47:42.328] $GPRMC,094742.397,V,,,,,0.00,0.00,021123,,,N,V*35
[2023-11-02 10:47:42.383] 
[2023-11-02 10:47:42.386] $GPVTG,0.00,T,,M,0.00,N,0.00,K,N*32
[2023-11-02 10:47:42.421] 
[2023-11-02 10:47:42.421] $GPGGA,094742.397,,,,,0,0,,,M,,M,,*49
[2023-11-02 10:47:42.461] 
[2023-11-02 10:47:42.461] $GPGSA,A,1,,,,,,,,,,,,,,,,1*03
[2023-11-02 10:47:42.495] 
[2023-11-02 10:47:42.495] $GPGSA,A,1,,,,,,,,,,,,,,,,2*00
[2023-11-02 10:47:42.527] 
[2023-11-02 10:47:42.529] $GPGSV,3,1,11,09,78,069,,07,49,190,,04,43,078,,11,39,284,,0*64
[2023-11-02 10:47:42.595] 
[2023-11-02 10:47:42.596] $GPGSV,3,2,11,06,38,236,,20,29,306,,16,23,065,,30,20,207,,0*63
[2023-11-02 10:47:42.661] 
[2023-11-02 10:47:42.663] $GPGSV,3,3,11,26,15,038,,03,09,133,,29,05,348,,0*54
[2023-11-02 10:47:42.717] 
[2023-11-02 10:47:42.718] $GLGSV,1,1,00,1*78
[2023-11-02 10:47:42.738] 
[2023-11-02 10:47:42.738] $GPGLL,,,,,094742.397,V,N*7B
[2023-11-02 10:47:42.770] 
[2023-11-02 10:47:42.770] $GPTXT,01,01,02,ANTSTATUS=OPEN*2B
[2023-11-02 10:47:42.804] 
[2023-11-02 10:47:43.329] $GPRMC,094743.397,V,,,,,0.00,0.00,021123,,,N,V*34
[2023-11-02 10:47:43.381] 
[2023-11-02 10:47:43.383] $GPVTG,0.00,T,,M,0.00,N,0.00,K,N*32
[2023-11-02 10:47:43.421] 
[2023-11-02 10:47:43.421] $GPGGA,094743.397,,,,,0,0,,,M,,M,,*48
[2023-11-02 10:47:43.461] 
[2023-11-02 10:47:43.462] $GPGSA,A,1,,,,,,,,,,,,,,,,1*03
[2023-11-02 10:47:43.495] 
[2023-11-02 10:47:43.495] $GPGSA,A,1,,,,,,,,,,,,,,,,2*00
[2023-11-02 10:47:43.528] 
[2023-11-02 10:47:43.529] $GPGSV,3,1,11,09,78,069,,07,49,190,,04,43,078,,11,39,284,,0*64
[2023-11-02 10:47:43.595] 
[2023-11-02 10:47:43.595] $GPGSV,3,2,11,06,38,236,,20,29,306,,16,23,065,,30,20,207,,0*63
[2023-11-02 10:47:43.662] 
[2023-11-02 10:47:43.663] $GPGSV,3,3,11,26,15,038,,03,09,133,,29,05,348,,0*54
[2023-11-02 10:47:43.718] 
[2023-11-02 10:47:43.718] $GLGSV,1,1,00,1*78
[2023-11-02 10:47:43.737] 
[2023-11-02 10:47:43.739] $GPGLL,,,,,094743.397,V,N*7A
[2023-11-02 10:47:43.769] 
[2023-11-02 10:47:43.770] $GPTXT,01,01,02,ANTSTATUS=OPEN*2B
[2023-11-02 10:47:43.805] 
[2023-11-02 10:47:44.329] $GPRMC,094744.397,V,,,,,0.00,0.00,021123,,,N,V*33
[2023-11-02 10:47:44.382] 
[2023-11-02 10:47:44.382] $GPVTG,0.00,T,,M,0.00,N,0.00,K,N*32
[2023-11-02 10:47:44.420] 
[2023-11-02 10:47:44.420] $GPGGA,094744.397,,,,,0,0,,,M,,M,,*4F
[2023-11-02 10:47:44.460] 
[2023-11-02 10:47:44.461] $GPGSA,A,1,,,,,,,,,,,,,,,,1*03
[2023-11-02 10:47:44.494] 
[2023-11-02 10:47:44.494] $GPGSA,A,1,,,,,,,,,,,,,,,,2*00
[2023-11-02 10:47:44.527] 
[2023-11-02 10:47:44.528] $GPGSV,3,1,11,09,78,069,,07,49,190,,04,43,078,,11,39,284,,0*64
[2023-11-02 10:47:44.594] 
[2023-11-02 10:47:44.595] $GPGSV,3,2,11,06,38,236,,20,29,306,,16,23,065,,30,20,207,,0*63
[2023-11-02 10:47:44.660] 
[2023-11-02 10:47:44.662] $GPGSV,3,3,11,26,15,038,,03,09,133,,29,05,348,,0*54
[2023-11-02 10:47:44.716] 
[2023-11-02 10:47:44.716] $GLGSV,1,1,00,1*78
[2023-11-02 10:47:44.737] 
[2023-11-02 10:47:44.738] $GPGLL,,,,,094744.397,V,N*7D
[2023-11-02 10:47:44.768] 
[2023-11-02 10:47:44.769] $GPTXT,01,01,02,ANTSTATUS=OPEN*2B
[2023-11-02 10:47:44.804] 
[2023-11-02 10:47:45.329] $GPRMC,094745.397,V,,,,,0.00,0.00,021123,,,N,V*32
[2023-11-02 10:47:45.383] 
[2023-11-02 10:47:45.383] $GPVTG,0.00,T,,M,0.00,N,0.00,K,N*32
[2023-11-02 10:47:45.421] 
[2023-11-02 10:47:45.422] $GPGGA,094745.397,,,,,0,0,,,M,,M,,*4E
[2023-11-02 10:47:45.460] 
[2023-11-02 10:47:45.463] $GPGSA,A,1,,,,,,,,,,,,,,,,1*03
[2023-11-02 10:47:45.494] 
[2023-11-02 10:47:45.497] $GPGSA,A,1,,,,,,,,,,,,,,,,2*00
[2023-11-02 10:47:45.527] 
[2023-11-02 10:47:45.529] $GPGSV,3,1,11,09,78,069,,07,49,190,,04,43,078,,11,39,284,,0*64
[2023-11-02 10:47:45.595] 
[2023-11-02 10:47:45.595] $GPGSV,3,2,11,06,38,236,,20,29,306,,16,23,065,,30,20,207,,0*63
[2023-11-02 10:47:45.661] 
[2023-11-02 10:47:45.661] $GPGSV,3,3,11,26,15,038,,03,09,133,,29,05,348,,0*54
[2023-11-02 10:47:45.718] 
[2023-11-02 10:47:45.718] $GLGSV,1,1,00,1*78
[2023-11-02 10:47:45.737] 
[2023-11-02 10:47:45.738] $GPGLL,,,,,094745.397,V,N*7C
[2023-11-02 10:47:45.768] 
[2023-11-02 10:47:45.770] $GPTXT,01,01,02,ANTSTATUS=OPEN*2B
[2023-11-02 10:47:45.804] 
[2023-11-02 10:47:46.328] $GPRMC,094746.397,V,,,,,0.00,0.00,021123,,,N,V*31
[2023-11-02 10:47:46.382] 
[2023-11-02 10:47:46.382] $GPVTG,0.00,T,,M,0.00,N,0.00,K,N*32
[2023-11-02 10:47:46.421] 
[2023-11-02 10:47:46.421] $GPGGA,094746.397,,,,,0,0,,,M,,M,,*4D
[2023-11-02 10:47:46.461] 
[2023-11-02 10:47:46.462] $GPGSA,A,1,,,,,,,,,,,,,,,,1*03
[2023-11-02 10:47:46.496] 
[2023-11-02 10:47:46.496] $GPGSA,A,1,,,,,,,,,,,,,,,,2*00
[2023-11-02 10:47:46.527] 
[2023-11-02 10:47:46.528] $GPGSV,3,1,11,09,78,069,,07,49,190,,04,43,078,,11,39,284,,0*64
[2023-11-02 10:47:46.595] 
[2023-11-02 10:47:46.595] $GPGSV,3,2,11,06,38,236,,20,29,306,,16,23,065,,30,20,207,,0*63
[2023-11-02 10:47:46.662] 
[2023-11-02 10:47:46.662] $GPGSV,3,3,11,26,15,038,,03,09,133,,29,05,348,,0*54
[2023-11-02 10:47:46.716] 
[2023-11-02 10:47:46.718] $GLGSV,1,1,00,1*78
[2023-11-02 10:47:46.738] 
[2023-11-02 10:47:46.738] $GPGLL,,,,,094746.397,V,N*7F
[2023-11-02 10:47:46.768] 
[2023-11-02 10:47:46.770] $GPTXT,01,01,02,ANTSTATUS=OPEN*2B
[2023-11-02 10:47:46.805] 
[2023-11-02 10:47:47.330] $GPRMC,094747.397,V,,,,,0.00,0.00,021123,,,N,V*30
[2023-11-02 10:47:47.385] 
[2023-11-02 10:47:47.385] $GPVTG,0.00,T,,M,0.00,N,0.00,K,N*32
[2023-11-02 10:47:47.422] 
[2023-11-02 10:47:47.423] $GPGGA,094747.397,,,,,0,0,,,M,,M,,*4C
[2023-11-02 10:47:47.462] 
[2023-11-02 10:47:47.464] $GPGSA,A,1,,,,,,,,,,,,,,,,1*03
[2023-11-02 10:47:47.496] 
[2023-11-02 10:47:47.497] $GPGSA,A,1,,,,,,,,,,,,,,,,2*00
[2023-11-02 10:47:47.529] 
[2023-11-02 10:47:47.530] $GPGSV,3,1,11,09,78,069,,07,49,190,,04,43,078,18,11,39,284,,0*6D
[2023-11-02 10:47:47.598] 
[2023-11-02 10:47:47.599] $GPGSV,3,2,11,06,38,236,,20,29,306,,16,23,065,,30,20,207,,0*63
[2023-11-02 10:47:47.665] 
[2023-11-02 10:47:47.665] $GPGSV,3,3,11,26,15,038,,03,09,133,,29,05,348,,0*54
[2023-11-02 10:47:47.720] 
[2023-11-02 10:47:47.721] $GLGSV,1,1,00,1*78
[2023-11-02 10:47:47.741] 
[2023-11-02 10:47:47.742] $GPGLL,,,,,094747.397,V,N*7E
[2023-11-02 10:47:47.772] 
[2023-11-02 10:47:47.773] $GPTXT,01,01,02,ANTSTATUS=OPEN*2B
[2023-11-02 10:47:47.809] 
[2023-11-02 10:47:48.335] $GPRMC,094748.397,V,,,,,0.06,0.00,021123,,,N,V*39
[2023-11-02 10:47:48.388] 
[2023-11-02 10:47:48.388] $GPVTG,0.00,T,,M,0.06,N,0.10,K,N*35
[2023-11-02 10:47:48.426] 
[2023-11-02 10:47:48.428] $GPGGA,094748.397,,,,,0,0,,,M,,M,,*43
[2023-11-02 10:47:48.467] 
[2023-11-02 10:47:48.468] $GPGSA,A,1,,,,,,,,,,,,,,,,1*03
[2023-11-02 10:47:48.500] 
[2023-11-02 10:47:48.502] $GPGSA,A,1,,,,,,,,,,,,,,,,2*00
[2023-11-02 10:47:48.534] 
[2023-11-02 10:47:48.537] $GPGSV,3,1,11,09,78,069,,07,49,190,,04,43,078,18,11,39,284,19,0*65
[2023-11-02 10:47:48.604] 
[2023-11-02 10:47:48.606] $GPGSV,3,2,11,06,38,236,,20,29,306,,16,23,065,,30,20,207,,0*63
[2023-11-02 10:47:48.672] 
[2023-11-02 10:47:48.673] $GPGSV,3,3,11,26,15,038,,03,09,133,,29,05,348,,0*54
[2023-11-02 10:47:48.727] 
[2023-11-02 10:47:48.728] $GLGSV,1,1,00,1*78
[2023-11-02 10:47:48.748] 
[2023-11-02 10:47:48.749] $GPGLL,,,,,094748.397,V,N*71
[2023-11-02 10:47:48.778] 
[2023-11-02 10:47:48.779] $GPTXT,01,01,02,ANTSTATUS=OPEN*2B
[2023-11-02 10:47:48.817] 
[2023-11-02 10:47:49.339] $GPRMC,094749.397,V,,,,,0.09,0.00,021123,,,N,V*37
[2023-11-02 10:47:49.392] 
[2023-11-02 10:47:49.392] $GPVTG,0.00,T,,M,0.09,N,0.16,K,N*3C
[2023-11-02 10:47:49.429] 
[2023-11-02 10:47:49.431] $GPGGA,094749.397,,,,,0,0,,,M,,M,,*42
[2023-11-02 10:47:49.469] 
[2023-11-02 10:47:49.471] $GPGSA,A,1,,,,,,,,,,,,,,,,1*03
[2023-11-02 10:47:49.503] 
[2023-11-02 10:47:49.505] $GPGSA,A,1,,,,,,,,,,,,,,,,2*00
[2023-11-02 10:47:49.538] 
[2023-11-02 10:47:49.538] $GPGSV,3,1,11,09,78,069,,07,49,190,,04,43,078,18,11,39,284,17,0*6B
[2023-11-02 10:47:49.608] 
[2023-11-02 10:47:49.608] $GPGSV,3,2,11,06,38,236,,20,29,306,,16,23,065,,30,20,207,,0*63
[2023-11-02 10:47:49.675] 
[2023-11-02 10:47:49.675] $GPGSV,3,3,11,26,15,038,,03,09,133,,29,05,348,,0*54
[2023-11-02 10:47:49.730] 
[2023-11-02 10:47:49.731] $GLGSV,1,1,00,1*78
[2023-11-02 10:47:49.750] 
[2023-11-02 10:47:49.752] $GPGLL,,,,,094749.397,V,N*70
[2023-11-02 10:47:49.782] 
[2023-11-02 10:47:49.782] $GPTXT,01,01,02,ANTSTATUS=OPEN*2B
[2023-11-02 10:47:49.819] 
[2023-11-02 10:47:50.337] $GPRMC,094750.397,V,,,,,0.14,0.00,021123,,,N,V*33
[2023-11-02 10:47:50.391] 
[2023-11-02 10:47:50.391] $GPVTG,0.00,T,,M,0.14,N,0.26,K,N*33
[2023-11-02 10:47:50.429] 
[2023-11-02 10:47:50.430] $GPGGA,094750.397,,,,,0,0,,,M,,M,,*4A
[2023-11-02 10:47:50.469] 
[2023-11-02 10:47:50.470] $GPGSA,A,1,,,,,,,,,,,,,,,,1*03
[2023-11-02 10:47:50.503] 
[2023-11-02 10:47:50.504] $GPGSA,A,1,,,,,,,,,,,,,,,,2*00
[2023-11-02 10:47:50.536] 
[2023-11-02 10:47:50.536] $GPGSV,3,1,11,09,78,069,,07,49,190,,04,43,078,17,11,39,284,18,0*6B
[2023-11-02 10:47:50.607] 
[2023-11-02 10:47:50.608] $GPGSV,3,2,11,06,38,236,,20,29,306,,16,23,065,,30,20,207,,0*63
[2023-11-02 10:47:50.677] 
[2023-11-02 10:47:50.677] $GPGSV,3,3,11,26,15,038,,03,09,133,,29,05,348,,0*54
[2023-11-02 10:47:50.729] 
[2023-11-02 10:47:50.730] $GLGSV,1,1,00,1*78
[2023-11-02 10:47:50.751] 
[2023-11-02 10:47:50.751] $GPGLL,,,,,094750.397,V,N*78
[2023-11-02 10:47:50.781] 
[2023-11-02 10:47:50.782] $GPTXT,01,01,02,ANTSTATUS=OPEN*2B
[2023-11-02 10:47:50.816] 
[2023-11-02 10:47:51.338] $GPRMC,094751.397,V,,,,,0.16,0.00,021123,,,N,V*30
[2023-11-02 10:47:51.391] 
[2023-11-02 10:47:51.391] $GPVTG,0.00,T,,M,0.16,N,0.30,K,N*36
[2023-11-02 10:47:51.430] 
[2023-11-02 10:47:51.431] $GPGGA,094751.397,,,,,0,0,,,M,,M,,*4B
[2023-11-02 10:47:51.470] 
[2023-11-02 10:47:51.471] $GPGSA,A,1,,,,,,,,,,,,,,,,1*03
[2023-11-02 10:47:51.503] 
[2023-11-02 10:47:51.505] $GPGSA,A,1,,,,,,,,,,,,,,,,2*00
[2023-11-02 10:47:51.538] 
[2023-11-02 10:47:51.538] $GPGSV,3,1,11,09,78,069,,07,49,190,,04,43,078,17,11,39,284,18,0*6B
[2023-11-02 10:47:51.607] 
[2023-11-02 10:47:51.609] $GPGSV,3,2,11,06,38,236,,20,29,306,,16,23,065,17,30,20,207,,0*65
[2023-11-02 10:47:51.677] 
[2023-11-02 10:47:51.678] $GPGSV,3,3,11,26,15,038,,03,09,133,,29,05,348,,0*54
[2023-11-02 10:47:51.732] 
[2023-11-02 10:47:51.735] $GLGSV,1,1,00,1*78
[2023-11-02 10:47:51.754] 
[2023-11-02 10:47:51.756] $GPGLL,,,,,094751.397,V,N*79
[2023-11-02 10:47:51.784] 
[2023-11-02 10:47:51.785] $GPTXT,01,01,02,ANTSTATUS=OPEN*2B
[2023-11-02 10:47:51.821] 
[2023-11-02 10:47:52.354] $GPRMC,094752.446,V,,,,,2.12,225.39,021123,,,N,V*31
[2023-11-02 10:47:52.410] 
[2023-11-02 10:47:52.410] $GPVTG,225.39,T,,M,2.12,N,3.93,K,N*35
[2023-11-02 10:47:52.451] 
[2023-11-02 10:47:52.451] $GPGGA,094752.446,,,,,0,0,,,M,,M,,*43
[2023-11-02 10:47:52.490] 
[2023-11-02 10:47:52.494] $GPGSA,A,1,,,,,,,,,,,,,,,,1*03
[2023-11-02 10:47:52.523] 
[2023-11-02 10:47:52.525] $GPGSA,A,1,,,,,,,,,,,,,,,,2*00
[2023-11-02 10:47:52.558] 
[2023-11-02 10:47:52.558] $GPGSV,3,1,11,09,78,069,,07,49,190,,04,43,078,17,11,39,284,18,0*6B
[2023-11-02 10:47:52.627] 
[2023-11-02 10:47:52.629] $GPGSV,3,2,11,06,38,236,18,20,29,306,18,16,23,065,18,30,20,207,,0*6A
[2023-11-02 10:47:52.700] 
[2023-11-02 10:47:52.702] $GPGSV,3,3,11,26,15,038,17,03,09,133,,29,05,348,,0*52
[2023-11-02 10:47:52.758] 
[2023-11-02 10:47:52.759] $GLGSV,1,1,00,1*78
[2023-11-02 10:47:52.779] 
[2023-11-02 10:47:52.779] $GPGLL,,,,,094752.446,V,N*71
[2023-11-02 10:47:52.813] 
[2023-11-02 10:47:52.813] $GPTXT,01,01,02,ANTSTATUS=OPEN*2B
[2023-11-02 10:47:52.846] 
[2023-11-02 10:47:53.346] $GPRMC,094753.459,V,,,,,0.24,225.39,021123,,,N,V*39
[2023-11-02 10:47:53.401] 
[2023-11-02 10:47:53.401] $GPVTG,225.39,T,,M,0.24,N,0.44,K,N*3B
[2023-11-02 10:47:53.442] 
[2023-11-02 10:47:53.443] $GPGGA,094753.459,,,,,0,0,,,M,,M,,*4C
[2023-11-02 10:47:53.482] 
[2023-11-02 10:47:53.484] $GPGSA,A,1,,,,,,,,,,,,,,,,1*03
[2023-11-02 10:47:53.516] 
[2023-11-02 10:47:53.517] $GPGSA,A,1,,,,,,,,,,,,,,,,2*00
[2023-11-02 10:47:53.548] 
[2023-11-02 10:47:53.550] $GPGSV,3,1,11,09,78,069,,07,49,190,,04,43,078,18,11,39,284,18,0*64
[2023-11-02 10:47:53.619] 
[2023-11-02 10:47:53.621] $GPGSV,3,2,11,06,38,236,17,20,29,306,18,16,23,065,18,30,20,207,,0*65
[2023-11-02 10:47:53.693] 
[2023-11-02 10:47:53.694] $GPGSV,3,3,11,26,15,038,17,03,09,133,,29,05,348,,0*52
[2023-11-02 10:47:53.750] 
[2023-11-02 10:47:53.753] $GLGSV,1,1,00,1*78
[2023-11-02 10:47:53.770] 
[2023-11-02 10:47:53.773] $GPGLL,,,,,094753.459,V,N*7E
[2023-11-02 10:47:53.802] 
[2023-11-02 10:47:53.804] $GPTXT,01,01,02,ANTSTATUS=OPEN*2B
[2023-11-02 10:47:53.839] 
[2023-11-02 10:47:54.352] $GPRMC,094754.449,V,,,,,0.43,225.39,021123,,,N,V*3E
[2023-11-02 10:47:54.408] 
[2023-11-02 10:47:54.408] $GPVTG,225.39,T,,M,0.43,N,0.80,K,N*32
[2023-11-02 10:47:54.449] 
[2023-11-02 10:47:54.449] $GPGGA,094754.449,,,,,0,0,,,M,,M,,*4A
[2023-11-02 10:47:54.489] 
[2023-11-02 10:47:54.490] $GPGSA,A,1,,,,,,,,,,,,,,,,1*03
[2023-11-02 10:47:54.522] 
[2023-11-02 10:47:54.522] $GPGSA,A,1,,,,,,,,,,,,,,,,2*00
[2023-11-02 10:47:54.555] 
[2023-11-02 10:47:54.556] $GPGSV,3,1,11,09,78,069,,07,49,190,,04,43,078,18,11,39,284,18,0*64
[2023-11-02 10:47:54.626] 
[2023-11-02 10:47:54.627] $GPGSV,3,2,11,06,38,236,18,20,29,306,18,16,23,065,18,30,20,207,,0*6A
[2023-11-02 10:47:54.699] 
[2023-11-02 10:47:54.700] $GPGSV,3,3,11,26,15,038,18,03,09,133,,29,05,348,,0*5D
[2023-11-02 10:47:54.757] 
[2023-11-02 10:47:54.759] $GLGSV,1,1,00,1*78
[2023-11-02 10:47:54.778] 
[2023-11-02 10:47:54.779] $GPGLL,,,,,094754.449,V,N*78
[2023-11-02 10:47:54.809] 
[2023-11-02 10:47:54.810] $GPTXT,01,01,02,ANTSTATUS=OPEN*2B
[2023-11-02 10:47:54.845] 
[2023-11-02 10:47:55.362] $GNRMC,094755.438,A,5216.6838,N,02048.5853,E,0.30,225.39,021123,,,A,V*00
[2023-11-02 10:47:55.441] 
[2023-11-02 10:47:55.441] $GPVTG,225.39,T,,M,0.30,N,0.56,K,A*32
[2023-11-02 10:47:55.480] 
[2023-11-02 10:47:55.482] $GPGGA,094755.438,5216.6838,N,02048.5853,E,1,4,2.59,101.4,M,39.0,M,,*5D
[2023-11-02 10:47:55.557] 
[2023-11-02 10:47:55.557] $GNGSA,A,3,04,26,20,16,,,,,,,,,2.77,2.59,1.00,1*09
[2023-11-02 10:47:55.610] 
[2023-11-02 10:47:55.611] $GNGSA,A,3,,,,,,,,,,,,,2.77,2.59,1.00,2*0F
[2023-11-02 10:47:55.656] 
[2023-11-02 10:47:55.658] $GPGSV,3,1,11,09,78,069,,07,49,190,,04,43,078,18,11,39,284,18,0*64
[2023-11-02 10:47:55.727] 
[2023-11-02 10:47:55.728] $GPGSV,3,2,11,06,38,236,16,20,29,306,18,16,23,065,18,30,20,207,,0*64
[2023-11-02 10:47:55.800] 
[2023-11-02 10:47:55.801] $GPGSV,3,3,11,26,15,038,18,03,09,133,,29,05,348,,0*5D
[2023-11-02 10:47:55.857] 
[2023-11-02 10:47:55.858] $GLGSV,1,1,00,1*78
[2023-11-02 10:47:55.879] 
[2023-11-02 10:47:55.879] $GNGLL,5216.6838,N,02048.5853,E,094755.438,A,A*42
[2023-11-02 10:47:55.931] 
[2023-11-02 10:47:55.934] 2027.11.02 09:47:55
[2023-11-02 10:47:55.937] Message sent to the Astronode --> 
[2023-11-02 10:47:55.940] 3560140000000800001849
[2023-11-02 10:47:55.976] Message received from the Astronode <-- 
[2023-11-02 10:47:55.982] B58E16
[2023-11-02 10:47:55.982] Geolocation values were set successfully.
[2023-11-02 10:47:55.988] 2.8,52.278063,20.809755,15,0
[2023-11-02 10:47:55.993] Message sent to the Astronode --> 
[2023-11-02 10:47:55.997] 250100322E382C35322E3237383036332C32302E3830393735352C31352C30B02A
[2023-11-02 10:47:56.082] Message received from the Astronode <-- 
[2023-11-02 10:47:56.088] A50100C1A9
[2023-11-02 10:47:56.093] Payload was successfully queued.
[2023-11-02 10:47:56.093] Evt pin is high.
[2023-11-02 10:47:56.096] Message sent to the Astronode --> 
[2023-11-02 10:47:56.096] 65F3DD
[2023-11-02 10:47:56.116] Message received from the Astronode <-- 
[2023-11-02 10:47:56.119] E50A0253
[2023-11-02 10:47:56.119] Astronode has reset.
[2023-11-02 10:47:56.122] TX message pending.
[2023-11-02 10:47:56.125] Terminal has been reset.
[2023-11-02 10:47:56.128] Message sent to the Astronode --> 
[2023-11-02 10:47:56.131] 55A0EB
[2023-11-02 10:47:56.147] Message received from the Astronode <-- 
[2023-11-02 10:47:56.154] D5287A
[2023-11-02 10:47:56.154] The reset has been cleared.
[2023-11-02 10:48:55.834] Message sent to the Astronode --> 
[2023-11-02 10:48:55.840] 172683
[2023-11-02 10:48:55.863] Message received from the Astronode <-- 
[2023-11-02 10:48:55.869] 9787F5F90AF6DC
[2023-11-02 10:48:55.874] RTC time since Astrocast Epoch (2018-01-01 00:00:00 UTC): 184153479s.
[2023-11-02 10:48:55.879] Message sent to the Astronode --> 
[2023-11-02 10:48:55.883] 18C972
[2023-11-02 10:48:55.905] Message received from the Astronode <-- 
[2023-11-02 10:48:55.912] 9800000000AB35
[2023-11-02 10:48:55.912] Next opportunity for communication with the Astrocast Network: 0s.
[2023-11-02 10:48:55.918] Message sent to the Astronode --> 
[2023-11-02 10:48:55.920] 250100322E382C35322E3237383036332C32302E3830393735352C31352C30B02A
[2023-11-02 10:48:56.010] Message received from the Astronode <-- 
[2023-11-02 10:48:56.016] FF11257A47
[2023-11-02 10:48:56.021] [ERROR] DUPLICATE_ID : Failed to queue the payload because the Payload ID provided by the asset is already in use in the Astronode queue.
[2023-11-02 10:48:56.030] Payload failed to be queued.
