[2023-11-01 14:16:39.278] Message sent to the Astronode --> 
[2023-11-01 14:16:39.278] 18C972
[2023-11-01 14:16:39.309] Message received from the Astronode <-- 
[2023-11-01 14:16:39.316] 9800000000AB35
[2023-11-01 14:16:39.316] Next opportunity for communication with the Astrocast Network: 0s.
[2023-11-01 14:16:39.325] Message sent to the Astronode --> 
[2023-11-01 14:16:39.325] 250100313030302E302C2C2C3234302C30C83F
[2023-11-01 14:16:39.372] Message received from the Astronode <-- 
[2023-11-01 14:16:39.388] FF11257A47
[2023-11-01 14:16:39.388] [ERROR] DUPLICATE_ID : Failed to queue the payload because the Payload ID provided by the asset is already in use in the Astronode queue.
[2023-11-01 14:16:39.388] Payload failed to be queued.
[2023-11-01 14:31:35.897] Message sent to the Astronode --> 
[2023-11-01 14:31:35.897] 18C972
[2023-11-01 14:31:35.897] Message received from the Astronode <-- 
[2023-11-01 14:31:35.912] 9800000000AB35
[2023-11-01 14:31:35.912] Next opportunity for communication with the Astrocast Network: 0s.
[2023-11-01 14:31:35.912] Message sent to the Astronode --> 
[2023-11-01 14:31:35.912] 250100313030302E302C2C2C3234302C30C83F
[2023-11-01 14:31:35.974] Message received from the Astronode <-- 
[2023-11-01 14:31:35.989] FF11257A47
[2023-11-01 14:31:35.989] [ERROR] DUPLICATE_ID : Failed to queue the payload because the Payload ID provided by the asset is already in use in the Astronode queue.
[2023-11-01 14:31:36.005] Payload failed to be queued.
[2023-11-01 14:46:32.514] Message sent to the Astronode --> 
[2023-11-01 14:46:32.514] 18C972
[2023-11-01 14:46:32.530] Message received from the Astronode <-- 
[2023-11-01 14:46:32.530] 9800000000AB35
[2023-11-01 14:46:32.530] Next opportunity for communication with the Astrocast Network: 0s.
[2023-11-01 14:46:32.546] Message sent to the Astronode --> 
[2023-11-01 14:46:32.546] 250100313030302E302C2C2C3234302C30C83F
[2023-11-01 14:46:32.593] Message received from the Astronode <-- 
[2023-11-01 14:46:32.609] FF11257A47
[2023-11-01 14:46:32.609] [ERROR] DUPLICATE_ID : Failed to queue the payload because the Payload ID provided by the asset is already in use in the Astronode queue.
[2023-11-01 14:46:32.609] Payload failed to be queued.
[2023-11-01 15:01:29.101] Message sent to the Astronode --> 
[2023-11-01 15:01:29.101] 18C972
[2023-11-01 15:01:29.115] Message received from the Astronode <-- 
[2023-11-01 15:01:29.115] 9800000000AB35
[2023-11-01 15:01:29.115] Next opportunity for communication with the Astrocast Network: 0s.
[2023-11-01 15:01:29.130] Message sent to the Astronode --> 
[2023-11-01 15:01:29.130] 250100313030302E302C2C2C3234302C30C83F
[2023-11-01 15:01:29.178] Message received from the Astronode <-- 
[2023-11-01 15:01:29.193] FF11257A47
[2023-11-01 15:01:29.193] [ERROR] DUPLICATE_ID : Failed to queue the payload because the Payload ID provided by the asset is already in use in the Astronode queue.
[2023-11-01 15:01:29.209] Payload failed to be queued.
[2023-11-01 15:16:25.686] Message sent to the Astronode --> 
[2023-11-01 15:16:25.688] 18C972
[2023-11-01 15:16:25.688] Message received from the Astronode <-- 
[2023-11-01 15:16:25.703] 985E390000FEB9
[2023-11-01 15:16:25.703] Next opportunity for communication with the Astrocast Network: 14686s.
[2023-11-01 15:16:25.719] Message sent to the Astronode --> 
[2023-11-01 15:16:25.719] 250100313030302E302C2C2C3234302C30C83F
[2023-11-01 15:16:25.768] Message received from the Astronode <-- 
[2023-11-01 15:16:25.782] FF11257A47
[2023-11-01 15:16:25.782] [ERROR] DUPLICATE_ID : Failed to queue the payload because the Payload ID provided by the asset is already in use in the Astronode queue.
[2023-11-01 15:16:25.782] Payload failed to be queued.
[2023-11-01 15:31:22.312] Message sent to the Astronode --> 
[2023-11-01 15:31:22.312] 18C972
[2023-11-01 15:31:22.322] Message received from the Astronode <-- 
[2023-11-01 15:31:22.338] 98DD3500007B8A
[2023-11-01 15:31:22.338] Next opportunity for communication with the Astrocast Network: 13789s.
[2023-11-01 15:31:22.338] Message sent to the Astronode --> 
[2023-11-01 15:31:22.338] 250100313030302E302C2C2C3234302C30C83F
[2023-11-01 15:31:22.400] Message received from the Astronode <-- 
[2023-11-01 15:31:22.400] FF11257A47
[2023-11-01 15:31:22.400] [ERROR] DUPLICATE_ID : Failed to queue the payload because the Payload ID provided by the asset is already in use in the Astronode queue.
[2023-11-01 15:31:22.416] Payload failed to be queued.
[2023-11-01 15:46:18.936] Message sent to the Astronode --> 
[2023-11-01 15:46:18.936] 18C972
[2023-11-01 15:46:18.936] Message received from the Astronode <-- 
[2023-11-01 15:46:18.951] 985C32000067A4
[2023-11-01 15:46:18.951] Next opportunity for communication with the Astrocast Network: 12892s.
[2023-11-01 15:46:18.966] Message sent to the Astronode --> 
[2023-11-01 15:46:18.966] 250100313030302E302C2C2C3234302C30C83F
[2023-11-01 15:46:19.013] Message received from the Astronode <-- 
[2023-11-01 15:46:19.029] FF11257A47
[2023-11-01 15:46:19.029] [ERROR] DUPLICATE_ID : Failed to queue the payload because the Payload ID provided by the asset is already in use in the Astronode queue.
[2023-11-01 15:46:19.045] Payload failed to be queued.
[2023-11-01 16:01:15.533] Message sent to the Astronode --> 
[2023-11-01 16:01:15.533] 18C972
[2023-11-01 16:01:15.533] Message received from the Astronode <-- 
[2023-11-01 16:01:15.549] 98DC2E00005D4F
[2023-11-01 16:01:15.549] Next opportunity for communication with the Astrocast Network: 11996s.
[2023-11-01 16:01:15.549] Message sent to the Astronode --> 
[2023-11-01 16:01:15.549] 250100313030302E302C2C2C3234302C30C83F
[2023-11-01 16:01:15.612] Message received from the Astronode <-- 
[2023-11-01 16:01:15.628] FF11257A47
[2023-11-01 16:01:15.628] [ERROR] DUPLICATE_ID : Failed to queue the payload because the Payload ID provided by the asset is already in use in the Astronode queue.
[2023-11-01 16:01:15.643] Payload failed to be queued.
[2023-11-01 16:16:12.140] Message sent to the Astronode --> 
[2023-11-01 16:16:12.140] 18C972
[2023-11-01 16:16:12.157] Message received from the Astronode <-- 
[2023-11-01 16:16:12.157] 985B2B0000B828
[2023-11-01 16:16:12.157] Next opportunity for communication with the Astrocast Network: 11099s.
[2023-11-01 16:16:12.172] Message sent to the Astronode --> 
[2023-11-01 16:16:12.172] 250100313030302E302C2C2C3234302C30C83F
[2023-11-01 16:16:12.219] Message received from the Astronode <-- 
[2023-11-01 16:16:12.235] FF11257A47
[2023-11-01 16:16:12.235] [ERROR] DUPLICATE_ID : Failed to queue the payload because the Payload ID provided by the asset is already in use in the Astronode queue.
[2023-11-01 16:16:12.257] Payload failed to be queued.
[2023-11-01 16:31:08.733] Message sent to the Astronode --> 
[2023-11-01 16:31:08.733] 18C972
[2023-11-01 16:31:08.748] Message received from the Astronode <-- 
[2023-11-01 16:31:08.748] 98DA27000055F6
[2023-11-01 16:31:08.748] Next opportunity for communication with the Astrocast Network: 10202s.
[2023-11-01 16:31:08.764] Message sent to the Astronode --> 
[2023-11-01 16:31:08.764] 250100313030302E302C2C2C3234302C30C83F
[2023-11-01 16:31:08.811] Message received from the Astronode <-- 
[2023-11-01 16:31:08.827] FF11257A47
[2023-11-01 16:31:08.827] [ERROR] DUPLICATE_ID : Failed to queue the payload because the Payload ID provided by the asset is already in use in the Astronode queue.
[2023-11-01 16:31:08.843] Payload failed to be queued.
[2023-11-01 16:46:05.519] Message sent to the Astronode --> 
[2023-11-01 16:46:05.519] 18C972
[2023-11-01 16:46:05.519] Message received from the Astronode <-- 
[2023-11-01 16:46:05.535] 985A2400003D72
[2023-11-01 16:46:05.535] Next opportunity for communication with the Astrocast Network: 9306s.
[2023-11-01 16:46:05.550] Message sent to the Astronode --> 
[2023-11-01 16:46:05.550] 250100313030302E302C2C2C3234302C30C83F
[2023-11-01 16:46:05.608] Message received from the Astronode <-- 
[2023-11-01 16:46:05.613] FF11257A47
[2023-11-01 16:46:05.613] [ERROR] DUPLICATE_ID : Failed to queue the payload because the Payload ID provided by the asset is already in use in the Astronode queue.
[2023-11-01 16:46:05.629] Payload failed to be queued.
[2023-11-01 17:01:02.279] Message sent to the Astronode --> 
[2023-11-01 17:01:02.279] 18C972
[2023-11-01 17:01:02.279] Message received from the Astronode <-- 
[2023-11-01 17:01:02.294] 98D920000019E8
[2023-11-01 17:01:02.294] Next opportunity for communication with the Astrocast Network: 8409s.
[2023-11-01 17:01:02.310] Message sent to the Astronode --> 
[2023-11-01 17:01:02.310] 250100313030302E302C2C2C3234302C30C83F
[2023-11-01 17:01:02.357] Message received from the Astronode <-- 
[2023-11-01 17:01:02.373] FF11257A47
[2023-11-01 17:01:02.373] [ERROR] DUPLICATE_ID : Failed to queue the payload because the Payload ID provided by the asset is already in use in the Astronode queue.
[2023-11-01 17:01:02.388] Payload failed to be queued.
[2023-11-01 17:15:58.890] Message sent to the Astronode --> 
[2023-11-01 17:15:58.890] 18C972
[2023-11-01 17:15:58.890] Message received from the Astronode <-- 
[2023-11-01 17:15:58.906] 98581D000061C4
[2023-11-01 17:15:58.906] Next opportunity for communication with the Astrocast Network: 7512s.
[2023-11-01 17:15:58.906] Message sent to the Astronode --> 
[2023-11-01 17:15:58.906] 250100313030302E302C2C2C3234302C30C83F
[2023-11-01 17:15:58.969] Message received from the Astronode <-- 
[2023-11-01 17:15:58.984] FF11257A47
[2023-11-01 17:15:58.984] [ERROR] DUPLICATE_ID : Failed to queue the payload because the Payload ID provided by the asset is already in use in the Astronode queue.
[2023-11-01 17:15:58.984] Payload failed to be queued.
[2023-11-01 17:30:55.548] Message sent to the Astronode --> 
[2023-11-01 17:30:55.550] 18C972
[2023-11-01 17:30:55.550] Message received from the Astronode <-- 
[2023-11-01 17:30:55.566] 98D819000099C5
[2023-11-01 17:30:55.566] Next opportunity for communication with the Astrocast Network: 6616s.
[2023-11-01 17:30:55.581] Message sent to the Astronode --> 
[2023-11-01 17:30:55.581] 250100313030302E302C2C2C3234302C30C83F
[2023-11-01 17:30:55.630] Message received from the Astronode <-- 
[2023-11-01 17:30:55.645] FF11257A47
[2023-11-01 17:30:55.645] [ERROR] DUPLICATE_ID : Failed to queue the payload because the Payload ID provided by the asset is already in use in the Astronode queue.
[2023-11-01 17:30:55.661] Payload failed to be queued.
[2023-11-01 17:38:41.262] Hello TSAT_P_P_001
[2023-11-01 17:38:41.514] Message sent to the Astronode --> 
[2023-11-01 17:38:41.514] 0505000792A3
[2023-11-01 17:38:43.045] ERROR : Received answer timeout..
[2023-11-01 17:38:43.050] Message sent to the Astronode --> 
[2023-11-01 17:38:43.050] 10C1F3
[2023-11-01 17:38:43.065] Message received from the Astronode <-- 
[2023-11-01 17:38:43.065] 904962
[2023-11-01 17:38:43.065] Astronode configuration successfully saved in NVM.
[2023-11-01 17:38:43.081] Message sent to the Astronode --> 
[2023-11-01 17:38:43.081] 1BAA42
[2023-11-01 17:38:43.128] Message received from the Astronode <-- 
[2023-11-01 17:38:43.128] 9B41535435303134372D30310000000000D272
[2023-11-01 17:38:43.128] Module's product number is:
[2023-11-01 17:38:43.145] AST50147-01
[2023-11-01 17:38:43.145] Message sent to the Astronode --> 
[2023-11-01 17:38:43.145] 1A8B52
[2023-11-01 17:38:43.191] Message received from the Astronode <-- 
[2023-11-01 17:38:43.191] 9A414E5332323132464C303030303235310969
[2023-11-01 17:38:43.206] Module's Serial Number is:
[2023-11-01 17:38:43.206] ANS2212FL000025
[2023-11-01 17:38:43.206] Message sent to the Astronode --> 
[2023-11-01 17:38:43.206] 19E862
[2023-11-01 17:38:43.300] Message received from the Astronode <-- 
[2023-11-01 17:38:43.300] 9965376139653565612D353039662D343836342D393337332D6264323963386433383966338D64
[2023-11-01 17:38:43.316] Module GUID is:
[2023-11-01 17:38:43.316] e7a9e5ea-509f-4864-9373-bd29c8d389f
[2023-11-01 17:38:45.375] $PMTK011,MTKGPS*08
[2023-11-01 17:38:45.406] $PMTK010,001*2E
[2023-11-01 17:38:46.174] $PMTK011,MTKGPS*08
[2023-11-01 17:38:46.205] $PMTK010,002*2D
[2023-11-01 17:38:46.225] $GPRMC,235943.383,V,,,,,0.00,0.00,050180,,,N,V*39
[2023-11-01 17:38:46.268] $GPVTG,0.00,T,,M,0.00,N,0.00,K,N*32
[2023-11-01 17:38:46.315] $GPGGA,235943.383,,,,,0,0,,,M,,M,,*4A
[2023-11-01 17:38:46.346] $GPGSA,A,1,,,,,,,,,,,,,,,,1*03
[2023-11-01 17:38:46.378] $GPGSA,A,1,,,,,,,,,,,,,,,,2*00
[2023-11-01 17:38:46.409] $GPGSV,1,1,00,0*65
[2023-11-01 17:38:46.441] $GLGSV,1,1,00,1*78
[2023-11-01 17:38:46.464] $GPGLL,,,,,235943.383,V,N*78
[2023-11-01 17:38:46.488] $GPTXT,01,01,02,ANTSTATUS=OPEN*2B
[2023-11-01 17:38:47.218] $GPRMC,235944.383,V,,,,,0.00,0.00,050180,,,N,V*3E
[2023-11-01 17:38:47.267] $GPVTG,0.00,T,,M,0.00,N,0.00,K,N*32
[2023-11-01 17:38:47.296] $GPGGA,235944.383,,,,,0,0,,,M,,M,,*4D
[2023-11-01 17:38:47.359] $GPGSA,A,1,,,,,,,,,,,,,,,,1*03
[2023-11-01 17:38:47.375] $GPGSA,A,1,,,,,,,,,,,,,,,,2*00
[2023-11-01 17:38:47.406] $GPGSV,1,1,00,0*65
[2023-11-01 17:38:47.438] $GLGSV,1,1,00,1*78
[2023-11-01 17:38:47.453] $GPGLL,,,,,235944.383,V,N*7F
[2023-11-01 17:38:47.485] $GPTXT,01,01,02,ANTSTATUS=OPEN*2B
[2023-11-01 17:38:48.218] $GPRMC,235945.383,V,,,,,0.00,0.00,050180,,,N,V*3F
[2023-11-01 17:38:48.270] $GPVTG,0.00,T,,M,0.00,N,0.00,K,N*32
[2023-11-01 17:38:48.312] $GPGGA,235945.383,,,,,0,0,,,M,,M,,*4C
[2023-11-01 17:38:48.343] $GPGSA,A,1,,,,,,,,,,,,,,,,1*03
[2023-11-01 17:38:48.375] $GPGSA,A,1,,,,,,,,,,,,,,,,2*00
[2023-11-01 17:38:48.406] $GPGSV,1,1,00,0*65
[2023-11-01 17:38:48.437] $GLGSV,1,1,00,1*78
[2023-11-01 17:38:48.453] $GPGLL,,,,,235945.383,V,N*7E
[2023-11-01 17:38:48.485] $GPTXT,01,01,02,ANTSTATUS=OPEN*2B
[2023-11-01 17:38:49.220] $GPRMC,235946.383,V,,,,,0.00,0.00,050180,,,N,V*3C
[2023-11-01 17:38:49.267] $GPVTG,0.00,T,,M,0.00,N,0.00,K,N*32
[2023-11-01 17:38:49.298] $GPGGA,235946.383,,,,,0,0,,,M,,M,,*4F
[2023-11-01 17:38:49.345] $GPGSA,A,1,,,,,,,,,,,,,,,,1*03
[2023-11-01 17:38:49.377] $GPGSA,A,1,,,,,,,,,,,,,,,,2*00
[2023-11-01 17:38:49.408] $GPGSV,1,1,00,0*65
[2023-11-01 17:38:49.424] $GLGSV,1,1,00,1*78
[2023-11-01 17:38:49.455] $GPGLL,,,,,235946.383,V,N*7D
[2023-11-01 17:38:49.487] $GPTXT,01,01,02,ANTSTATUS=OPEN*2B
[2023-11-01 17:38:50.216] $GPRMC,235947.383,V,,,,,0.00,0.00,050180,,,N,V*3D
[2023-11-01 17:38:50.259] $GPVTG,0.00,T,,M,0.00,N,0.00,K,N*32
[2023-11-01 17:38:50.306] $GPGGA,235947.383,,,,,0,0,,,M,,M,,*4E
[2023-11-01 17:38:50.337] $GPGSA,A,1,,,,,,,,,,,,,,,,1*03
[2023-11-01 17:38:50.384] $GPGSA,A,1,,,,,,,,,,,,,,,,2*00
[2023-11-01 17:38:50.416] $GPGSV,1,1,00,0*65
[2023-11-01 17:38:50.431] $GLGSV,1,1,00,1*78
[2023-11-01 17:38:50.447] $GPGLL,,,,,235947.383,V,N*7C
[2023-11-01 17:38:50.479] $GPTXT,01,01,02,ANTSTATUS=OPEN*2B
[2023-11-01 17:38:51.217] $GPRMC,235948.383,V,,,,,0.00,0.00,050180,,,N,V*32
[2023-11-01 17:38:51.262] $GPVTG,0.00,T,,M,0.00,N,0.00,K,N*32
[2023-11-01 17:38:51.294] $GPGGA,235948.383,,,,,0,0,,,M,,M,,*41
[2023-11-01 17:38:51.341] $GPGSA,A,1,,,,,,,,,,,,,,,,1*03
[2023-11-01 17:38:51.379] $GPGSA,A,1,,,,,,,,,,,,,,,,2*00
[2023-11-01 17:38:51.404] $GPGSV,1,1,00,0*65
[2023-11-01 17:38:51.436] $GLGSV,1,1,00,1*78
[2023-11-01 17:38:51.451] $GPGLL,,,,,235948.383,V,N*73
[2023-11-01 17:38:51.482] $GPTXT,01,01,02,ANTSTATUS=OPEN*2B
[2023-11-01 17:38:52.219] $GPRMC,235949.383,V,,,,,0.00,0.00,050180,,,N,V*33
[2023-11-01 17:38:52.266] $GPVTG,0.00,T,,M,0.00,N,0.00,K,N*32
[2023-11-01 17:38:52.298] $GPGGA,235949.383,,,,,0,0,,,M,,M,,*40
[2023-11-01 17:38:52.345] $GPGSA,A,1,,,,,,,,,,,,,,,,1*03
[2023-11-01 17:38:52.376] $GPGSA,A,1,,,,,,,,,,,,,,,,2*00
[2023-11-01 17:38:52.408] $GPGSV,1,1,00,0*65
[2023-11-01 17:38:52.423] $GLGSV,1,1,00,1*78
[2023-11-01 17:38:52.454] $GPGLL,,,,,235949.383,V,N*72
[2023-11-01 17:38:52.490] $GPTXT,01,01,02,ANTSTATUS=OPEN*2B
[2023-11-01 17:38:53.220] $GPRMC,235950.382,V,,,,,0.00,0.00,050180,,,N,V*3A
[2023-11-01 17:38:53.268] $GPVTG,0.00,T,,M,0.00,N,0.00,K,N*32
[2023-11-01 17:38:53.299] $GPGGA,235950.382,,,,,0,0,,,M,,M,,*49
[2023-11-01 17:38:53.346] $GPGSA,A,1,,,,,,,,,,,,,,,,1*03
[2023-11-01 17:38:53.377] $GPGSA,A,1,,,,,,,,,,,,,,,,2*00
[2023-11-01 17:38:53.408] $GPGSV,1,1,00,0*65
[2023-11-01 17:38:53.424] $GLGSV,1,1,00,1*78
[2023-11-01 17:38:53.455] $GPGLL,,,,,235950.382,V,N*7B
[2023-11-01 17:38:53.487] $GPTXT,01,01,02,ANTSTATUS=OPEN*2B
[2023-11-01 17:38:54.217] $GPRMC,235951.382,V,,,,,0.00,0.00,050180,,,N,V*3B
[2023-11-01 17:38:54.279] $GPVTG,0.00,T,,M,0.00,N,0.00,K,N*32
[2023-11-01 17:38:54.302] $GPGGA,235951.382,,,,,0,0,,,M,,M,,*48
[2023-11-01 17:38:54.343] $GPGSA,A,1,,,,,,,,,,,,,,,,1*03
[2023-11-01 17:38:54.373] $GPGSA,A,1,,,,,,,,,,,,,,,,2*00
[2023-11-01 17:38:54.421] $GPGSV,1,1,01,19,,,28,0*66
[2023-11-01 17:38:54.436] $GLGSV,1,1,00,1*78
[2023-11-01 17:38:54.468] $GPGLL,,,,,235951.382,V,N*7A
[2023-11-01 17:38:54.499] $GPTXT,01,01,02,ANTSTATUS=OPEN*2B
[2023-11-01 17:38:55.216] $GPRMC,235952.382,V,,,,,0.00,0.00,050180,,,N,V*38
[2023-11-01 17:38:55.264] $GPVTG,0.00,T,,M,0.00,N,0.00,K,N*32
[2023-11-01 17:38:55.311] $GPGGA,235952.382,,,,,0,0,,,M,,M,,*4B
[2023-11-01 17:38:55.342] $GPGSA,A,1,,,,,,,,,,,,,,,,1*03
[2023-11-01 17:38:55.374] $GPGSA,A,1,,,,,,,,,,,,,,,,2*00
[2023-11-01 17:38:55.413] $GPGSV,1,1,01,19,,,29,0*67
[2023-11-01 17:38:55.437] $GLGSV,1,1,00,1*78
[2023-11-01 17:38:55.453] $GPGLL,,,,,235952.382,V,N*79
[2023-11-01 17:38:55.484] $GPTXT,01,01,02,ANTSTATUS=OPEN*2B
[2023-11-01 17:38:56.217] $GPRMC,235953.382,V,,,,,0.00,0.00,050180,,,N,V*39
[2023-11-01 17:38:56.272] $GPVTG,0.00,T,,M,0.00,N,0.00,K,N*32
[2023-11-01 17:38:56.302] $GPGGA,235953.382,,,,,0,0,,,M,,M,,*4A
[2023-11-01 17:38:56.349] $GPGSA,A,1,,,,,,,,,,,,,,,,1*03
[2023-11-01 17:38:56.380] $GPGSA,A,1,,,,,,,,,,,,,,,,2*00
[2023-11-01 17:38:56.411] $GPGSV,1,1,01,19,,,29,0*67
[2023-11-01 17:38:56.444] $GLGSV,1,1,00,1*78
[2023-11-01 17:38:56.459] $GPGLL,,,,,235953.382,V,N*78
[2023-11-01 17:38:56.490] $GPTXT,01,01,02,ANTSTATUS=OPEN*2B
[2023-11-01 17:38:57.217] $GPRMC,235954.382,V,,,,,0.00,0.00,050180,,,N,V*3E
[2023-11-01 17:38:57.264] $GPVTG,0.00,T,,M,0.00,N,0.00,K,N*32
[2023-11-01 17:38:57.295] $GPGGA,235954.382,,,,,0,0,,,M,,M,,*4D
[2023-11-01 17:38:57.342] $GPGSA,A,1,,,,,,,,,,,,,,,,1*03
[2023-11-01 17:38:57.389] $GPGSA,A,1,,,,,,,,,,,,,,,,2*00
[2023-11-01 17:38:57.405] $GPGSV,1,1,01,19,,,28,0*66
[2023-11-01 17:38:57.436] $GLGSV,1,1,00,1*78
[2023-11-01 17:38:57.455] $GPGLL,,,,,235954.382,V,N*7F
[2023-11-01 17:38:57.499] $GPTXT,01,01,02,ANTSTATUS=OPEN*2B
[2023-11-01 17:38:58.217] $GPRMC,235955.382,V,,,,,0.00,0.00,050180,,,N,V*3F
[2023-11-01 17:38:58.263] $GPVTG,0.00,T,,M,0.00,N,0.00,K,N*32
[2023-11-01 17:38:58.310] $GPGGA,235955.382,,,,,0,0,,,M,,M,,*4C
[2023-11-01 17:38:58.342] $GPGSA,A,1,,,,,,,,,,,,,,,,1*03
[2023-11-01 17:38:58.373] $GPGSA,A,1,,,,,,,,,,,,,,,,2*00
[2023-11-01 17:38:58.404] $GPGSV,1,1,02,19,,,29,12,,,29,0*6C
[2023-11-01 17:38:58.452] $GLGSV,1,1,00,1*78
[2023-11-01 17:38:58.467] $GPGLL,,,,,235955.382,V,N*7E
[2023-11-01 17:38:58.499] $GPTXT,01,01,02,ANTSTATUS=OPEN*2B
[2023-11-01 17:38:59.217] $GPRMC,235956.382,V,,,,,0.00,0.00,050180,,,N,V*3C
[2023-11-01 17:38:59.280] $GPVTG,0.00,T,,M,0.00,N,0.00,K,N*32
[2023-11-01 17:38:59.296] $GPGGA,235956.382,,,,,0,0,,,M,,M,,*4F
[2023-11-01 17:38:59.343] $GPGSA,A,1,,,,,,,,,,,,,,,,1*03
[2023-11-01 17:38:59.374] $GPGSA,A,1,,,,,,,,,,,,,,,,2*00
[2023-11-01 17:38:59.421] $GPGSV,1,1,02,19,,,28,12,,,30,0*65
[2023-11-01 17:38:59.453] $GLGSV,1,1,00,1*78
[2023-11-01 17:38:59.468] $GPGLL,,,,,235956.382,V,N*7D
[2023-11-01 17:38:59.499] $GPTXT,01,01,02,ANTSTATUS=OPEN*2B
[2023-11-01 17:39:00.217] $GPRMC,235957.382,V,,,,,0.00,0.00,050180,,,N,V*3D
[2023-11-01 17:39:00.257] $GPVTG,0.00,T,,M,0.00,N,0.00,K,N*32
[2023-11-01 17:39:00.304] $GPGGA,235957.382,,,,,0,0,,,M,,M,,*4E
[2023-11-01 17:39:00.352] $GPGSA,A,1,,,,,,,,,,,,,,,,1*03
[2023-11-01 17:39:00.384] $GPGSA,A,1,,,,,,,,,,,,,,,,2*00
[2023-11-01 17:39:00.415] $GPGSV,1,1,02,19,,,28,12,,,30,0*65
[2023-11-01 17:39:00.446] $GLGSV,1,1,00,1*78
[2023-11-01 17:39:00.462] $GPGLL,,,,,235957.382,V,N*7C
[2023-11-01 17:39:00.493] $GPTXT,01,01,02,ANTSTATUS=OPEN*2B
[2023-11-01 17:39:01.218] $GPRMC,235958.382,V,,,,,0.00,0.00,050180,,,N,V*32
[2023-11-01 17:39:01.265] $GPVTG,0.00,T,,M,0.00,N,0.00,K,N*32
[2023-11-01 17:39:01.296] $GPGGA,235958.382,,,,,0,0,,,M,,M,,*41
[2023-11-01 17:39:01.348] $GPGSA,A,1,,,,,,,,,,,,,,,,1*03
[2023-11-01 17:39:01.375] $GPGSA,A,1,,,,,,,,,,,,,,,,2*00
[2023-11-01 17:39:01.406] $GPGSV,1,1,02,19,,,28,12,,,30,0*65
[2023-11-01 17:39:01.453] $GLGSV,1,1,00,1*78
[2023-11-01 17:39:01.469] $GPGLL,,,,,235958.382,V,N*73
[2023-11-01 17:39:01.500] $GPTXT,01,01,02,ANTSTATUS=OPEN*2B
[2023-11-01 17:39:01.563] $GPRMC,235958.629,V,,,,,0.00,0.00,050180,,,N,V*36
[2023-11-01 17:39:01.610] $GPVTG,0.00,T,,M,0.00,N,0.00,K,N*32
[2023-11-01 17:39:01.657] $GPGGA,235958.629,,,,,0,0,,,M,,M,,*45
[2023-11-01 17:39:01.688] $GPGSA,A,1,,,,,,,,,,,,,,,,1*03
[2023-11-01 17:39:01.735] $GPGSA,A,1,,,,,,,,,,,,,,,,2*00
[2023-11-01 17:39:01.769] $GPGSV,1,1,02,19,,,28,12,,,30,0*65
[2023-11-01 17:39:01.799] $GLGSV,1,1,00,1*78
[2023-11-01 17:39:01.814] $GPGLL,,,,,235958.629,V,N*77
[2023-11-01 17:39:01.848] $GPTXT,01,01,02,ANTSTATUS=OPEN*2B
[2023-11-01 17:39:02.467] $GPRMC,235959.629,V,,,,,0.00,0.00,050180,,,N,V*37
[2023-11-01 17:39:02.514] $GPVTG,0.00,T,,M,0.00,N,0.00,K,N*32
[2023-11-01 17:39:02.555] $GPGGA,235959.629,,,,,0,0,,,M,,M,,*44
[2023-11-01 17:39:02.593] $GPGSA,A,1,,,,,,,,,,,,,,,,1*03
[2023-11-01 17:39:02.624] $GPGSA,A,1,,,,,,,,,,,,,,,,2*00
[2023-11-01 17:39:02.655] $GPGSV,1,1,02,19,,,28,12,,,30,0*65
[2023-11-01 17:39:02.702] $GLGSV,1,1,00,1*78
[2023-11-01 17:39:02.718] $GPGLL,,,,,235959.629,V,N*76
[2023-11-01 17:39:02.749] $GPTXT,01,01,02,ANTSTATUS=OPEN*2B
[2023-11-01 17:39:03.559] $GPRMC,173744.093,V,,,,,0.00,0.00,011123,,,N,V*3F
[2023-11-01 17:39:03.610] $GPVTG,0.00,T,,M,0.00,N,0.00,K,N*32
[2023-11-01 17:39:03.642] $GPGGA,173744.093,,,,,0,0,,,M,,M,,*40
[2023-11-01 17:39:03.688] $GPGSA,A,1,,,,,,,,,,,,,,,,1*03
[2023-11-01 17:39:03.720] $GPGSA,A,1,,,,,,,,,,,,,,,,2*00
[2023-11-01 17:39:03.759] $GPGSV,3,1,10,12,68,263,30,24,65,161,,19,41,058,28,25,28,262,,0*6D
[2023-11-01 17:39:03.830] $GPGSV,3,2,10,32,26,312,,06,24,100,,17,19,044,,11,10,133,,0*6F
[2023-11-01 17:39:03.893] $GPGSV,3,3,10,15,08,195,,22,05,075,,0*62
[2023-11-01 17:39:03.940] $GLGSV,1,1,00,1*78
[2023-11-01 17:39:03.959] $GPGLL,,,,,173744.093,V,N*72
[2023-11-01 17:39:03.988] $GPTXT,01,01,02,ANTSTATUS=OPEN*2B
[2023-11-01 17:39:04.496] $GPRMC,173745.093,V,,,,,0.12,0.00,011123,,,N,V*3D
[2023-11-01 17:39:04.540] $GPVTG,0.00,T,,M,0.12,N,0.23,K,N*30
[2023-11-01 17:39:04.587] $GPGGA,173745.093,,,,,0,0,,,M,,M,,*41
[2023-11-01 17:39:04.619] $GPGSA,A,1,,,,,,,,,,,,,,,,1*03
[2023-11-01 17:39:04.662] $GPGSA,A,1,,,,,,,,,,,,,,,,2*00
[2023-11-01 17:39:04.697] $GPGSV,3,1,10,12,68,263,30,24,65,161,,19,41,058,28,25,28,262,,0*6D
[2023-11-01 17:39:04.762] $GPGSV,3,2,10,32,26,312,,06,24,100,,17,19,044,,11,10,133,,0*6F
[2023-11-01 17:39:04.823] $GPGSV,3,3,10,15,08,195,,22,05,075,,0*62
[2023-11-01 17:39:04.870] $GLGSV,1,1,01,82,,,,1*73
[2023-11-01 17:39:04.901] $GPGLL,,,,,173745.093,V,N*73
[2023-11-01 17:39:04.932] $GPTXT,01,01,02,ANTSTATUS=OPEN*2B
[2023-11-01 17:39:05.491] $GPRMC,173746.093,V,,,,,0.12,0.00,011123,,,N,V*3E
[2023-11-01 17:39:05.537] $GPVTG,0.00,T,,M,0.12,N,0.23,K,N*30
[2023-11-01 17:39:05.585] $GPGGA,173746.093,,,,,0,0,,,M,,M,,*42
[2023-11-01 17:39:05.631] $GPGSA,A,1,,,,,,,,,,,,,,,,1*03
[2023-11-01 17:39:05.663] $GPGSA,A,1,,,,,,,,,,,,,,,,2*00
[2023-11-01 17:39:05.694] $GPGSV,3,1,10,12,68,263,30,24,65,161,,19,41,058,27,25,28,262,,0*62
[2023-11-01 17:39:05.766] $GPGSV,3,2,10,32,26,312,,06,24,100,,17,19,044,,11,10,133,,0*6F
[2023-11-01 17:39:05.820] $GPGSV,3,3,10,15,08,195,,22,05,075,,0*62
[2023-11-01 17:39:05.883] $GLGSV,1,1,01,82,,,,1*73
[2023-11-01 17:39:05.898] $GPGLL,,,,,173746.093,V,N*70
[2023-11-01 17:39:05.930] $GPTXT,01,01,02,ANTSTATUS=OPEN*2B
[2023-11-01 17:39:06.493] $GPRMC,173747.093,V,,,,,0.10,0.00,011123,,,N,V*3D
[2023-11-01 17:39:06.555] $GPVTG,0.00,T,,M,0.10,N,0.18,K,N*3A
[2023-11-01 17:39:06.587] $GPGGA,173747.093,,,,,0,0,,,M,,M,,*43
[2023-11-01 17:39:06.618] $GPGSA,A,1,,,,,,,,,,,,,,,,1*03
[2023-11-01 17:39:06.681] $GPGSA,A,1,,,,,,,,,,,,,,,,2*00
[2023-11-01 17:39:06.697] $GPGSV,3,1,10,12,68,263,30,24,65,161,24,19,41,058,26,25,28,262,,0*65
[2023-11-01 17:39:06.768] $GPGSV,3,2,10,32,26,312,,06,24,100,,17,19,044,,11,10,133,,0*6F
[2023-11-01 17:39:06.838] $GPGSV,3,3,10,15,08,195,,22,05,075,,0*62
[2023-11-01 17:39:06.869] $GLGSV,1,1,01,82,,,,1*73
[2023-11-01 17:39:06.901] $GPGLL,,,,,173747.093,V,N*71
[2023-11-01 17:39:06.932] $GPTXT,01,01,02,ANTSTATUS=OPEN*2B
[2023-11-01 17:39:07.513] $GPRMC,173748.093,V,,,,,0.75,180.88,011123,,,N,V*38
[2023-11-01 17:39:07.560] $GPVTG,180.88,T,,M,0.75,N,1.38,K,N*33
[2023-11-01 17:39:07.607] $GPGGA,173748.093,,,,,0,0,,,M,,M,,*4C
[2023-11-01 17:39:07.638] $GPGSA,A,1,,,,,,,,,,,,,,,,1*03
[2023-11-01 17:39:07.671] $GPGSA,A,1,,,,,,,,,,,,,,,,2*00
[2023-11-01 17:39:07.717] $GPGSV,3,1,10,12,68,263,30,24,65,161,25,19,41,058,25,25,28,262,,0*67
[2023-11-01 17:39:07.780] $GPGSV,3,2,10,32,26,312,,06,24,100,,17,19,044,23,11,10,133,,0*6E
[2023-11-01 17:39:07.843] $GPGSV,3,3,10,15,08,195,,22,05,075,,0*62
[2023-11-01 17:39:07.890] $GLGSV,1,1,01,82,,,,1*73
[2023-11-01 17:39:07.922] $GPGLL,,,,,173748.093,V,N*7E
[2023-11-01 17:39:07.953] $GPTXT,01,01,02,ANTSTATUS=OPEN*2B
[2023-11-01 17:39:08.486] $GPRMC,173749.093,V,,,,,0.82,167.44,011123,,,N,V*38
[2023-11-01 17:39:08.548] $GPVTG,167.44,T,,M,0.82,N,1.52,K,N*3E
[2023-11-01 17:39:08.580] $GPGGA,173749.093,,,,,0,0,,,M,,M,,*4D
[2023-11-01 17:39:08.627] $GPGSA,A,1,,,,,,,,,,,,,,,,1*03
[2023-11-01 17:39:08.674] $GPGSA,A,1,,,,,,,,,,,,,,,,2*00
[2023-11-01 17:39:08.689] $GPGSV,3,1,10,12,68,263,30,24,65,161,24,19,41,058,26,25,28,262,,0*65
[2023-11-01 17:39:08.774] $GPGSV,3,2,10,32,26,312,,06,24,100,,17,19,044,23,11,10,133,,0*6E
[2023-11-01 17:39:08.830] $GPGSV,3,3,10,15,08,195,19,22,05,075,,0*6A
[2023-11-01 17:39:08.878] $GLGSV,1,1,01,82,,,,1*73
[2023-11-01 17:39:08.909] $GPGLL,,,,,173749.093,V,N*7F
[2023-11-01 17:39:08.940] $GPTXT,01,01,02,ANTSTATUS=OPEN*2B
[2023-11-01 17:39:10.412] $GNRMC,173751.000,A,5216.6899,N,02048.5637,E,0.58,167.44,011123,,,A,V*06
[2023-11-01 17:39:10.490] $GPVTG,167.44,T,,M,0.58,N,1.07,K,A*36
[2023-11-01 17:39:10.537] $GPGGA,173751.000,5216.6899,N,02048.5637,E,1,5,2.08,92.7,M,39.0,M,,*64
[2023-11-01 17:39:10.600] $GNGSA,A,2,19,12,24,15,17,,,,,,,,2.24,2.08,0.84,1*0D
[2023-11-01 17:39:10.663] $GNGSA,A,2,,,,,,,,,,,,,2.24,2.08,0.84,2*01
[2023-11-01 17:39:10.710] $GPGSV,3,1,11,12,68,263,30,24,65,161,25,19,41,058,27,37,30,179,,0*67
[2023-11-01 17:39:10.780] $GPGSV,3,2,11,25,28,262,,32,26,312,,06,24,100,,17,19,044,17,0*63
[2023-11-01 17:39:10.851] $GPGSV,3,3,11,11,10,133,,15,08,195,18,22,05,075,,0*5A
[2023-11-01 17:39:10.898] $GLGSV,1,1,01,82,,,,1*73
[2023-11-01 17:39:10.929] $GNGLL,5216.6899,N,02048.5637,E,173751.000,A,A*46
[2023-11-01 17:39:10.992] $Hello TSAT_P_P_001
[2023-11-01 17:39:53.878] Message sent to the Astronode --> 
[2023-11-01 17:39:53.878] 0505000792A3
[2023-11-01 17:39:55.406] ERROR : Received answer timeout..
[2023-11-01 17:39:55.406] Message sent to the Astronode --> 
[2023-11-01 17:39:55.406] 10C1F3
[2023-11-01 17:39:55.423] Message received from the Astronode <-- 
[2023-11-01 17:39:55.437] 904962
[2023-11-01 17:39:55.437] Astronode configuration successfully saved in NVM.
[2023-11-01 17:39:55.453] Message sent to the Astronode --> 
[2023-11-01 17:39:55.453] 1BAA42
[2023-11-01 17:39:55.500] Message received from the Astronode <-- 
[2023-11-01 17:39:55.500] 9B41535435303134372D30310000000000D272
[2023-11-01 17:39:55.500] Module's product number is:
[2023-11-01 17:39:55.515] AST50147-01
[2023-11-01 17:39:55.515] Message sent to the Astronode --> 
[2023-11-01 17:39:55.515] 1A8B52
[2023-11-01 17:39:55.562] Message received from the Astronode <-- 
[2023-11-01 17:39:55.562] 9A414E5332323132464C303030303235310969
[2023-11-01 17:39:55.562] Module's Serial Number is:
[2023-11-01 17:39:55.562] ANS2212FL000025
[2023-11-01 17:39:55.578] Message sent to the Astronode --> 
[2023-11-01 17:39:55.578] 19E862
[2023-11-01 17:39:55.674] Message received from the Astronode <-- 
[2023-11-01 17:39:55.674] 9965376139653565612D353039662D343836342D393337332D6264323963386433383966338D64
[2023-11-01 17:39:55.688] Module GUID is:
[2023-11-01 17:39:55.688] e7a9e5ea-509f-4864-9373-bd29c8d389f
[2023-11-01 17:39:57.456] $PMTK011,MTKGPS*08
[2023-11-01 17:39:57.487] $PMTK010,001*2E
[2023-11-01 17:39:58.259] $PMTK011,MTKGPS*08
[2023-11-01 17:39:58.275] $PMTK010,002*2D
[2023-11-01 17:39:58.306] $GPRMC,235943.100,V,,,,,0.00,0.00,050180,,,N,V*30
[2023-11-01 17:39:58.353] $GPVTG,0.00,T,,M,0.00,N,0.00,K,N*32
[2023-11-01 17:39:58.400] $GPGGA,235943.100,,,,,0,0,,,M,,M,,*43
[2023-11-01 17:39:58.431] $GPGSA,A,1,,,,,,,,,,,,,,,,1*03
[2023-11-01 17:39:58.463] $GPGSA,A,1,,,,,,,,,,,,,,,,2*00
[2023-11-01 17:39:58.494] $GPGSV,1,1,00,0*65
[2023-11-01 17:39:58.525] $GLGSV,1,1,00,1*78
[2023-11-01 17:39:58.541] $GPGLL,,,,,235943.100,V,N*71
[2023-11-01 17:39:58.572] $GPTXT,01,01,02,ANTSTATUS=OPEN*2B
[2023-11-01 17:39:59.300] $GPRMC,235944.100,V,,,,,0.00,0.00,050180,,,N,V*37
[2023-11-01 17:39:59.347] $GPVTG,0.00,T,,M,0.00,N,0.00,K,N*32
[2023-11-01 17:39:59.378] $GPGGA,235944.100,,,,,0,0,,,M,,M,,*44
[2023-11-01 17:39:59.425] $GPGSA,A,1,,,,,,,,,,,,,,,,1*03
[2023-11-01 17:39:59.457] $GPGSA,A,1,,,,,,,,,,,,,,,,2*00
[2023-11-01 17:39:59.492] $GPGSV,1,1,00,0*65
[2023-11-01 17:39:59.520] $GLGSV,1,1,00,1*78
[2023-11-01 17:39:59.536] $GPGLL,,,,,235944.100,V,N*76
[2023-11-01 17:39:59.567] $GPTXT,01,01,02,ANTSTATUS=OPEN*2B
[2023-11-01 17:40:00.288] $GPRMC,235945.100,V,,,,,0.00,0.00,050180,,,N,V*36
[2023-11-01 17:40:00.351] $GPVTG,0.00,T,,M,0.00,N,0.00,K,N*32
[2023-11-01 17:40:00.382] $GPGGA,235945.100,,,,,0,0,,,M,,M,,*45
[2023-11-01 17:40:00.429] $GPGSA,A,1,,,,,,,,,,,,,,,,1*03
[2023-11-01 17:40:00.461] $GPGSA,A,1,,,,,,,,,,,,,,,,2*00
[2023-11-01 17:40:00.492] $GPGSV,1,1,00,0*65
[2023-11-01 17:40:00.508] $GLGSV,1,1,00,1*78
[2023-11-01 17:40:00.539] $GPGLL,,,,,235945.100,V,N*77
[2023-11-01 17:40:00.571] $GPTXT,01,01,02,ANTSTATUS=OPEN*2B
[2023-11-01 17:40:01.288] $GPRMC,235946.099,V,,,,,0.00,0.00,050180,,,N,V*34
[2023-11-01 17:40:01.351] $GPVTG,0.00,T,,M,0.00,N,0.00,K,N*32
[2023-11-01 17:40:01.382] $GPGGA,235946.099,,,,,0,0,,,M,,M,,*47
[2023-11-01 17:40:01.429] $GPGSA,A,1,,,,,,,,,,,,,,,,1*03
[2023-11-01 17:40:01.461] $GPGSA,A,1,,,,,,,,,,,,,,,,2*00
[2023-11-01 17:40:01.508] $GPGSV,1,1,00,0*65
[2023-11-01 17:40:01.523] $GLGSV,1,1,00,1*78
[2023-11-01 17:40:01.539] $GPGLL,,,,,235946.099,V,N*75
[2023-11-01 17:40:01.570] $GPTXT,01,01,02,ANTSTATUS=OPEN*2B
[2023-11-01 17:40:02.300] $GPRMC,235947.099,V,,,,,0.00,0.00,050180,,,N,V*35
[2023-11-01 17:40:02.350] $GPVTG,0.00,T,,M,0.00,N,0.00,K,N*32
[2023-11-01 17:40:02.393] $GPGGA,235947.099,,,,,0,0,,,M,,M,,*46
[2023-11-01 17:40:02.424] $GPGSA,A,1,,,,,,,,,,,,,,,,1*03
[2023-11-01 17:40:02.455] $GPGSA,A,1,,,,,,,,,,,,,,,,2*00
[2023-11-01 17:40:02.487] $GPGSV,1,1,00,0*65
[2023-11-01 17:40:02.518] $GLGSV,1,1,00,1*78
[2023-11-01 17:40:02.533] $GPGLL,,,,,235947.099,V,N*74
[2023-11-01 17:40:02.565] $GPTXT,01,01,02,ANTSTATUS=OPEN*2B
[2023-11-01 17:40:03.289] $GPRMC,235948.099,V,,,,,0.00,0.00,050180,,,N,V*3A
[2023-11-01 17:40:03.351] $GPVTG,0.00,T,,M,0.00,N,0.00,K,N*32
[2023-11-01 17:40:03.383] $GPGGA,235948.099,,,,,0,0,,,M,,M,,*49
[2023-11-01 17:40:03.430] $GPGSA,A,1,,,,,,,,,,,,,,,,1*03
[2023-11-01 17:40:03.461] $GPGSA,A,1,,,,,,,,,,,,,,,,2*00
[2023-11-01 17:40:03.493] $GPGSV,1,1,00,0*65
[2023-11-01 17:40:03.508] $GLGSV,1,1,00,1*78
[2023-11-01 17:40:03.540] $GPGLL,,,,,235948.099,V,N*7B
[2023-11-01 17:40:03.571] $GPTXT,01,01,02,ANTSTATUS=OPEN*2B
[2023-11-01 17:40:04.294] $GPRMC,235949.099,V,,,,,0.00,0.00,050180,,,N,V*3B
[2023-11-01 17:40:04.341] $GPVTG,0.00,T,,M,0.00,N,0.00,K,N*32
[2023-11-01 17:40:04.388] $GPGGA,235949.099,,,,,0,0,,,M,,M,,*48
[2023-11-01 17:40:04.419] $GPGSA,A,1,,,,,,,,,,,,,,,,1*03
[2023-11-01 17:40:04.466] $GPGSA,A,1,,,,,,,,,,,,,,,,2*00
[2023-11-01 17:40:04.498] $GPGSV,1,1,00,0*65
[2023-11-01 17:40:04.513] $GLGSV,1,1,00,1*78
[2023-11-01 17:40:04.529] $GPGLL,,,,,235949.099,V,N*7A
[2023-11-01 17:40:04.576] $GPTXT,01,01,02,ANTSTATUS=OPEN*2B
[2023-11-01 17:40:05.304] $GPRMC,235950.099,V,,,,,0.00,0.00,050180,,,N,V*33
[2023-11-01 17:40:05.347] $GPVTG,0.00,T,,M,0.00,N,0.00,K,N*32
[2023-11-01 17:40:05.379] $GPGGA,235950.099,,,,,0,0,,,M,,M,,*40
[2023-11-01 17:40:05.426] $GPGSA,A,1,,,,,,,,,,,,,,,,1*03
[2023-11-01 17:40:05.462] $GPGSA,A,1,,,,,,,,,,,,,,,,2*00
[2023-11-01 17:40:05.489] $GPGSV,1,1,00,0*65
[2023-11-01 17:40:05.520] $GLGSV,1,1,00,1*78
[2023-11-01 17:40:05.535] $GPGLL,,,,,235950.099,V,N*72
[2023-11-01 17:40:05.567] $GPTXT,01,01,02,ANTSTATUS=OPEN*2B
[2023-11-01 17:40:06.301] $GPRMC,235951.099,V,,,,,0.00,0.00,050180,,,N,V*32
[2023-11-01 17:40:06.347] $GPVTG,0.00,T,,M,0.00,N,0.00,K,N*32
[2023-11-01 17:40:06.394] $GPGGA,235951.099,,,,,0,0,,,M,,M,,*41
[2023-11-01 17:40:06.425] $GPGSA,A,1,,,,,,,,,,,,,,,,1*03
[2023-11-01 17:40:06.465] $GPGSA,A,1,,,,,,,,,,,,,,,,2*00
[2023-11-01 17:40:06.488] $GPGSV,1,1,00,0*65
[2023-11-01 17:40:06.520] $GLGSV,1,1,00,1*78
[2023-11-01 17:40:06.535] $GPGLL,,,,,235951.099,V,N*73
[2023-11-01 17:40:06.567] $GPTXT,01,01,02,ANTSTATUS=OPEN*2B
[2023-11-01 17:40:07.299] $GPRMC,235952.099,V,,,,,0.00,0.00,050180,,,N,V*31
[2023-11-01 17:40:07.346] $GPVTG,0.00,T,,M,0.00,N,0.00,K,N*32
[2023-11-01 17:40:07.378] $GPGGA,235952.099,,,,,0,0,,,M,,M,,*42
[2023-11-01 17:40:07.425] $GPGSA,A,1,,,,,,,,,,,,,,,,1*03
[2023-11-01 17:40:07.456] $GPGSA,A,1,,,,,,,,,,,,,,,,2*00
[2023-11-01 17:40:07.487] $GPGSV,1,1,00,0*65
[2023-11-01 17:40:07.519] $GLGSV,1,1,00,1*78
[2023-11-01 17:40:07.534] $GPGLL,,,,,235952.099,V,N*70
[2023-11-01 17:40:07.570] $GPTXT,01,01,02,ANTSTATUS=OPEN*2B
[2023-11-01 17:40:08.300] $GPRMC,235953.099,V,,,,,0.00,0.00,050180,,,N,V*30
[2023-11-01 17:40:08.347] $GPVTG,0.00,T,,M,0.00,N,0.00,K,N*32
[2023-11-01 17:40:08.379] $GPGGA,235953.099,,,,,0,0,,,M,,M,,*43
[2023-11-01 17:40:08.426] $GPGSA,A,1,,,,,,,,,,,,,,,,1*03
[2023-11-01 17:40:08.457] $GPGSA,A,1,,,,,,,,,,,,,,,,2*00
[2023-11-01 17:40:08.489] $GPGSV,1,1,00,0*65
[2023-11-01 17:40:08.520] $GLGSV,1,1,00,1*78
[2023-11-01 17:40:08.536] $GPGLL,,,,,235953.099,V,N*71
[2023-11-01 17:40:08.574] $GPTXT,01,01,02,ANTSTATUS=OPEN*2B
[2023-11-01 17:40:09.300] $GPRMC,235954.099,V,,,,,0.00,0.00,050180,,,N,V*37
[2023-11-01 17:40:09.347] $GPVTG,0.00,T,,M,0.00,N,0.00,K,N*32
[2023-11-01 17:40:09.387] $GPGGA,235954.099,,,,,0,0,,,M,,M,,*44
[2023-11-01 17:40:09.425] $GPGSA,A,1,,,,,,,,,,,,,,,,1*03
[2023-11-01 17:40:09.457] $GPGSA,A,1,,,,,,,,,,,,,,,,2*00
[2023-11-01 17:40:09.488] $GPGSV,1,1,00,0*65
[2023-11-01 17:40:09.519] $GLGSV,1,1,00,1*78
[2023-11-01 17:40:09.535] $GPGLL,,,,,235954.099,V,N*76
[2023-11-01 17:40:09.566] $GPTXT,01,01,02,ANTSTATUS=OPEN*2B
[2023-11-01 17:40:10.300] $GPRMC,235955.099,V,,,,,0.00,0.00,050180,,,N,V*36
[2023-11-01 17:40:10.347] $GPVTG,0.00,T,,M,0.00,N,0.00,K,N*32
[2023-11-01 17:40:10.394] $GPGGA,235955.099,,,,,0,0,,,M,,M,,*45
[2023-11-01 17:40:10.425] $GPGSA,A,1,,,,,,,,,,,,,,,,1*03
[2023-11-01 17:40:10.456] $GPGSA,A,1,,,,,,,,,,,,,,,,2*00
[2023-11-01 17:40:10.488] $GPGSV,1,1,01,12,,,27,0*62
[2023-11-01 17:40:10.519] $GLGSV,1,1,00,1*78
[2023-11-01 17:40:10.551] $GPGLL,,,,,235955.099,V,N*77
[2023-11-01 17:40:10.582] $GPTXT,01,01,02,ANTSTATUS=OPEN*2B
[2023-11-01 17:40:11.295] $GPRMC,235956.099,V,,,,,0.00,0.00,050180,,,N,V*35
[2023-11-01 17:40:11.343] $GPVTG,0.00,T,,M,0.00,N,0.00,K,N*32
[2023-11-01 17:40:11.389] $GPGGA,235956.099,,,,,0,0,,,M,,M,,*46
[2023-11-01 17:40:11.437] $GPGSA,A,1,,,,,,,,,,,,,,,,1*03
[2023-11-01 17:40:11.468] $GPGSA,A,1,,,,,,,,,,,,,,,,2*00
[2023-11-01 17:40:11.499] $GPGSV,1,1,01,12,,,28,0*6D
[2023-11-01 17:40:11.531] $GLGSV,1,1,00,1*78
[2023-11-01 17:40:11.547] $GPGLL,,,,,235956.099,V,N*74
[2023-11-01 17:40:11.578] $GPTXT,01,01,02,ANTSTATUS=OPEN*2B
[2023-11-01 17:40:12.291] $GPRMC,235957.099,V,,,,,0.00,0.00,050180,,,N,V*34
[2023-11-01 17:40:12.354] $GPVTG,0.00,T,,M,0.00,N,0.00,K,N*32
[2023-11-01 17:40:12.385] $GPGGA,235957.099,,,,,0,0,,,M,,M,,*47
[2023-11-01 17:40:12.433] $GPGSA,A,1,,,,,,,,,,,,,,,,1*03
[2023-11-01 17:40:12.464] $GPGSA,A,1,,,,,,,,,,,,,,,,2*00
[2023-11-01 17:40:12.495] $GPGSV,1,1,01,12,,,28,0*6D
[2023-11-01 17:40:12.527] $GLGSV,1,1,00,1*78
[2023-11-01 17:40:12.558] $GPGLL,,,,,235957.099,V,N*75
[2023-11-01 17:40:12.574] $GPTXT,01,01,02,ANTSTATUS=OPEN*2B
[2023-11-01 17:40:13.300] $GPRMC,235958.100,V,,,,,0.00,0.00,050180,,,N,V*3A
[2023-11-01 17:40:13.348] $GPVTG,0.00,T,,M,0.00,N,0.00,K,N*32
[2023-11-01 17:40:13.394] $GPGGA,235958.100,,,,,0,0,,,M,,M,,*49
[2023-11-01 17:40:13.431] $GPGSA,A,1,,,,,,,,,,,,,,,,1*03
[2023-11-01 17:40:13.457] $GPGSA,A,1,,,,,,,,,,,,,,,,2*00
[2023-11-01 17:40:13.489] $GPGSV,1,1,01,12,,,29,0*6C
[2023-11-01 17:40:13.520] $GLGSV,1,1,00,1*78
[2023-11-01 17:40:13.536] $GPGLL,,,,,235958.100,V,N*7B
[2023-11-01 17:40:13.567] $GPTXT,01,01,02,ANTSTATUS=OPEN*2B
[2023-11-01 17:40:14.300] $GPRMC,235959.100,V,,,,,0.00,0.00,050180,,,N,V*3B
[2023-11-01 17:40:14.342] $GPVTG,0.00,T,,M,0.00,N,0.00,K,N*32
[2023-11-01 17:40:14.389] $GPGGA,235959.100,,,,,0,0,,,M,,M,,*48
[2023-11-01 17:40:14.421] $GPGSA,A,1,,,,,,,,,,,,,,,,1*03
[2023-11-01 17:40:14.467] $GPGSA,A,1,,,,,,,,,,,,,,,,2*00
[2023-11-01 17:40:14.499] $GPGSV,1,1,01,12,,,28,0*6D
[2023-11-01 17:40:14.530] $GLGSV,1,1,00,1*78
[2023-11-01 17:40:14.546] $GPGLL,,,,,235959.100,V,N*7A
[2023-11-01 17:40:14.577] $GPTXT,01,01,02,ANTSTATUS=OPEN*2B
[2023-11-01 17:40:15.295] $GPRMC,000000.100,V,,,,,0.00,0.00,060180,,,N,V*39
[2023-11-01 17:40:15.356] $GPVTG,0.00,T,,M,0.00,N,0.00,K,N*32
[2023-11-01 17:40:15.389] $GPGGA,000000.100,,,,,0,0,,,M,,M,,*49
[2023-11-01 17:40:15.436] $GPGSA,A,1,,,,,,,,,,,,,,,,1*03
[2023-11-01 17:40:15.467] $GPGSA,A,1,,,,,,,,,,,,,,,,2*00
[2023-11-01 17:40:15.499] $GPGSV,1,1,01,12,,,28,0*6D
[2023-11-01 17:40:15.530] $GLGSV,1,1,00,1*78
[2023-11-01 17:40:15.546] $GPGLL,,,,,000000.100,V,N*7B
[2023-11-01 17:40:15.577] $GPTXT,01,01,02,ANTSTATUS=OPEN*2B
[2023-11-01 17:40:16.287] $GPRMC,000001.100,V,,,,,0.00,0.00,060180,,,N,V*38
[2023-11-01 17:40:16.349] $GPVTG,0.00,T,,M,0.00,N,0.00,K,N*32
[2023-11-01 17:40:16.381] $GPGGA,000001.100,,,,,0,0,,,M,,M,,*48
[2023-11-01 17:40:16.428] $GPGSA,A,1,,,,,,,,,,,,,,,,1*03
[2023-11-01 17:40:16.459] $GPGSA,A,1,,,,,,,,,,,,,,,,2*00
[2023-11-01 17:40:16.490] $GPGSV,1,1,01,12,,,28,0*6D
[2023-11-01 17:40:16.521] $GLGSV,1,1,00,1*78
[2023-11-01 17:40:16.537] $GPGLL,,,,,000001.100,V,N*7A
[2023-11-01 17:40:16.569] $GPTXT,01,01,02,ANTSTATUS=OPEN*2B
[2023-11-01 17:40:17.303] $GPRMC,000002.100,V,,,,,0.00,0.00,060180,,,N,V*3B
[2023-11-01 17:40:17.350] $GPVTG,0.00,T,,M,0.00,N,0.00,K,N*32
[2023-11-01 17:40:17.382] $GPGGA,000002.100,,,,,0,0,,,M,,M,,*4B
[2023-11-01 17:40:17.429] $GPGSA,A,1,,,,,,,,,,,,,,,,1*03
[2023-11-01 17:40:17.467] $GPGSA,A,1,,,,,,,,,,,,,,,,2*00
[2023-11-01 17:40:17.492] $GPGSV,1,1,01,12,,,29,0*6C
[2023-11-01 17:40:17.523] $GLGSV,1,1,00,1*78
[2023-11-01 17:40:17.539] $GPGLL,,,,,000002.100,V,N*79
[2023-11-01 17:40:17.570] $GPTXT,01,01,02,ANTSTATUS=OPEN*2B
[2023-11-01 17:40:18.301] $GPRMC,000003.100,V,,,,,0.00,0.00,060180,,,N,V*3A
[2023-11-01 17:40:18.347] $GPVTG,0.00,T,,M,0.00,N,0.00,K,N*32
[2023-11-01 17:40:18.394] $GPGGA,000003.100,,,,,0,0,,,M,,M,,*4A
[2023-11-01 17:40:18.425] $GPGSA,A,1,,,,,,,,,,,,,,,,1*03
[2023-11-01 17:40:18.457] $GPGSA,A,1,,,,,,,,,,,,,,,,2*00
[2023-11-01 17:40:18.489] $GPGSV,1,1,01,12,,,29,0*6C
[2023-11-01 17:40:18.520] $GLGSV,1,1,00,1*78
[2023-11-01 17:40:18.551] $GPGLL,,,,,000003.100,V,N*78
[2023-11-01 17:40:18.570] $GPTXT,01,01,02,ANTSTATUS=OPEN*2B
[2023-11-01 17:40:19.296] $GPRMC,000004.100,V,,,,,0.00,0.00,060180,,,N,V*3D
[2023-11-01 17:40:19.343] $GPVTG,0.00,T,,M,0.00,N,0.00,K,N*32
[2023-11-01 17:40:19.391] $GPGGA,000004.100,,,,,0,0,,,M,,M,,*4D
[2023-11-01 17:40:19.437] $GPGSA,A,1,,,,,,,,,,,,,,,,1*03
[2023-11-01 17:40:19.453] $GPGSA,A,1,,,,,,,,,,,,,,,,2*00
[2023-11-01 17:40:19.501] $GPGSV,1,1,01,12,,,29,0*6C
[2023-11-01 17:40:19.516] $GLGSV,1,1,00,1*78
[2023-11-01 17:40:19.547] $GPGLL,,,,,000004.100,V,N*7F
[2023-11-01 17:40:19.579] $GPTXT,01,01,02,ANTSTATUS=OPEN*2B
[2023-11-01 17:40:19.625] $GPRMC,000004.304,V,,,,,0.00,0.00,060180,,,N,V*3B
[2023-11-01 17:40:19.688] $GPVTG,0.00,T,,M,0.00,N,0.00,K,N*32
[2023-11-01 17:40:19.720] $GPGGA,000004.304,,,,,0,0,,,M,,M,,*4B
[2023-11-01 17:40:19.766] $GPGSA,A,1,,,,,,,,,,,,,,,,1*03
[2023-11-01 17:40:19.798] $GPGSA,A,1,,,,,,,,,,,,,,,,2*00
[2023-11-01 17:40:19.829] $GPGSV,1,1,01,12,,,29,0*6C
[2023-11-01 17:40:19.861] $GLGSV,1,1,00,1*78
[2023-11-01 17:40:19.879] $GPGLL,,,,,000004.304,V,N*79
[2023-11-01 17:40:19.908] $GPTXT,01,01,02,ANTSTATUS=OPEN*2B
[2023-11-01 17:40:20.506] $GPRMC,000005.304,V,,,,,0.00,0.00,060180,,,N,V*3A
[2023-11-01 17:40:20.553] $GPVTG,0.00,T,,M,0.00,N,0.00,K,N*32
[2023-11-01 17:40:20.600] $GPGGA,000005.304,,,,,0,0,,,M,,M,,*4A
[2023-11-01 17:40:20.631] $GPGSA,A,1,,,,,,,,,,,,,,,,1*03
[2023-11-01 17:40:20.662] $GPGSA,A,1,,,,,,,,,,,,,,,,2*00
[2023-11-01 17:40:20.694] $GPGSV,1,1,01,12,,,29,0*6C
[2023-11-01 17:40:20.725] $GLGSV,1,1,00,1*78
[2023-11-01 17:40:20.757] $GPGLL,,,,,000005.304,V,N*78
[2023-11-01 17:40:20.787] $GPTXT,01,01,02,ANTSTATUS=OPEN*2B
[2023-11-01 17:40:21.601] $GPRMC,173902.134,V,,,,,0.00,0.00,011123,,,N,V*3F
[2023-11-01 17:40:21.665] $GPVTG,0.00,T,,M,0.00,N,0.00,K,N*32
[2023-11-01 17:40:21.700] $GPGGA,173902.134,,,,,0,0,,,M,,M,,*40
[2023-11-01 17:40:21.727] $GPGSA,A,1,,,,,,,,,,,,,,,,1*03
[2023-11-01 17:40:21.774] $GPGSA,A,1,,,,,,,,,,,,,,,,2*00
[2023-11-01 17:40:21.806] $GPGSV,3,1,10,12,69,264,28,24,64,161,,19,41,057,,25,28,263,,0*67
[2023-11-01 17:40:21.868] $GPGSV,3,2,10,32,26,312,,06,25,100,,17,18,044,,11,10,133,,0*6F
[2023-11-01 17:40:21.931] $GPGSV,3,3,10,15,07,195,,22,04,076,,0*6F
[2023-11-01 17:40:21.978] $GLGSV,1,1,00,1*78
[2023-11-01 17:40:22.001] $GPGLL,,,,,173902.134,V,N*72
[2023-11-01 17:40:22.025] $GPTXT,01,01,02,ANTSTATUS=OPEN*2B
[2023-11-01 17:40:22.538] $GPRMC,173903.134,V,,,,,0.07,0.00,011123,,,N,V*39
[2023-11-01 17:40:22.585] $GPVTG,0.00,T,,M,0.07,N,0.13,K,N*37
[2023-11-01 17:40:22.632] $GPGGA,173903.134,,,,,0,0,,,M,,M,,*41
[2023-11-01 17:40:22.663] $GPGSA,A,1,,,,,,,,,,,,,,,,1*03
[2023-11-01 17:40:22.705] $GPGSA,A,1,,,,,,,,,,,,,,,,2*00
[2023-11-01 17:40:22.726] $GPGSV,3,1,10,12,69,264,28,24,64,161,,19,41,057,29,25,28,263,,0*6C
[2023-11-01 17:40:22.805] $GPGSV,3,2,10,32,26,312,,06,25,100,,17,18,044,,11,10,133,,0*6F
[2023-11-01 17:40:22.867] $GPGSV,3,3,10,15,07,195,,22,04,076,,0*6F
[2023-11-01 17:40:22.915] $GLGSV,1,1,00,1*78
[2023-11-01 17:40:22.930] $GPGLL,,,,,173903.134,V,N*73
[2023-11-01 17:40:22.961] $GPTXT,01,01,02,ANTSTATUS=OPEN*2B
[2023-11-01 17:40:23.537] $GPRMC,173904.134,V,,,,,0.02,0.00,011123,,,N,V*3B
[2023-11-01 17:40:23.584] $GPVTG,0.00,T,,M,0.02,N,0.03,K,N*33
[2023-11-01 17:40:23.622] $GPGGA,173904.134,,,,,0,0,,,M,,M,,*46
[2023-11-01 17:40:23.663] $GPGSA,A,1,,,,,,,,,,,,,,,,1*03
[2023-11-01 17:40:23.694] $GPGSA,A,1,,,,,,,,,,,,,,,,2*00
[2023-11-01 17:40:23.725] $GPGSV,3,1,10,12,69,264,28,24,64,161,,19,41,057,30,25,28,263,,0*64
[2023-11-01 17:40:23.804] $GPGSV,3,2,10,32,26,312,,06,25,100,,17,18,044,,11,10,133,,0*6F
[2023-11-01 17:40:23.867] $GPGSV,3,3,10,15,07,195,,22,04,076,,0*6F
[2023-11-01 17:40:23.913] $GLGSV,1,1,00,1*78
[2023-11-01 17:40:23.929] $GPGLL,,,,,173904.134,V,N*74
[2023-11-01 17:40:23.961] $GPTXT,01,01,02,ANTSTATUS=OPEN*2B
[2023-11-01 17:40:24.535] $GPRMC,173905.134,V,,,,,0.18,0.00,011123,,,N,V*31
[2023-11-01 17:40:24.582] $GPVTG,0.00,T,,M,0.18,N,0.34,K,N*3C
[2023-11-01 17:40:24.629] $GPGGA,173905.134,,,,,0,0,,,M,,M,,*47
[2023-11-01 17:40:24.660] $GPGSA,A,1,,,,,,,,,,,,,,,,1*03
[2023-11-01 17:40:24.707] $GPGSA,A,1,,,,,,,,,,,,,,,,2*00
[2023-11-01 17:40:24.740] $GPGSV,3,1,10,12,69,264,28,24,64,161,,19,41,057,29,25,28,263,,0*6C
[2023-11-01 17:40:24.801] $GPGSV,3,2,10,32,26,312,,06,25,100,,17,18,044,,11,10,133,,0*6F
[2023-11-01 17:40:24.864] $GPGSV,3,3,10,15,07,195,,22,04,076,,0*6F
[2023-11-01 17:40:24.911] $GLGSV,1,1,00,1*78
[2023-11-01 17:40:24.927] $GPGLL,,,,,173905.134,V,N*75
[2023-11-01 17:40:24.958] $GPTXT,01,01,02,ANTSTATUS=OPEN*2B
[2023-11-01 17:40:25.534] $GPRMC,173906.134,V,,,,,0.08,0.00,011123,,,N,V*33
[2023-11-01 17:40:25.591] $GPVTG,0.00,T,,M,0.08,N,0.14,K,N*3F
[2023-11-01 17:40:25.639] $GPGGA,173906.134,,,,,0,0,,,M,,M,,*44
[2023-11-01 17:40:25.670] $GPGSA,A,1,,,,,,,,,,,,,,,,1*03
[2023-11-01 17:40:25.701] $GPGSA,A,1,,,,,,,,,,,,,,,,2*00
[2023-11-01 17:40:25.734] $GPGSV,3,1,10,12,69,264,28,24,64,161,,19,41,057,29,25,28,263,,0*6C
[2023-11-01 17:40:25.811] $GPGSV,3,2,10,32,26,312,21,06,25,100,,17,18,044,,11,10,133,,0*6C
[2023-11-01 17:40:25.874] $GPGSV,3,3,10,15,07,195,,22,04,076,,0*6F
[2023-11-01 17:40:25.921] $GLGSV,1,1,00,1*78
[2023-11-01 17:40:25.937] $GPGLL,,,,,173906.134,V,N*76
[2023-11-01 17:40:25.968] $GPTXT,01,01,02,ANTSTATUS=OPEN*2B
[2023-11-01 17:40:26.547] $GPRMC,173907.134,V,,,,,5.33,147.74,011123,,,N,V*3E
[2023-11-01 17:40:26.594] $GPVTG,147.74,T,,M,5.33,N,9.89,K,N*3E
[2023-11-01 17:40:26.641] $GPGGA,173907.134,,,,,0,0,,,M,,M,,*45
[2023-11-01 17:40:26.672] $GPGSA,A,1,,,,,,,,,,,,,,,,1*03
[2023-11-01 17:40:26.719] $GPGSA,A,1,,,,,,,,,,,,,,,,2*00
[2023-11-01 17:40:26.751] $GPGSV,3,1,10,12,69,264,28,24,64,161,17,19,41,057,29,25,28,263,,0*6A
[2023-11-01 17:40:26.829] $GPGSV,3,2,10,32,26,312,20,06,25,100,,17,18,044,17,11,10,133,,0*6B
[2023-11-01 17:40:26.892] $GPGSV,3,3,10,15,07,195,,22,04,076,,0*6F
[2023-11-01 17:40:26.939] $GLGSV,1,1,00,1*78
[2023-11-01 17:40:26.955] $GPGLL,,,,,173907.134,V,N*77
[2023-11-01 17:40:26.986] $GPTXT,01,01,02,ANTSTATUS=OPEN*2B
[2023-11-01 17:40:27.540] $GPRMC,173908.134,V,,,,,0.05,147.74,011123,,,N,V*31
[2023-11-01 17:40:27.584] $GPVTG,147.74,T,,M,0.05,N,0.09,K,N*3F
[2023-11-01 17:40:27.631] $GPGGA,173908.134,,,,,0,0,,,M,,M,,*4A
[2023-11-01 17:40:27.663] $GPGSA,A,1,,,,,,,,,,,,,,,,1*03
[2023-11-01 17:40:27.710] $GPGSA,A,1,,,,,,,,,,,,,,,,2*00
[2023-11-01 17:40:27.742] $GPGSV,3,1,10,12,69,264,28,24,64,161,18,19,41,057,30,25,28,263,,0*6D
[2023-11-01 17:40:27.804] $GPGSV,3,2,10,32,26,312,22,06,25,100,,17,18,044,17,11,10,133,,0*69
[2023-11-01 17:40:27.883] $GPGSV,3,3,10,15,07,195,,22,04,076,,0*6F
[2023-11-01 17:40:27.930] $GLGSV,1,1,00,1*78
[2023-11-01 17:40:27.946] $GPGLL,,,,,173908.134,V,N*78
[2023-11-01 17:40:27.977] $GPTXT,01,01,02,ANTSTATUS=OPEN*2B
[2023-11-01 17:40:28.538] $GPRMC,173909.134,V,,,,,0.13,147.74,011123,,,N,V*37
[2023-11-01 17:40:28.585] $GPVTG,147.74,T,,M,0.13,N,0.25,K,N*36
[2023-11-01 17:40:28.632] $GPGGA,173909.134,,,,,0,0,,,M,,M,,*4B
[2023-11-01 17:40:28.664] $GPGSA,A,1,,,,,,,,,,,,,,,,1*03
[2023-11-01 17:40:28.711] $GPGSA,A,1,,,,,,,,,,,,,,,,2*00
[2023-11-01 17:40:28.742] $GPGSV,3,1,10,12,69,264,28,24,64,161,20,19,41,057,30,25,28,263,,0*66
[2023-11-01 17:40:28.805] $GPGSV,3,2,10,32,26,312,21,06,25,100,,17,18,044,18,11,10,133,,0*65
[2023-11-01 17:40:28.883] $GPGSV,3,3,10,15,07,195,,22,04,076,,0*6F
[2023-11-01 17:40:28.930] $GLGSV,1,1,00,1*78
[2023-11-01 17:40:28.946] $GPGLL,,,,,173909.134,V,N*79
[2023-11-01 17:40:28.977] $GPTXT,01,01,02,ANTSTATUS=OPEN*2B
[2023-11-01 17:40:29.540] $GPRMC,173910.134,V,,,,,0.03,147.74,011123,,,N,V*3E
[2023-11-01 17:40:29.604] $GPVTG,147.74,T,,M,0.03,N,0.05,K,N*35
[2023-11-01 17:40:29.639] $GPGGA,173910.134,,,,,0,0,,,M,,M,,*43
[2023-11-01 17:40:29.667] $GPGSA,A,1,,,,,,,,,,,,,,,,1*03
[2023-11-01 17:40:29.714] $GPGSA,A,1,,,,,,,,,,,,,,,,2*00
[2023-11-01 17:40:29.745] $GPGSV,3,1,10,12,69,264,28,24,64,161,20,19,41,057,30,25,28,263,,0*66
[2023-11-01 17:40:29.808] $GPGSV,3,2,10,32,26,312,21,06,25,100,20,17,18,044,18,11,10,133,,0*67
[2023-11-01 17:40:29.886] $GPGSV,3,3,10,15,07,195,,22,04,076,,0*6F
[2023-11-01 17:40:29.933] $GLGSV,1,1,01,82,,,,1*73
[2023-11-01 17:40:29.958] $GPGLL,,,,,173910.134,V,N*71
[2023-11-01 17:40:29.981] $GPTXT,01,01,02,ANTSTATUS=OPEN*2B
[2023-11-01 17:40:30.544] $GPRMC,173911.134,V,,,,,0.07,147.74,011123,,,N,V*3B
[2023-11-01 17:40:30.591] $GPVTG,147.74,T,,M,0.07,N,0.13,K,N*36
[2023-11-01 17:40:30.638] $GPGGA,173911.134,,,,,0,0,,,M,,M,,*42
[2023-11-01 17:40:30.670] $GPGSA,A,1,,,,,,,,,,,,,,,,1*03
[2023-11-01 17:40:30.717] $GPGSA,A,1,,,,,,,,,,,,,,,,2*00
[2023-11-01 17:40:30.748] $GPGSV,3,1,10,12,69,264,28,24,64,161,20,19,41,057,30,25,28,263,,0*66
[2023-11-01 17:40:30.811] $GPGSV,3,2,10,32,26,312,21,06,25,100,20,17,18,044,18,11,10,133,,0*67
[2023-11-01 17:40:30.889] $GPGSV,3,3,10,15,07,195,16,22,04,076,,0*68
[2023-11-01 17:40:30.936] $GLGSV,1,1,01,82,,,,1*73
[2023-11-01 17:40:30.961] $GPGLL,,,,,173911.134,V,N*70
[2023-11-01 17:40:30.999] $GPTXT,01,01,02,ANTSTATUS=OPEN*2B
[2023-11-01 17:40:31.544] $GPRMC,173912.134,V,,,,,0.10,147.74,011123,,,N,V*3E
[2023-11-01 17:40:31.591] $GPVTG,147.74,T,,M,0.10,N,0.18,K,N*3B
[2023-11-01 17:40:31.638] $GPGGA,173912.134,,,,,0,0,,,M,,M,,*41
[2023-11-01 17:40:31.669] $GPGSA,A,1,,,,,,,,,,,,,,,,1*03
[2023-11-01 17:40:31.701] $GPGSA,A,1,,,,,,,,,,,,,,,,2*00
[2023-11-01 17:40:31.749] $GPGSV,3,1,10,12,69,264,29,24,64,161,21,19,41,057,30,25,28,263,,0*66
[2023-11-01 17:40:31.811] $GPGSV,3,2,10,32,26,312,21,06,25,100,19,17,18,044,18,11,10,133,,0*6D
[2023-11-01 17:40:31.890] $GPGSV,3,3,10,15,07,195,17,22,04,076,,0*69
[2023-11-01 17:40:31.937] $GLGSV,1,1,01,82,,,,1*73
[2023-11-01 17:40:31.953] $GPGLL,,,,,173912.134,V,N*73
[2023-11-01 17:40:31.984] $GPTXT,01,01,02,ANTSTATUS=OPEN*2B
[2023-11-01 17:40:32.547] $GPRMC,173913.134,V,,,,,0.13,147.74,011123,,,N,V*3C
[2023-11-01 17:40:32.594] $GPVTG,147.74,T,,M,0.13,N,0.24,K,N*37
[2023-11-01 17:40:32.641] $GPGGA,173913.134,,,,,0,0,,,M,,M,,*40
[2023-11-01 17:40:32.683] $GPGSA,A,1,,,,,,,,,,,,,,,,1*03
[2023-11-01 17:40:32.704] $GPGSA,A,1,,,,,,,,,,,,,,,,2*00
[2023-11-01 17:40:32.751] $GPGSV,3,1,10,12,69,264,29,24,64,161,21,19,41,057,30,25,28,263,,0*66
[2023-11-01 17:40:32.814] $GPGSV,3,2,10,32,26,312,21,06,25,100,19,17,18,044,18,11,10,133,,0*6D
[2023-11-01 17:40:32.893] $GPGSV,3,3,10,15,07,195,15,22,04,076,,0*6B
[2023-11-01 17:40:32.939] $GLGSV,1,1,01,82,,,,1*73
[2023-11-01 17:40:32.955] $GPGLL,,,,,173913.134,V,N*72
[2023-11-01 17:40:33.002] $GPTXT,01,01,02,ANTSTATUS=OPEN*2B
[2023-11-01 17:40:34.421] $GNRMC,173915.000,A,5216.6884,N,02048.5651,E,0.30,147.74,011123,,,A,V*0B
[2023-11-01 17:40:34.494] $GPVTG,147.74,T,,M,0.30,N,0.56,K,A*3C
[2023-11-01 17:40:34.541] $GPGGA,173915.000,5216.6884,N,02048.5651,E,1,5,2.08,130.1,M,39.0,M,,*59
[2023-11-01 17:40:34.621] $GNGSA,A,3,12,17,24,15,19,,,,,,,,2.25,2.08,0.84,1*0D
[2023-11-01 17:40:34.667] $GNGSA,A,3,,,,,,,,,,,,,2.25,2.08,0.84,2*01
[2023-11-01 17:40:34.721] $GPGSV,3,1,11,12,69,264,29,24,64,161,22,19,41,057,30,37,30,179,,0*66
[2023-11-01 17:40:34.792] $GPGSV,3,2,11,25,28,263,,32,26,312,21,06,25,100,21,17,18,044,18,0*6D
[2023-11-01 17:40:34.855] $GPGSV,3,3,11,11,10,133,,15,07,195,15,22,04,076,,0*5A
[2023-11-01 17:40:34.922] $GLGSV,1,1,01,82,,,,1*73
[2023-11-01 17:40:34.949] $GNGLL,5216.6884,N,02048.5651,E,173915.000,A,A*44
[2023-11-01 17:40:35.001] 2086.01.06 00:00:19
[2023-11-01 17:40:35.001] 2.2,52.278140,20.809418,39,0
[2023-11-01 17:40:35.012] Message sent to the Astronode --> 
[2023-11-01 17:40:35.012] 250100322E322C35322E3237383134302C32302E3830393431382C33392C30BFB7
[2023-11-01 17:40:35.107] Message received from the Astronode <-- 
[2023-11-01 17:40:35.107] FF11257A47
[2023-11-01 17:40:35.107] [ERROR] DUPLICATE_ID : Failed to queue the payload because the Payload ID provided by the asset is already in use in the Astronode queue.
[2023-11-01 17:40:35.122] Payload failed to be queued.
[2023-11-01 17:55:31.753] Message sent to the Astronode --> 
[2023-11-01 17:55:31.753] 18C972
[2023-11-01 17:55:31.769] Message received from the Astronode <-- 
[2023-11-01 17:55:31.769] 9813140000732A
[2023-11-01 17:55:31.769] Next opportunity for communication with the Astrocast Network: 5139s.
[2023-11-01 17:55:31.785] Message sent to the Astronode --> 
[2023-11-01 17:55:31.785] 250100322E322C35322E3237383134302C32302E3830393431382C33392C30BFB7
[2023-11-01 17:55:31.863] Message received from the Astronode <-- 
[2023-11-01 17:55:31.879] FF11257A47
[2023-11-01 17:55:31.879] [ERROR] DUPLICATE_ID : Failed to queue the payload because the Payload ID provided by the asset is already in use in the Astronode queue.
[2023-11-01 17:55:31.895] Payload failed to be queued.
[2023-11-01 18:10:28.403] Message sent to the Astronode --> 
[2023-11-01 18:10:28.403] 18C972
[2023-11-01 18:10:28.403] Message received from the Astronode <-- 
[2023-11-01 18:10:28.417] 98931000008B2B
[2023-11-01 18:10:28.417] Next opportunity for communication with the Astrocast Network: 4243s.
[2023-11-01 18:10:28.417] Message sent to the Astronode --> 
[2023-11-01 18:10:28.417] 250100322E322C35322E3237383134302C32302E3830393431382C33392C30BFB7
[2023-11-01 18:10:28.517] Message received from the Astronode <-- 
[2023-11-01 18:10:28.527] FF11257A47
[2023-11-01 18:10:28.527] [ERROR] DUPLICATE_ID : Failed to queue the payload because the Payload ID provided by the asset is already in use in the Astronode queue.
[2023-11-01 18:10:28.543] Payload failed to be queued.
[2023-11-01 18:25:25.100] Message sent to the Astronode --> 
[2023-11-01 18:25:25.100] 18C972
[2023-11-01 18:25:25.116] Message received from the Astronode <-- 
[2023-11-01 18:25:25.116] 98120D00003581
[2023-11-01 18:25:25.116] Next opportunity for communication with the Astrocast Network: 3346s.
[2023-11-01 18:25:25.131] Message sent to the Astronode --> 
[2023-11-01 18:25:25.131] 250100322E322C35322E3237383134302C32302E3830393431382C33392C30BFB7
[2023-11-01 18:25:25.226] Message received from the Astronode <-- 
[2023-11-01 18:25:25.226] FF11257A47
[2023-11-01 18:25:25.226] [ERROR] DUPLICATE_ID : Failed to queue the payload because the Payload ID provided by the asset is already in use in the Astronode queue.
[2023-11-01 18:25:25.241] Payload failed to be queued.
[2023-11-01 18:40:21.757] Message sent to the Astronode --> 
[2023-11-01 18:40:21.757] 18C972
[2023-11-01 18:40:21.771] Message received from the Astronode <-- 
[2023-11-01 18:40:21.771] 9891090000111B
[2023-11-01 18:40:21.771] Next opportunity for communication with the Astrocast Network: 2449s.
[2023-11-01 18:40:21.786] Message sent to the Astronode --> 
[2023-11-01 18:40:21.786] 250100322E322C35322E3237383134302C32302E3830393431382C33392C30BFB7
[2023-11-01 18:40:21.865] Message received from the Astronode <-- 
[2023-11-01 18:40:21.881] FF11257A47
[2023-11-01 18:40:21.881] [ERROR] DUPLICATE_ID : Failed to queue the payload because the Payload ID provided by the asset is already in use in the Astronode queue.
[2023-11-01 18:40:21.896] Payload failed to be queued.
[2023-11-01 18:55:18.504] Message sent to the Astronode --> 
[2023-11-01 18:55:18.512] 18C972
[2023-11-01 18:55:18.520] Message received from the Astronode <-- 
[2023-11-01 18:55:18.536] 9810060000AC9C
[2023-11-01 18:55:18.536] Next opportunity for communication with the Astrocast Network: 1552s.
[2023-11-01 18:55:18.536] Message sent to the Astronode --> 
[2023-11-01 18:55:18.536] 250100322E322C35322E3237383134302C32302E3830393431382C33392C30BFB7
[2023-11-01 18:55:18.631] Message received from the Astronode <-- 
[2023-11-01 18:55:18.631] FF11257A47
[2023-11-01 18:55:18.631] [ERROR] DUPLICATE_ID : Failed to queue the payload because the Payload ID provided by the asset is already in use in the Astronode queue.
[2023-11-01 18:55:18.653] Payload failed to be queued.
[2023-11-01 19:10:15.346] Message sent to the Astronode --> 
[2023-11-01 19:10:15.346] 18C972
[2023-11-01 19:10:15.346] Message received from the Astronode <-- 
[2023-11-01 19:10:15.361] 9890020000549D
[2023-11-01 19:10:15.361] Next opportunity for communication with the Astrocast Network: 656s.
[2023-11-01 19:10:15.361] Message sent to the Astronode --> 
[2023-11-01 19:10:15.361] 250100322E322C35322E3237383134302C32302E3830393431382C33392C30BFB7
[2023-11-01 19:10:15.456] Message received from the Astronode <-- 
[2023-11-01 19:10:15.472] FF11257A47
[2023-11-01 19:10:15.472] [ERROR] DUPLICATE_ID : Failed to queue the payload because the Payload ID provided by the asset is already in use in the Astronode queue.
[2023-11-01 19:10:15.488] Payload failed to be queued.
[2023-11-01 19:25:12.252] Message sent to the Astronode --> 
[2023-11-01 19:25:12.252] 18C972
[2023-11-01 19:25:12.262] Message received from the Astronode <-- 
[2023-11-01 19:25:12.262] 9800000000AB35
[2023-11-01 19:25:12.262] Next opportunity for communication with the Astrocast Network: 0s.
[2023-11-01 19:25:12.278] Message sent to the Astronode --> 
[2023-11-01 19:25:12.278] 250100322E322C35322E3237383134302C32302E3830393431382C33392C30BFB7
[2023-11-01 19:25:12.356] Message received from the Astronode <-- 
[2023-11-01 19:25:12.372] FF11257A47
[2023-11-01 19:25:12.372] [ERROR] DUPLICATE_ID : Failed to queue the payload because the Payload ID provided by the asset is already in use in the Astronode queue.
[2023-11-01 19:25:12.388] Payload failed to be queued.
