[2023-11-04 23:09:56.078] $GPRMC,235947.100,V,,,,,0.00,0.00,050180,,,N,V*34
[2023-11-04 23:09:56.108] $GPVTG,0.00,T,,M,0.00,N,0.00,K,N*32
[2023-11-04 23:09:56.108] $GPGGA,235947.100,,,,,0,0,,,M,,M,,*47
[2023-11-04 23:09:56.108] $GPGSA,A,1,,,,,,,,,,,,,,,,1*03
[2023-11-04 23:09:56.108] $GPGSA,A,1,,,,,,,,,,,,,,,,2*00
[2023-11-04 23:09:56.108] $GPGSV,1,1,03,16,,,34,31,,,36,18,,,34,0*6F
[2023-11-04 23:09:56.108] $GLGSV,1,1,04,76,,,,74,,,,85,,,,81,,,,1*7A
[2023-11-04 23:09:56.108] $GPGLL,,,,,235947.100,V,N*75
[2023-11-04 23:09:56.108] $GPTXT,01,01,02,ANTSTATUS=OPEN*2B
[2023-11-04 23:09:56.108] $GPRMC,235948.100,V,,,,,0.00,0.00,050180,,,N,V*3B
[2023-11-04 23:09:56.108] $GPVTG,0.00,T,,M,0.00,N,0.00,K,N*32
[2023-11-04 23:09:56.108] $GPGGA,235948.100,,,,,0,0,,,M,,M,,*48
[2023-11-04 23:09:56.108] $GPGSA,A,1,,,,,,,,,,,,,,,,1*03
[2023-11-04 23:09:56.108] $GPGSA,A,1,,,,,,,,,,,,,,,,2*00
[2023-11-04 23:09:56.108] $GPGSV,1,1,03,16,,,35,31,,,36,18,,,34,0*6E
[2023-11-04 23:09:56.108] $GLGSV,1,1,04,76,,,,74,,,,85,,,,81,,,,1*7A
[2023-11-04 23:09:56.108] $GPGLL,,,,,235948.100,V,N*7A
[2023-11-04 23:09:56.108] $GPTXT,01,01,02,ANTSTATUS=OPEN*2B
[2023-11-04 23:09:56.108] $GPRMC,235949.100,V,,,,,0.00,0.00,050180,,,N,V*3A
[2023-11-04 23:09:56.108] $GPVTG,0.00,T,,M,0.00,N,0.00,K,N*32
[2023-11-04 23:09:56.108] $GPGGA,235949.100,,,,,0,0,,,M,,M,,*49
[2023-11-04 23:09:56.109] $GPGSA,A,1,,,,,,,,,,,,,,,,1*03
[2023-11-04 23:09:56.109] $GPGSA,A,1,,,,,,,,,,,,,,,,2*00
[2023-11-04 23:09:56.109] $GPGSV,1,1,03,16,,,35,31,,,36,18,,,34,0*6E
[2023-11-04 23:09:56.109] $GLGSV,1,1,04,80,,,35,78,,,34,81,,,35,81,,,35,1*7A
[2023-11-04 23:09:56.109] $GPGLL,,,,,235949.100,V,N*7B
[2023-11-04 23:09:56.109] $GPTXT,01,01,02,ANTSTATUS=OPEN*2B
[2023-11-04 23:09:56.136] $GPRMC,235950.101,V,,,,,0.00,0.00,050180,,,N,V*33
[2023-11-04 23:09:56.136] $GPVTG,0.00,T,,M,0.00,N,0.00,K,N*32
[2023-11-04 23:09:56.136] $GPGGA,235950.101,,,,,0,0,,,M,,M,,*40
[2023-11-04 23:09:56.136] $GPGSA,A,1,,,,,,,,,,,,,,,,1*03
[2023-11-04 23:09:56.136] $GPGSA,A,1,,,,,,,,,,,,,,,,2*00
[2023-11-04 23:09:56.136] $GPGSV,1,1,04,16,,,35,31,,,36,18,,,34,20,,,29,0*60
[2023-11-04 23:09:56.136] $GLGSV,1,1,03,80,,,35,78,,,33,81,,,36,1*76
[2023-11-04 23:09:56.136] $GPGLL,,,,,235950.101,V,N*72
[2023-11-04 23:09:56.136] $GPTXT,01,01,02,ANTSTATUS=OPEN*2B
[2023-11-04 23:09:56.136] $GPRMC,235951.101,V,,,,,0.00,0.00,050180,,,N,V*32
[2023-11-04 23:09:56.136] $GPVTG,0.00,T,,M,0.00,N,0.00,K,N*32
[2023-11-04 23:09:56.136] $GPGGA,235951.101,,,,,0,0,,,M,,M,,*41
[2023-11-04 23:09:56.136] $GPGSA,A,1,,,,,,,,,,,,,,,,1*03
[2023-11-04 23:09:56.136] $GPGSA,A,1,,,,,,,,,,,,,,,,2*00
[2023-11-04 23:09:56.136] $GPGSV,1,1,04,16,,,35,31,,,36,18,,,34,20,,,30,0*68
[2023-11-04 23:09:56.136] $GLGSV,1,1,03,80,,,35,78,,,32,81,,,36,1*77
[2023-11-04 23:09:56.136] $GPGLL,,,,,235951.101,V,N*73
[2023-11-04 23:09:56.136] $GPTXT,01,01,02,ANTSTATUS=OPEN*2B
[2023-11-04 23:09:56.136] $GPRMC,235952.101,V,,,,,0.00,0.00,050180,,,N,V*31
[2023-11-04 23:09:56.136] $GPVTG,0.00,T,,M,0.00,N,0.00,K,N*32
[2023-11-04 23:09:56.136] $GPGGA,235952.101,,,,,0,0,,,M,,M,,*42
[2023-11-04 23:09:56.136] $GPGSA,A,1,,,,,,,,,,,,,,,,1*03
[2023-11-04 23:09:56.136] $GPGSA,A,1,,,,,,,,,,,,,,,,2*00
[2023-11-04 23:09:56.136] $GPGSV,1,1,04,16,,,35,31,,,36,18,,,34,20,,,30,0*68
[2023-11-04 23:09:56.136] $GLGSV,1,1,03,80,,,35,78,,,32,81,,,36,1*77
[2023-11-04 23:09:56.149] $GPGLL,,,,,235952.101,V,N*70
[2023-11-04 23:09:56.149] $GPTXT,01,01,02,ANTSTATUS=OPEN*2B
[2023-11-04 23:09:56.149] $GPRMC,235953.101,V,,,,,0.00,0.00,050180,,,N,V*30
[2023-11-04 23:09:56.149] $GPVTG,0.00,T,,M,0.00,N,0.00,K,N*32
[2023-11-04 23:09:56.149] $GPGGA,235953.101,,,,,0,0,,,M,,M,,*43
[2023-11-04 23:09:56.149] $GPGSA,A,1,,,,,,,,,,,,,,,,1*03
[2023-11-04 23:09:56.149] $GPGSA,A,1,,,,,,,,,,,,,,,,2*00
[2023-11-04 23:09:56.149] $GPGSV,1,1,04,16,,,35,31,,,36,18,,,34,20,,,31,0*69
[2023-11-04 23:09:56.149] $GLGSV,1,1,03,80,,,35,78,,,32,81,,,36,1*77
[2023-11-04 23:09:56.149] $GPGLL,,,,,235953.101,V,N*71
[2023-11-04 23:09:56.149] $GPTXT,01,01,02,ANTSTATUS=OPEN*2B
[2023-11-04 23:09:56.149] $GPRMC,235953.304,V,,,,,0.00,0.00,050180,,,N,V*37
[2023-11-04 23:09:56.149] $GPVTG,0.00,T,,M,0.00,N,0.00,K,N*32
[2023-11-04 23:09:56.149] $GPGGA,235953.304,,,,,0,0,,,M,,M,,*44
[2023-11-04 23:09:56.149] $GPGSA,A,1,,,,,,,,,,,,,,,,1*03
[2023-11-04 23:09:56.149] $GPGSA,A,1,,,,,,,,,,,,,,,,2*00
[2023-11-04 23:09:56.149] $GPGSV,1,1,04,16,,,35,31,,,36,18,,,34,20,,,31,0*69
[2023-11-04 23:09:56.149] $GLGSV,1,1,03,80,,,35,78,,,32,81,,,36,1*77
[2023-11-04 23:09:56.149] $GPGLL,,,,,235953.304,V,N*76
[2023-11-04 23:09:56.149] $GPTXT,01,01,02,ANTSTATUS=OPEN*2B
[2023-11-04 23:09:56.149] $GPRMC,235954.304,V,,,,,0.00,0.00,050180,,,N,V*30
[2023-11-04 23:09:56.149] $GPVTG,0.00,T,,M,0.00,N,0.00,K,N*32
[2023-11-04 23:09:56.149] $GPGGA,235954.304,,,,,0,0,,,M,,M,,*43
[2023-11-04 23:09:56.149] $GPGSA,A,1,,,,,,,,,,,,,,,,1*03
[2023-11-04 23:09:56.149] $GPGSA,A,1,,,,,,,,,,,,,,,,2*00
[2023-11-04 23:09:56.149] $GPGSV,1,1,04,16,,,35,31,,,36,18,,,34,20,,,30,0*68
[2023-11-04 23:09:56.165] $GLGSV,1,1,03,80,,,35,78,,,32,81,,,36,1*77
[2023-11-04 23:09:56.165] $GPGLL,,,,,235954.304,V,N*71
[2023-11-04 23:09:56.165] $GPTXT,01,01,02,ANTSTATUS=OPEN*2B
[2023-11-04 23:09:56.165] $GPRMC,220944.154,V,,,,,0.00,0.00,041123,,,N,V*3B
[2023-11-04 23:09:56.165] $GPVTG,0.00,T,,M,0.00,N,0.00,K,N*32
[2023-11-04 23:09:56.165] $GPGGA,220944.154,,,,,0,0,,,M,,M,,*41
[2023-11-04 23:09:56.165] $GPGSA,A,1,,,,,,,,,,,,,,,,1*03
[2023-11-04 23:09:56.165] $GPGSA,A,1,,,,,,,,,,,,,,,,2*00
[2023-11-04 23:09:56.165] $GPGSV,2,1,06,29,59,078,,31,33,246,36,16,28,305,35,09,02,339,,0*60
[2023-11-04 23:09:56.165] $GPGSV,2,2,06,18,,,34,20,,,30,0*6C
[2023-11-04 23:09:56.165] $GLGSV,1,1,03,80,,,35,78,,,32,81,,,36,1*77
[2023-11-04 23:09:56.165] $GPGLL,,,,,220944.154,V,N*73
[2023-11-04 23:09:56.165] $GPTXT,01,01,02,ANTSTATUS=OPEN*2B
[2023-11-04 23:09:56.165] $GPRMC,220945.154,V,,,,,0.00,0.00,041123,,,N,V*3A
[2023-11-04 23:09:56.165] $GPVTG,0.00,T,,M,0.00,N,0.00,K,N*32
[2023-11-04 23:09:56.165] $GPGGA,220945.154,,,,,0,0,,,M,,M,,*40
[2023-11-04 23:09:56.165] $GPGSA,A,1,,,,,,,,,,,,,,,,1*03
[2023-11-04 23:09:56.165] $GPGSA,A,1,,,,,,,,,,,,,,,,2*00
[2023-11-04 23:09:56.165] $GPGSV,2,1,06,29,59,078,,31,33,246,36,16,28,305,35,09,02,339,,0*60
[2023-11-04 23:09:56.165] $GPGSV,2,2,06,18,,,34,20,,,31,0*6D
[2023-11-04 23:09:56.165] $GLGSV,1,1,03,80,,,35,78,,,32,81,,,36,1*77
[2023-11-04 23:09:56.165] $GPGLL,,,,,220945.154,V,N*72
[2023-11-04 23:09:56.165] $GPTXT,01,01,02,ANTSTATUS=OPEN*2B
[2023-11-04 23:09:56.165] $GPRMC,220946.154,V,,,,,0.00,0.00,041123,,,N,V*39
[2023-11-04 23:09:56.165] $GPVTG,0.00,T,,M,0.00,N,0.00,K,N*32
[2023-11-04 23:09:56.165] $GPGGA,220946.154,,,,,0,0,,,M,,M,,*43
[2023-11-04 23:09:56.183] $GPGSA,A,1,,,,,,,,,,,,,,,,1*03
[2023-11-04 23:09:56.183] $GPGSA,A,1,,,,,,,,,,,,,,,,2*00
[2023-11-04 23:09:56.183] $GPGSV,2,1,06,29,59,078,,31,33,246,36,16,28,305,35,09,02,339,,0*60
[2023-11-04 23:09:56.183] $GPGSV,2,2,06,18,,,34,20,,,31,0*6D
[2023-11-04 23:09:56.183] $GLGSV,1,1,03,80,,,35,78,,,32,81,,,36,1*77
[2023-11-04 23:09:56.183] $GPGLL,,,,,220946.154,V,N*71
[2023-11-04 23:09:56.183] $GPTXT,01,01,02,ANTSTATUS=OPEN*2B
[2023-11-04 23:09:56.183] $GPRMC,220947.154,V,,,,,0.00,0.00,041123,,,N,V*38
[2023-11-04 23:09:56.183] $GPVTG,0.00,T,,M,0.00,N,0.00,K,N*32
[2023-11-04 23:09:56.183] $GPGGA,220947.154,,,,,0,0,,,M,,M,,*42
[2023-11-04 23:09:56.183] $GPGSA,A,1,,,,,,,,,,,,,,,,1*03
[2023-11-04 23:09:56.183] $GPGSA,A,1,,,,,,,,,,,,,,,,2*00
[2023-11-04 23:09:56.183] $GPGSV,2,1,06,29,59,078,,31,33,246,36,16,28,305,35,09,02,339,,0*60
[2023-11-04 23:09:56.183] $GPGSV,2,2,06,18,,,34,20,,,31,0*6D
[2023-11-04 23:09:56.183] $GLGSV,1,1,03,80,,,35,78,,,32,81,,,36,1*77
[2023-11-04 23:09:56.183] $GPGLL,,,,,220947.154,V,N*70
[2023-11-04 23:09:56.183] $GPTXT,01,01,02,ANTSTATUS=OPEN*2B
[2023-11-04 23:09:56.183] $GPRMC,220948.154,V,,,,,0.00,0.00,041123,,,N,V*37
[2023-11-04 23:09:56.183] $GPVTG,0.00,T,,M,0.00,N,0.00,K,N*32
[2023-11-04 23:09:56.183] $GPGGA,220948.154,,,,,0,0,,,M,,M,,*4D
[2023-11-04 23:09:56.183] $GPGSA,A,1,,,,,,,,,,,,,,,,1*03
[2023-11-04 23:09:56.184] $GPGSA,A,1,,,,,,,,,,,,,,,,2*00
[2023-11-04 23:09:56.184] $GPGSV,2,1,06,29,59,078,,31,33,246,36,16,28,305,35,09,02,339,,0*60
[2023-11-04 23:09:56.184] $GPGSV,2,2,06,18,,,34,20,,,31,0*6D
[2023-11-04 23:09:56.184] $GLGSV,1,1,04,80,,,35,78,,,32,81,,,36,75,,,,1*72
[2023-11-04 23:09:56.198] $GPGLL,,,,,220948.154,V,N*7F
[2023-11-04 23:09:56.198] $GPTXT,01,01,02,ANTSTATUS=OPEN*2B
[2023-11-04 23:09:56.198] $GPRMC,220949.154,V,,,,,0.00,0.00,041123,,,N,V*36
[2023-11-04 23:09:56.198] $GPVTG,0.00,T,,M,0.00,N,0.00,K,N*32
[2023-11-04 23:09:56.198] $GPGGA,220949.154,,,,,0,0,,,M,,M,,*4C
[2023-11-04 23:09:56.198] $GPGSA,A,1,,,,,,,,,,,,,,,,1*03
[2023-11-04 23:09:56.198] $GPGSA,A,1,,,,,,,,,,,,,,,,2*00
[2023-11-04 23:09:56.198] $GPGSV,2,1,06,29,59,078,,31,33,246,36,16,28,305,35,09,02,339,,0*60
[2023-11-04 23:09:56.198] $GPGSV,2,2,06,18,,,34,20,,,31,0*6D
[2023-11-04 23:09:56.198] $GLGSV,2,1,05,80,,,35,78,,,32,81,,,36,68,,,,1*7C
[2023-11-04 23:09:56.198] $GLGSV,2,2,05,75,,,,1*7F
[2023-11-04 23:09:56.198] $GPGLL,,,,,220949.154,V,N*7E
[2023-11-04 23:09:56.198] $GPTXT,01,01,02,ANTSTATUS=OPEN*2B
[2023-11-04 23:09:56.198] $GPRMC,220950.154,V,,,,,0.00,0.00,041123,,,N,V*3E
[2023-11-04 23:09:56.198] $GPVTG,0.00,T,,M,0.00,N,0.00,K,N*32
[2023-11-04 23:09:56.198] $GPGGA,220950.154,,,,,0,0,,,M,,M,,*44
[2023-11-04 23:09:56.198] $GPGSA,A,1,,,,,,,,,,,,,,,,1*03
[2023-11-04 23:09:56.198] $GPGSA,A,1,,,,,,,,,,,,,,,,2*00
[2023-11-04 23:09:56.198] $GPGSV,2,1,06,29,59,078,,31,33,246,36,16,28,305,35,09,02,339,,0*60
[2023-11-04 23:09:56.198] $GPGSV,2,2,06,18,,,34,20,,,31,0*6D
[2023-11-04 23:09:56.198] $GLGSV,2,1,05,80,,,35,78,,,32,81,,,36,68,,,,1*7C
[2023-11-04 23:09:56.198] $GLGSV,2,2,05,75,,,,1*7F
[2023-11-04 23:09:56.198] $GPGLL,,,,,220950.154,V,N*76
[2023-11-04 23:09:56.198] $GPTXT,01,01,02,ANTSTATUS=OPEN*2B
[2023-11-04 23:09:56.198] $GPRMC,220951.154,V,,,,,0.00,0.00,041123,,,N,V*3F
[2023-11-04 23:09:56.213] $GPVTG,0.00,T,,M,0.00,N,0.00,K,N*32
[2023-11-04 23:09:56.213] $GPGGA,220951.154,,,,,0,0,,,M,,M,,*45
[2023-11-04 23:09:56.213] $GPGSA,A,1,,,,,,,,,,,,,,,,1*03
[2023-11-04 23:09:56.213] $GPGSA,A,1,,,,,,,,,,,,,,,,2*00
[2023-11-04 23:09:56.213] $GPGSV,2,1,06,29,59,078,,31,33,246,36,16,28,305,35,09,02,339,,0*60
[2023-11-04 23:09:56.213] $GPGSV,2,2,06,18,,,34,20,,,31,0*6D
[2023-11-04 23:09:56.213] $GLGSV,2,1,05,80,,,35,78,,,32,81,,,36,68,,,,1*7C
[2023-11-04 23:09:56.213] $GLGSV,2,2,05,75,,,,1*7F
[2023-11-04 23:09:56.213] $GPGLL,,,,,220951.154,V,N*77
[2023-11-04 23:09:56.213] $GPTXT,01,01,02,ANTSTATUS=OPEN*2B
[2023-11-04 23:09:56.213] $GPRMC,220952.154,V,,,,,0.00,0.00,041123,,,N,V*3C
[2023-11-04 23:09:56.213] $GPVTG,0.00,T,,M,0.00,N,0.00,K,N*32
[2023-11-04 23:09:56.213] $GPGGA,220952.154,,,,,0,0,,,M,,M,,*46
[2023-11-04 23:09:56.213] $GPGSA,A,1,,,,,,,,,,,,,,,,1*03
[2023-11-04 23:09:56.213] $GPGSA,A,1,,,,,,,,,,,,,,,,2*00
[2023-11-04 23:09:56.213] $GPGSV,2,1,06,29,59,078,,31,33,246,36,16,28,305,35,09,02,339,,0*60
[2023-11-04 23:09:56.213] $GPGSV,2,2,06,18,,,34,20,,,31,0*6D
[2023-11-04 23:09:56.213] $GLGSV,2,1,05,80,,,35,78,,,32,81,,,36,68,,,,1*7C
[2023-11-04 23:09:56.213] $GLGSV,2,2,05,75,,,,1*7F
[2023-11-04 23:09:56.213] $GPGLL,,,,,220952.154,V,N*74
[2023-11-04 23:09:56.213] $GPTXT,01,01,02,ANTSTATUS=OPEN*2B
[2023-11-04 23:09:56.213] $GPRMC,220953.154,V,,,,,0.00,0.00,041123,,,N,V*3D
[2023-11-04 23:09:56.213] $GPVTG,0.00,T,,M,0.00,N,0.00,K,N*32
[2023-11-04 23:09:56.213] $GPGGA,220953.154,,,,,0,0,,,M,,M,,*47
[2023-11-04 23:09:56.213] $GPGSA,A,1,,,,,,,,,,,,,,,,1*03
[2023-11-04 23:09:56.213] $GPGSA,A,1,,,,,,,,,,,,,,,,2*00
[2023-11-04 23:09:56.220] $GPGSV,2,1,06,29,59,078,,31,33,246,36,16,28,305,35,09,02,339,,0*60
[2023-11-04 23:09:56.220] $GPGSV,2,2,06,18,,,34,20,,,31,0*6D
[2023-11-04 23:09:56.220] $GLGSV,2,1,05,80,,,35,78,,,31,81,,,36,68,,,,1*7F
[2023-11-04 23:09:56.220] $GLGSV,2,2,05,75,,,,1*7F
[2023-11-04 23:09:56.220] $GPGLL,,,,,220953.154,V,N*75
[2023-11-04 23:09:56.220] $GPTXT,01,01,02,ANTSTATUS=OPEN*2B
[2023-11-04 23:09:56.220] $GPRMC,220954.154,V,,,,,0.00,0.00,041123,,,N,V*3A
[2023-11-04 23:09:56.220] $GPVTG,0.00,T,,M,0.00,N,0.00,K,N*32
[2023-11-04 23:09:56.220] $GPGGA,220954.154,,,,,0,0,,,M,,M,,*40
[2023-11-04 23:09:56.220] $GPGSA,A,1,,,,,,,,,,,,,,,,1*03
[2023-11-04 23:09:56.220] $GPGSA,A,1,,,,,,,,,,,,,,,,2*00
[2023-11-04 23:09:56.220] $GPGSV,2,1,06,29,59,078,,31,33,246,36,16,28,305,35,09,02,339,,0*60
[2023-11-04 23:09:56.220] $GPGSV,2,2,06,18,,,34,20,,,31,0*6D
[2023-11-04 23:09:56.220] $GLGSV,2,1,05,80,,,35,78,,,31,81,,,36,68,,,,1*7F
[2023-11-04 23:09:56.220] $GLGSV,2,2,05,75,,,,1*7F
[2023-11-04 23:09:56.220] $GPGLL,,,,,220954.154,V,N*72
[2023-11-04 23:09:56.220] $GPTXT,01,01,02,ANTSTATUS=OPEN*2B
[2023-11-04 23:09:56.465] $GPRMC,220955.154,V,,,,,0.00,0.00,041123,,,N,V*3B
[2023-11-04 23:09:56.519] $GPVTG,0.00,T,,M,0.00,N,0.00,K,N*32
[2023-11-04 23:09:56.556] $GPGGA,220955.154,,,,,0,0,,,M,,M,,*41
[2023-11-04 23:09:56.597] $GPGSA,A,1,,,,,,,,,,,,,,,,1*03
[2023-11-04 23:09:56.629] $GPGSA,A,1,,,,,,,,,,,,,,,,2*00
[2023-11-04 23:09:56.665] $GPGSV,2,1,06,29,59,078,,31,33,246,36,16,28,305,35,09,02,339,,0*60
[2023-11-04 23:09:56.736] $GPGSV,2,2,06,18,,,34,20,,,30,0*6C
[2023-11-04 23:09:56.772] $GLGSV,2,1,05,80,,,35,78,,,32,81,,,36,68,,,,1*7C
[2023-11-04 23:09:56.824] $GLGSV,2,2,05,75,,,,1*7F
[2023-11-04 23:09:56.851] $GPGLL,,,,,220955.154,V,N*73
[2023-11-04 23:09:56.884] $GPTXT,01,01,02,ANTSTATUS=OPEN*2B
[2023-11-04 23:09:57.464] $GPRMC,220956.154,V,,,,,0.00,0.00,041123,,,N,V*38
[2023-11-04 23:09:57.520] $GPVTG,0.00,T,,M,0.00,N,0.00,K,N*32
[2023-11-04 23:09:57.559] $GPGGA,220956.154,,,,,0,0,,,M,,M,,*42
[2023-11-04 23:09:57.598] $GPGSA,A,1,,,,,,,,,,,,,,,,1*03
[2023-11-04 23:09:57.633] $GPGSA,A,1,,,,,,,,,,,,,,,,2*00
[2023-11-04 23:09:57.664] $GPGSV,2,1,06,29,59,078,,31,33,246,36,16,28,305,35,09,02,339,,0*60
[2023-11-04 23:09:57.737] $GPGSV,2,2,06,18,,,34,20,,,30,0*6C
[2023-11-04 23:09:57.775] $GLGSV,2,1,05,80,,,35,78,,,32,81,,,36,68,,,,1*7C
[2023-11-04 23:09:57.823] $GLGSV,2,2,05,75,,,,1*7F
[2023-11-04 23:09:57.850] $GPGLL,,,,,220956.154,V,N*70
[2023-11-04 23:09:57.884] $GPTXT,01,01,02,ANTSTATUS=OPEN*2B
[2023-11-04 23:09:58.464] $GPRMC,220957.154,V,,,,,0.00,0.00,041123,,,N,V*39
[2023-11-04 23:09:58.519] $GPVTG,0.00,T,,M,0.00,N,0.00,K,N*32
[2023-11-04 23:09:58.556] $GPGGA,220957.154,,,,,0,0,,,M,,M,,*43
[2023-11-04 23:09:58.597] $GPGSA,A,1,,,,,,,,,,,,,,,,1*03
[2023-11-04 23:09:58.631] $GPGSA,A,1,,,,,,,,,,,,,,,,2*00
[2023-11-04 23:09:58.664] $GPGSV,2,1,06,29,59,078,,31,33,246,36,16,28,305,35,09,02,339,,0*60
[2023-11-04 23:09:58.735] $GPGSV,2,2,06,18,,,34,20,,,30,0*6C
[2023-11-04 23:09:58.770] $GLGSV,2,1,05,80,,,35,78,,,32,81,,,36,68,,,,1*7C
[2023-11-04 23:09:58.824] $GLGSV,2,2,05,75,,,,1*7F
[2023-11-04 23:09:58.851] $GPGLL,,,,,220957.154,V,N*71
[2023-11-04 23:09:58.886] $GPTXT,01,01,02,ANTSTATUS=OPEN*2B
[2023-11-04 23:09:59.466] $GPRMC,220958.154,V,,,,,0.00,0.00,041123,,,N,V*36
[2023-11-04 23:09:59.519] $GPVTG,0.00,T,,M,0.00,N,0.00,K,N*32
[2023-11-04 23:09:59.557] $GPGGA,220958.154,,,,,0,0,,,M,,M,,*4C
[2023-11-04 23:09:59.598] $GPGSA,A,1,,,,,,,,,,,,,,,,1*03
[2023-11-04 23:09:59.630] $GPGSA,A,1,,,,,,,,,,,,,,,,2*00
[2023-11-04 23:09:59.663] $GPGSV,2,1,06,29,59,078,,31,33,246,36,16,28,305,35,09,02,339,,0*60
[2023-11-04 23:09:59.736] $GPGSV,2,2,06,18,,,35,20,,,30,0*6D
[2023-11-04 23:09:59.773] $GLGSV,2,1,05,80,,,35,78,,,32,81,,,36,68,,,,1*7C
[2023-11-04 23:09:59.824] $GLGSV,2,2,05,75,,,,1*7F
[2023-11-04 23:09:59.853] $GPGLL,,,,,220958.154,V,N*7E
[2023-11-04 23:09:59.884] $GPTXT,01,01,02,ANTSTATUS=OPEN*2B
[2023-11-04 23:10:00.464] $GPRMC,220959.154,V,,,,,0.00,0.00,041123,,,N,V*37
[2023-11-04 23:10:00.518] $GPVTG,0.00,T,,M,0.00,N,0.00,K,N*32
[2023-11-04 23:10:00.556] $GPGGA,220959.154,,,,,0,0,,,M,,M,,*4D
[2023-11-04 23:10:00.594] $GPGSA,A,1,,,,,,,,,,,,,,,,1*03
[2023-11-04 23:10:00.632] $GPGSA,A,1,,,,,,,,,,,,,,,,2*00
[2023-11-04 23:10:00.663] $GPGSV,2,1,06,29,59,078,,31,33,246,37,16,28,305,35,09,02,339,,0*61
[2023-11-04 23:10:00.735] $GPGSV,2,2,06,18,,,35,20,,,30,0*6D
[2023-11-04 23:10:00.771] $GLGSV,2,1,05,80,,,35,78,,,32,81,,,36,68,,,,1*7C
[2023-11-04 23:10:00.823] $GLGSV,2,2,05,75,,,,1*7F
[2023-11-04 23:10:00.851] $GPGLL,,,,,220959.154,V,N*7F
[2023-11-04 23:10:00.884] $GPTXT,01,01,02,ANTSTATUS=OPEN*2B
[2023-11-04 23:10:01.507] $GPRMC,221000.154,V,,,,,0.31,0.00,041123,,,N,V*31
[2023-11-04 23:10:01.561] $GPVTG,0.00,T,,M,0.31,N,0.57,K,N*32
[2023-11-04 23:10:01.600] $GPGGA,221000.154,,,,,0,0,,,M,,M,,*49
[2023-11-04 23:10:01.641] $GPGSA,A,1,,,,,,,,,,,,,,,,1*03
[2023-11-04 23:10:01.673] $GPGSA,A,1,,,,,,,,,,,,,,,,2*00
[2023-11-04 23:10:01.703] $GPGSV,2,1,07,29,59,078,,18,58,194,35,31,33,246,37,37,30,179,,0*69
[2023-11-04 23:10:01.777] $GPGSV,2,2,07,16,28,305,35,20,17,038,30,09,02,339,,0*51
[2023-11-04 23:10:01.835] $GLGSV,2,1,05,80,,,35,78,,,32,81,,,36,68,,,,1*7C
[2023-11-04 23:10:01.888] $GLGSV,2,2,05,75,,,,1*7F
[2023-11-04 23:10:01.917] $GPGLL,,,,,221000.154,V,N*7B
[2023-11-04 23:10:01.947] $GPTXT,01,01,02,ANTSTATUS=OPEN*2B
[2023-11-04 23:10:02.485] $GNRMC,221001.154,A,5216.6942,N,02048.5486,E,0.20,0.00,041123,,,A,V*05
[2023-11-04 23:10:02.558] $GPVTG,0.00,T,,M,0.20,N,0.36,K,A*3A
[2023-11-04 23:10:02.598] $GPGGA,221001.154,5216.6942,N,02048.5486,E,1,4,1.49,74.0,M,39.0,M,,*65
[2023-11-04 23:10:02.673] $GNGSA,A,3,16,31,18,20,,,,,,,,,1.78,1.49,0.98,1*0C
[2023-11-04 23:10:02.728] $GNGSA,A,3,,,,,,,,,,,,,1.78,1.49,0.98,2*01
[2023-11-04 23:10:02.774] $GPGSV,2,1,07,29,59,078,,18,58,194,35,31,33,246,37,37,30,179,,0*69
[2023-11-04 23:10:02.843] $GPGSV,2,2,07,16,28,305,34,20,17,038,30,09,02,339,,0*50
[2023-11-04 23:10:02.904] $GLGSV,2,1,05,80,,,35,78,,,32,81,,,36,68,,,,1*7C
[2023-11-04 23:10:02.956] $GLGSV,2,2,05,75,,,,1*7F
[2023-11-04 23:10:02.983] $GNGLL,5216.6942,N,02048.5486,E,221001.154,A,A*4F
[2023-11-04 23:10:03.037] NMEA coordinates: 52.278237,20.809143
[2023-11-04 23:10:03.043] Message sent to the Astronode --> 
[2023-11-04 23:10:03.044] 35A206291F2639670C4D37
[2023-11-04 23:10:03.081] Message received from the Astronode <-- 
[2023-11-04 23:10:03.087] B58E16
[2023-11-04 23:10:03.090] Geolocation values were set successfully.
[2023-11-04 23:10:03.094] 2086.01.06 00:00:13
[2023-11-04 23:10:03.094] Astronode payload: 1.8,32,32
[2023-11-04 23:10:03.101] Message sent to the Astronode --> 
[2023-11-04 23:10:03.105] 250000312E382C33322C3332A67C
[2023-11-04 23:10:03.146] Message received from the Astronode <-- 
[2023-11-04 23:10:03.152] A50000F09A
[2023-11-04 23:10:03.156] astronode_application: payload 0 queued.
[2023-11-04 23:10:03.160] my_astro: evt pin is high.
[2023-11-04 23:10:03.160] Message sent to the Astronode --> 
[2023-11-04 23:10:03.165] 65F3DD
[2023-11-04 23:10:03.180] Message received from the Astronode <-- 
[2023-11-04 23:10:03.189] E50A0253
[2023-11-04 23:10:03.189] Astronode has reset.
[2023-11-04 23:10:03.189] TX message pending.
[2023-11-04 23:10:03.194] my_astro: terminal has been reset.
[2023-11-04 23:10:03.201] Message sent to the Astronode --> 
[2023-11-04 23:10:03.201] 55A0EB
[2023-11-04 23:10:03.214] Message received from the Astronode <-- 
[2023-11-04 23:10:03.219] D5287A
[2023-11-04 23:10:03.223] astronode_application: The reset has been cleared.
[2023-11-04 23:10:08.137] 
[2023-11-04 23:10:08.137] Hello TSAT_P_P_001
[2023-11-04 23:10:08.137] 
[2023-11-04 23:10:08.137] 2000.01.01 00:00:00
[2023-11-04 23:10:08.146] Message sent to the Astronode --> 
[2023-11-04 23:10:08.146] 05070007F2CD
[2023-11-04 23:10:08.161] Message received from the Astronode <-- 
[2023-11-04 23:10:08.173] 85DD20
[2023-11-04 23:10:08.173] Astronode configuration successfully set.
[2023-11-04 23:10:11.418] Message sent to the Astronode --> 
[2023-11-04 23:10:11.423] 10C1F3
[2023-11-04 23:10:11.436] Message received from the Astronode <-- 
[2023-11-04 23:10:11.445] 904962
[2023-11-04 23:10:11.445] Astronode configuration successfully saved in NVM.
[2023-11-04 23:10:11.453] Message sent to the Astronode --> 
[2023-11-04 23:10:11.453] 1BAA42
[2023-11-04 23:10:11.501] Message received from the Astronode <-- 
[2023-11-04 23:10:11.510] 9B41535435303134372D30310000000000D272
[2023-11-04 23:10:11.514] Module's product number is:
[2023-11-04 23:10:11.516] AST50147-01
[2023-11-04 23:10:11.518] Message sent to the Astronode --> 
[2023-11-04 23:10:11.521] 1A8B52
[2023-11-04 23:10:11.572] Message received from the Astronode <-- 
[2023-11-04 23:10:11.574] 9A414E5332323132464C303030303235310969
[2023-11-04 23:10:11.574] Module's Serial Number is:
[2023-11-04 23:10:11.588] ANS2212FL000025
[2023-11-04 23:10:11.588] Message sent to the Astronode --> 
[2023-11-04 23:10:11.588] 19E862
[2023-11-04 23:10:11.669] Message received from the Astronode <-- 
[2023-11-04 23:10:11.687] 9965376139653565612D353039662D343836342D393337332D6264323963386433383966338D64
[2023-11-04 23:10:11.687] Module GUID is:
[2023-11-04 23:10:11.695] e7a9e5ea-509f-4864-9373-bd29c8d389f
[2023-11-04 23:10:11.699] Message sent to the Astronode --> 
[2023-11-04 23:10:11.703] 2775B5
[2023-11-04 23:10:11.721] Message received from the Astronode <-- 
[2023-11-04 23:10:11.729] FF01266A74
[2023-11-04 23:10:11.729] [ERROR] BUFFER_EMPTY : Failed to dequeue a payload from the buffer because the buffer is empty.
[2023-11-04 23:10:11.729] astronode_application: Failed to clear the payload queue.
[2023-11-04 23:10:13.806] $PMTK011,MTKGPS*08
[2023-11-04 23:10:13.839] $PMTK010,001*2E
[2023-11-04 23:10:14.609] $PMTK011,MTKGPS*08
[2023-11-04 23:10:14.637] $PMTK010,002*2D
[2023-11-04 23:10:14.653] $GPRMC,235943.399,V,,,,,0.00,0.00,050180,,,N,V*32
[2023-11-04 23:10:14.705] $GPVTG,0.00,T,,M,0.00,N,0.00,K,N*32
[2023-11-04 23:10:14.746] $GPGGA,235943.399,,,,,0,0,,,M,,M,,*41
[2023-11-04 23:10:14.787] $GPGSA,A,1,,,,,,,,,,,,,,,,1*03
[2023-11-04 23:10:14.821] $GPGSA,A,1,,,,,,,,,,,,,,,,2*00
[2023-11-04 23:10:14.854] $GPGSV,1,1,00,0*65
[2023-11-04 23:10:14.875] $GLGSV,1,1,01,81,,,,1*70
[2023-11-04 23:10:14.897] $GPGLL,,,,,235943.399,V,N*73
[2023-11-04 23:10:14.928] $GPTXT,01,01,02,ANTSTATUS=OPEN*2B
[2023-11-04 23:10:15.637] $GPRMC,235944.399,V,,,,,0.00,0.00,050180,,,N,V*35
[2023-11-04 23:10:15.701] $GPVTG,0.00,T,,M,0.00,N,0.00,K,N*32
[2023-11-04 23:10:15.740] $GPGGA,235944.399,,,,,0,0,,,M,,M,,*46
[2023-11-04 23:10:15.783] $GPGSA,A,1,,,,,,,,,,,,,,,,1*03
[2023-11-04 23:10:15.813] $GPGSA,A,1,,,,,,,,,,,,,,,,2*00
[2023-11-04 23:10:15.848] $GPGSV,1,1,00,0*65
[2023-11-04 23:10:15.872] $GLGSV,1,1,02,81,,,,76,,,,1*72
[2023-11-04 23:10:15.903] $GPGLL,,,,,235944.399,V,N*74
[2023-11-04 23:10:15.931] $GPTXT,01,01,02,ANTSTATUS=OPEN*2B
[2023-11-04 23:10:16.647] $GPRMC,235945.399,V,,,,,0.00,0.00,050180,,,N,V*34
[2023-11-04 23:10:16.705] $GPVTG,0.00,T,,M,0.00,N,0.00,K,N*32
[2023-11-04 23:10:16.743] $GPGGA,235945.399,,,,,0,0,,,M,,M,,*47
[2023-11-04 23:10:16.776] $GPGSA,A,1,,,,,,,,,,,,,,,,1*03
[2023-11-04 23:10:16.813] $GPGSA,A,1,,,,,,,,,,,,,,,,2*00
[2023-11-04 23:10:16.846] $GPGSV,1,1,00,0*65
[2023-11-04 23:10:16.869] $GLGSV,1,1,02,81,,,,76,,,,1*72
[2023-11-04 23:10:16.902] $GPGLL,,,,,235945.399,V,N*75
[2023-11-04 23:10:16.933] $GPTXT,01,01,02,ANTSTATUS=OPEN*2B
[2023-11-04 23:10:17.639] $GPRMC,235946.399,V,,,,,0.00,0.00,050180,,,N,V*37
[2023-11-04 23:10:17.704] $GPVTG,0.00,T,,M,0.00,N,0.00,K,N*32
[2023-11-04 23:10:17.732] $GPGGA,235946.399,,,,,0,0,,,M,,M,,*44
[2023-11-04 23:10:17.784] $GPGSA,A,1,,,,,,,,,,,,,,,,1*03
[2023-11-04 23:10:17.816] $GPGSA,A,1,,,,,,,,,,,,,,,,2*00
[2023-11-04 23:10:17.849] $GPGSV,1,1,01,31,,,36,0*63
[2023-11-04 23:10:17.878] $GLGSV,1,1,03,85,,,,81,,,,76,,,,1*7E
[2023-11-04 23:10:17.916] $GPGLL,,,,,235946.399,V,N*76
[2023-11-04 23:10:17.951] $GPTXT,01,01,02,ANTSTATUS=OPEN*2B
[2023-11-04 23:10:18.651] $GPRMC,235947.399,V,,,,,0.00,0.00,050180,,,N,V*36
[2023-11-04 23:10:18.703] $GPVTG,0.00,T,,M,0.00,N,0.00,K,N*32
[2023-11-04 23:10:18.740] $GPGGA,235947.399,,,,,0,0,,,M,,M,,*45
[2023-11-04 23:10:18.783] $GPGSA,A,1,,,,,,,,,,,,,,,,1*03
[2023-11-04 23:10:18.811] $GPGSA,A,1,,,,,,,,,,,,,,,,2*00
[2023-11-04 23:10:18.849] $GPGSV,1,1,01,31,,,37,0*62
[2023-11-04 23:10:18.879] $GLGSV,1,1,03,85,,,,81,,,,76,,,,1*7E
[2023-11-04 23:10:18.917] $GPGLL,,,,,235947.399,V,N*77
[2023-11-04 23:10:18.949] $GPTXT,01,01,02,ANTSTATUS=OPEN*2B
[2023-11-04 23:10:19.649] $GPRMC,235948.399,V,,,,,0.00,0.00,050180,,,N,V*39
[2023-11-04 23:10:19.706] $GPVTG,0.00,T,,M,0.00,N,0.00,K,N*32
[2023-11-04 23:10:19.744] $GPGGA,235948.399,,,,,0,0,,,M,,M,,*4A
[2023-11-04 23:10:19.781] $GPGSA,A,1,,,,,,,,,,,,,,,,1*03
[2023-11-04 23:10:19.811] $GPGSA,A,1,,,,,,,,,,,,,,,,2*00
[2023-11-04 23:10:19.840] $GPGSV,1,1,02,31,,,37,16,,,30,0*65
[2023-11-04 23:10:19.888] $GLGSV,1,1,04,85,,,,81,,,,76,,,,75,,,,1*7B
[2023-11-04 23:10:19.935] $GPGLL,,,,,235948.399,V,N*78
[2023-11-04 23:10:19.965] $GPTXT,01,01,02,ANTSTATUS=OPEN*2B
[2023-11-04 23:10:20.652] $GPRMC,235949.399,V,,,,,0.00,0.00,050180,,,N,V*38
[2023-11-04 23:10:20.697] $GPVTG,0.00,T,,M,0.00,N,0.00,K,N*32
[2023-11-04 23:10:20.743] $GPGGA,235949.399,,,,,0,0,,,M,,M,,*4B
[2023-11-04 23:10:20.779] $GPGSA,A,1,,,,,,,,,,,,,,,,1*03
[2023-11-04 23:10:20.818] $GPGSA,A,1,,,,,,,,,,,,,,,,2*00
[2023-11-04 23:10:20.847] $GPGSV,1,1,02,31,,,37,16,,,31,0*64
[2023-11-04 23:10:20.889] $GLGSV,1,1,04,85,,,,81,,,,76,,,,75,,,,1*7B
[2023-11-04 23:10:20.935] $GPGLL,,,,,235949.399,V,N*79
[2023-11-04 23:10:20.967] $GPTXT,01,01,02,ANTSTATUS=OPEN*2B
[2023-11-04 23:10:21.651] $GPRMC,235950.398,V,,,,,0.00,0.00,050180,,,N,V*31
[2023-11-04 23:10:21.704] $GPVTG,0.00,T,,M,0.00,N,0.00,K,N*32
[2023-11-04 23:10:21.744] $GPGGA,235950.398,,,,,0,0,,,M,,M,,*42
[2023-11-04 23:10:21.781] $GPGSA,A,1,,,,,,,,,,,,,,,,1*03
[2023-11-04 23:10:21.819] $GPGSA,A,1,,,,,,,,,,,,,,,,2*00
[2023-11-04 23:10:21.845] $GPGSV,1,1,04,31,,,37,16,,,30,20,,,28,18,,,34,0*65
[2023-11-04 23:10:21.901] $GLGSV,1,1,04,85,,,,81,,,,76,,,,75,,,,1*7B
[2023-11-04 23:10:21.949] $GPGLL,,,,,235950.398,V,N*70
[2023-11-04 23:10:21.981] $GPTXT,01,01,02,ANTSTATUS=OPEN*2B
[2023-11-04 23:10:22.647] $GPRMC,235951.398,V,,,,,0.00,0.00,050180,,,N,V*30
[2023-11-04 23:10:22.695] $GPVTG,0.00,T,,M,0.00,N,0.00,K,N*32
[2023-11-04 23:10:22.742] $GPGGA,235951.398,,,,,0,0,,,M,,M,,*43
[2023-11-04 23:10:22.774] $GPGSA,A,1,,,,,,,,,,,,,,,,1*03
[2023-11-04 23:10:22.806] $GPGSA,A,1,,,,,,,,,,,,,,,,2*00
[2023-11-04 23:10:22.851] $GPGSV,1,1,04,31,,,37,16,,,31,20,,,29,18,,,34,0*65
[2023-11-04 23:10:22.902] $GLGSV,1,1,04,85,,,,81,,,,76,,,,75,,,,1*7B
[2023-11-04 23:10:22.952] $GPGLL,,,,,235951.398,V,N*71
[2023-11-04 23:10:22.982] $GPTXT,01,01,02,ANTSTATUS=OPEN*2B
[2023-11-04 23:10:23.643] $GPRMC,235952.398,V,,,,,0.00,0.00,050180,,,N,V*33
[2023-11-04 23:10:23.704] $GPVTG,0.00,T,,M,0.00,N,0.00,K,N*32
[2023-11-04 23:10:23.739] $GPGGA,235952.398,,,,,0,0,,,M,,M,,*40
[2023-11-04 23:10:23.776] $GPGSA,A,1,,,,,,,,,,,,,,,,1*03
[2023-11-04 23:10:23.816] $GPGSA,A,1,,,,,,,,,,,,,,,,2*00
[2023-11-04 23:10:23.850] $GPGSV,1,1,04,31,,,37,16,,,31,20,,,29,18,,,34,0*65
[2023-11-04 23:10:23.905] $GLGSV,2,1,05,85,,,,81,,,,76,,,,75,,,,1*79
[2023-11-04 23:10:23.950] $GLGSV,2,2,05,74,,,,1*7E
[2023-11-04 23:10:23.976] $GPGLL,,,,,235952.398,V,N*72
[2023-11-04 23:10:24.008] $GPTXT,01,01,02,ANTSTATUS=OPEN*2B
[2023-11-04 23:10:24.641] $GPRMC,235953.398,V,,,,,0.00,0.00,050180,,,N,V*32
[2023-11-04 23:10:24.706] $GPVTG,0.00,T,,M,0.00,N,0.00,K,N*32
[2023-11-04 23:10:24.742] $GPGGA,235953.398,,,,,0,0,,,M,,M,,*41
[2023-11-04 23:10:24.786] $GPGSA,A,1,,,,,,,,,,,,,,,,1*03
[2023-11-04 23:10:24.815] $GPGSA,A,1,,,,,,,,,,,,,,,,2*00
[2023-11-04 23:10:24.847] $GPGSV,1,1,04,31,,,37,16,,,31,20,,,29,18,,,34,0*65
[2023-11-04 23:10:24.898] $GLGSV,2,1,05,85,,,,81,,,,76,,,,75,,,,1*79
[2023-11-04 23:10:24.948] $GLGSV,2,2,05,74,,,,1*7E
[2023-11-04 23:10:24.979] $GPGLL,,,,,235953.398,V,N*73
[2023-11-04 23:10:25.008] $GPTXT,01,01,02,ANTSTATUS=OPEN*2B
[2023-11-04 23:10:25.410] $GPRMC,235954.131,V,,,,,0.00,0.00,050180,,,N,V*34
[2023-11-04 23:10:25.458] $GPVTG,0.00,T,,M,0.00,N,0.00,K,N*32
[2023-11-04 23:10:25.500] $GPGGA,235954.131,,,,,0,0,,,M,,M,,*47
[2023-11-04 23:10:25.541] $GPGSA,A,1,,,,,,,,,,,,,,,,1*03
[2023-11-04 23:10:25.570] $GPGSA,A,1,,,,,,,,,,,,,,,,2*00
[2023-11-04 23:10:25.607] $GPGSV,1,1,04,31,,,37,16,,,31,20,,,29,18,,,33,0*62
[2023-11-04 23:10:25.661] $GLGSV,2,1,05,85,,,,81,,,,76,,,,75,,,,1*79
[2023-11-04 23:10:25.705] $GLGSV,2,2,05,74,,,,1*7E
[2023-11-04 23:10:25.733] $GPGLL,,,,,235954.131,V,N*75
[2023-11-04 23:10:25.764] $GPTXT,01,01,02,ANTSTATUS=OPEN*2B
[2023-11-04 23:10:26.386] $GPRMC,235955.131,V,,,,,0.00,0.00,050180,,,N,V*35
[2023-11-04 23:10:26.438] $GPVTG,0.00,T,,M,0.00,N,0.00,K,N*32
[2023-11-04 23:10:26.474] $GPGGA,235955.131,,,,,0,0,,,M,,M,,*46
[2023-11-04 23:10:26.515] $GPGSA,A,1,,,,,,,,,,,,,,,,1*03
[2023-11-04 23:10:26.545] $GPGSA,A,1,,,,,,,,,,,,,,,,2*00
[2023-11-04 23:10:26.582] $GPGSV,1,1,04,31,,,37,16,,,31,20,,,31,18,,,34,0*6C
[2023-11-04 23:10:26.636] $GLGSV,2,1,05,85,,,,81,,,,76,,,,75,,,,1*79
[2023-11-04 23:10:26.684] $GLGSV,2,2,05,74,,,,1*7E
[2023-11-04 23:10:26.711] $GPGLL,,,,,235955.131,V,N*74
[2023-11-04 23:10:26.741] $GPTXT,01,01,02,ANTSTATUS=OPEN*2B
[2023-11-04 23:10:27.431] $GPRMC,221026.091,V,,,,,0.00,0.00,041123,,,N,V*3F
[2023-11-04 23:10:27.484] $GPVTG,0.00,T,,M,0.00,N,0.00,K,N*32
[2023-11-04 23:10:27.523] $GPGGA,221026.091,,,,,0,0,,,M,,M,,*45
[2023-11-04 23:10:27.564] $GPGSA,A,1,,,,,,,,,,,,,,,,1*03
[2023-11-04 23:10:27.595] $GPGSA,A,1,,,,,,,,,,,,,,,,2*00
[2023-11-04 23:10:27.630] $GPGSV,2,1,06,18,59,194,34,29,59,078,,31,33,246,37,16,29,305,31,0*68
[2023-11-04 23:10:27.704] $GPGSV,2,2,06,20,17,038,30,09,02,339,,0*6D
[2023-11-04 23:10:27.749] $GLGSV,2,1,05,85,,,,81,,,,76,,,,75,,,,1*79
[2023-11-04 23:10:27.798] $GLGSV,2,2,05,74,,,,1*7E
[2023-11-04 23:10:27.823] $GPGLL,,,,,221026.091,V,N*77
[2023-11-04 23:10:27.852] $GPTXT,01,01,02,ANTSTATUS=OPEN*2B
[2023-11-04 23:10:28.412] $GPRMC,221027.091,V,,,,,0.01,0.00,041123,,,N,V*3F
[2023-11-04 23:10:28.461] $GPVTG,0.00,T,,M,0.01,N,0.01,K,N*32
[2023-11-04 23:10:28.491] $GPGGA,221027.091,,,,,0,0,,,M,,M,,*44
[2023-11-04 23:10:28.539] $GPGSA,A,1,,,,,,,,,,,,,,,,1*03
[2023-11-04 23:10:28.575] $GPGSA,A,1,,,,,,,,,,,,,,,,2*00
[2023-11-04 23:10:28.605] $GPGSV,2,1,06,29,59,078,,31,33,246,37,16,29,305,31,09,02,339,,0*64
[2023-11-04 23:10:28.695] $GPGSV,2,2,06,20,,,29,18,,,34,0*64
[2023-11-04 23:10:28.708] $GLGSV,2,1,05,85,,,,81,,,,76,,,,75,,,,1*79
[2023-11-04 23:10:28.760] $GLGSV,2,2,05,74,,,,1*7E
[2023-11-04 23:10:28.787] $GPGLL,,,,,221027.091,V,N*76
[2023-11-04 23:10:28.820] $GPTXT,01,01,02,ANTSTATUS=OPEN*2B
[2023-11-04 23:10:29.421] $GPRMC,221028.091,V,,,,,0.14,0.00,041123,,,N,V*34
[2023-11-04 23:10:29.477] $GPVTG,0.00,T,,M,0.14,N,0.26,K,N*33
[2023-11-04 23:10:29.512] $GPGGA,221028.091,,,,,0,0,,,M,,M,,*4B
[2023-11-04 23:10:29.554] $GPGSA,A,1,,,,,,,,,,,,,,,,1*03
[2023-11-04 23:10:29.588] $GPGSA,A,1,,,,,,,,,,,,,,,,2*00
[2023-11-04 23:10:29.621] $GPGSV,2,1,06,18,59,194,34,29,59,078,,31,33,246,37,16,29,305,30,0*69
[2023-11-04 23:10:29.693] $GPGSV,2,2,06,20,17,038,29,09,02,339,,0*65
[2023-11-04 23:10:29.739] $GLGSV,2,1,05,85,,,,81,,,,76,,,,75,,,,1*79
[2023-11-04 23:10:29.786] $GLGSV,2,2,05,74,,,,1*7E
[2023-11-04 23:10:29.813] $GPGLL,,,,,221028.091,V,N*79
[2023-11-04 23:10:29.845] $GPTXT,01,01,02,ANTSTATUS=OPEN*2B
[2023-11-04 23:10:30.422] $GPRMC,221029.091,V,,,,,0.19,0.00,041123,,,N,V*38
[2023-11-04 23:10:30.480] $GPVTG,0.00,T,,M,0.19,N,0.35,K,N*3C
[2023-11-04 23:10:30.518] $GPGGA,221029.091,,,,,0,0,,,M,,M,,*4A
[2023-11-04 23:10:30.553] $GPGSA,A,1,,,,,,,,,,,,,,,,1*03
[2023-11-04 23:10:30.593] $GPGSA,A,1,,,,,,,,,,,,,,,,2*00
[2023-11-04 23:10:30.628] $GPGSV,2,1,06,18,59,194,34,29,59,078,18,31,33,246,37,16,29,305,30,0*60
[2023-11-04 23:10:30.697] $GPGSV,2,2,06,20,17,038,,09,02,339,,0*6E
[2023-11-04 23:10:30.739] $GLGSV,2,1,05,85,,,,81,,,,76,,,,75,,,,1*79
[2023-11-04 23:10:30.786] $GLGSV,2,2,05,74,,,,1*7E
[2023-11-04 23:10:30.817] $GPGLL,,,,,221029.091,V,N*78
[2023-11-04 23:10:30.843] $GPTXT,01,01,02,ANTSTATUS=OPEN*2B
[2023-11-04 23:10:31.456] $GNRMC,221030.091,A,5216.6955,N,02048.5514,E,0.53,0.00,041123,,,A,V*07
[2023-11-04 23:10:31.537] $GPVTG,0.00,T,,M,0.53,N,0.98,K,A*3A
[2023-11-04 23:10:31.580] $GPGGA,221030.091,5216.6955,N,02048.5514,E,1,3,2.94,62.9,M,39.0,M,,*69
[2023-11-04 23:10:31.652] $GNGSA,A,2,31,16,18,,,,,,,,,,3.10,2.94,1.00,1*00
[2023-11-04 23:10:31.703] $GNGSA,A,2,,,,,,,,,,,,,3.10,2.94,1.00,2*0F
[2023-11-04 23:10:31.745] $GPGSV,2,1,06,18,59,194,34,29,59,078,19,31,33,246,37,16,29,305,30,0*61
[2023-11-04 23:10:31.830] $GPGSV,2,2,06,20,17,038,30,09,02,339,,0*6D
[2023-11-04 23:10:31.869] $GLGSV,2,1,05,85,,,,81,,,,76,,,,75,,,,1*79
[2023-11-04 23:10:31.916] $GLGSV,2,2,05,74,,,,1*7E
[2023-11-04 23:10:31.944] $GNGLL,5216.6955,N,02048.5514,E,221030.091,A,A*49
[2023-11-04 23:10:31.998] $$$$$$$$$$$$$$$$$$$$$$$$$$$$
[2023-11-04 23:10:59.329] Hello TSAT_P_P_001
[2023-11-04 23:10:59.329] 
[2023-11-04 23:10:59.329] 2000.01.01 00:00:00
[2023-11-04 23:10:59.329] Message sent to the Astronode --> 
[2023-11-04 23:10:59.347] 05070007F2CD
[2023-11-04 23:11:00.909] ERROR : Received answer timeout..
[2023-11-04 23:11:04.150] Message sent to the Astronode --> 
[2023-11-04 23:11:04.166] 05070007F2CD
[2023-11-04 23:11:04.182] Message received from the Astronode <-- 
[2023-11-04 23:11:04.182] 85DD20
[2023-11-04 23:11:04.197] Astronode configuration successfully set.
[2023-11-04 23:11:07.436] Message sent to the Astronode --> 
[2023-11-04 23:11:07.446] 10C1F3
[2023-11-04 23:11:07.460] Message received from the Astronode <-- 
[2023-11-04 23:11:07.468] 904962
[2023-11-04 23:11:07.478] Astronode configuration successfully saved in NVM.
[2023-11-04 23:11:07.478] Message sent to the Astronode --> 
[2023-11-04 23:11:07.485] 1BAA42
[2023-11-04 23:11:07.524] Message received from the Astronode <-- 
[2023-11-04 23:11:07.536] 9B41535435303134372D30310000000000D272
[2023-11-04 23:11:07.543] Module's product number is:
[2023-11-04 23:11:07.543] AST50147-01
[2023-11-04 23:11:07.543] Message sent to the Astronode --> 
[2023-11-04 23:11:07.548] 1A8B52
[2023-11-04 23:11:07.588] Message received from the Astronode <-- 
[2023-11-04 23:11:07.588] 9A414E5332323132464C303030303235310969
[2023-11-04 23:11:07.603] Module's Serial Number is:
[2023-11-04 23:11:07.603] ANS2212FL000025
[2023-11-04 23:11:07.615] Message sent to the Astronode --> 
[2023-11-04 23:11:07.615] 19E862
[2023-11-04 23:11:07.698] Message received from the Astronode <-- 
[2023-11-04 23:11:07.698] 9965376139653565612D353039662D343836342D393337332D6264323963386433383966338D64
[2023-11-04 23:11:07.715] Module GUID is:
[2023-11-04 23:11:07.715] e7a9e5ea-509f-4864-9373-bd29c8d389f
[2023-11-04 23:11:07.715] Message sent to the Astronode --> 
[2023-11-04 23:11:07.715] 2775B5
[2023-11-04 23:11:07.733] Message received from the Astronode <-- 
[2023-11-04 23:11:07.749] FF01266A74
[2023-11-04 23:11:07.749] [ERROR] BUFFER_EMPTY : Failed to dequeue a payload from the buffer because the buffer is empty.
[2023-11-04 23:11:07.762] astronode_application: Failed to clear the payload queue.
[2023-11-04 23:11:09.538] $PMTK011,MTKGPS*08
[2023-11-04 23:11:09.561] $PMTK010,001*2E
[2023-11-04 23:11:10.334] $PMTK011,MTKGPS*08
[2023-11-04 23:11:10.363] $PMTK010,002*2D
[2023-11-04 23:11:10.379] $GPRMC,235943.100,V,,,,,0.00,0.00,050180,,,N,V*30
[2023-11-04 23:11:10.428] $GPVTG,0.00,T,,M,0.00,N,0.00,K,N*32
[2023-11-04 23:11:10.464] $GPGGA,235943.100,,,,,0,0,,,M,,M,,*43
[2023-11-04 23:11:10.508] $GPGSA,A,1,,,,,,,,,,,,,,,,1*03
[2023-11-04 23:11:10.541] $GPGSA,A,1,,,,,,,,,,,,,,,,2*00
[2023-11-04 23:11:10.575] $GPGSV,1,1,00,0*65
[2023-11-04 23:11:10.594] $GLGSV,1,1,02,74,,,,81,,,,1*70
[2023-11-04 23:11:10.628] $GPGLL,,,,,235943.100,V,N*71
[2023-11-04 23:11:10.659] $GPTXT,01,01,02,ANTSTATUS=OPEN*2B
[2023-11-04 23:11:11.372] $GPRMC,235944.100,V,,,,,0.00,0.00,050180,,,N,V*37
[2023-11-04 23:11:11.423] $GPVTG,0.00,T,,M,0.00,N,0.00,K,N*32
[2023-11-04 23:11:11.462] $GPGGA,235944.100,,,,,0,0,,,M,,M,,*44
[2023-11-04 23:11:11.503] $GPGSA,A,1,,,,,,,,,,,,,,,,1*03
[2023-11-04 23:11:11.536] $GPGSA,A,1,,,,,,,,,,,,,,,,2*00
[2023-11-04 23:11:11.570] $GPGSV,1,1,01,18,,,32,0*6C
[2023-11-04 23:11:11.598] $GLGSV,1,1,02,74,,,,81,,,,1*70
[2023-11-04 23:11:11.631] $GPGLL,,,,,235944.100,V,N*76
[2023-11-04 23:11:11.656] $GPTXT,01,01,02,ANTSTATUS=OPEN*2B
[2023-11-04 23:11:12.371] $GPRMC,235945.100,V,,,,,0.00,0.00,050180,,,N,V*36
[2023-11-04 23:11:12.428] $GPVTG,0.00,T,,M,0.00,N,0.00,K,N*32
[2023-11-04 23:11:12.459] $GPGGA,235945.100,,,,,0,0,,,M,,M,,*45
[2023-11-04 23:11:12.506] $GPGSA,A,1,,,,,,,,,,,,,,,,1*03
[2023-11-04 23:11:12.540] $GPGSA,A,1,,,,,,,,,,,,,,,,2*00
[2023-11-04 23:11:12.570] $GPGSV,1,1,01,18,,,36,0*68
[2023-11-04 23:11:12.597] $GLGSV,1,1,03,76,,,,74,,,,81,,,,1*70
[2023-11-04 23:11:12.638] $GPGLL,,,,,235945.100,V,N*77
[2023-11-04 23:11:12.665] $GPTXT,01,01,02,ANTSTATUS=OPEN*2B
[2023-11-04 23:11:13.374] $GPRMC,235946.099,V,,,,,0.00,0.00,050180,,,N,V*34
[2023-11-04 23:11:13.425] $GPVTG,0.00,T,,M,0.00,N,0.00,K,N*32
[2023-11-04 23:11:13.464] $GPGGA,235946.099,,,,,0,0,,,M,,M,,*47
[2023-11-04 23:11:13.504] $GPGSA,A,1,,,,,,,,,,,,,,,,1*03
[2023-11-04 23:11:13.537] $GPGSA,A,1,,,,,,,,,,,,,,,,2*00
[2023-11-04 23:11:13.570] $GPGSV,1,1,02,18,,,35,31,,,37,0*6E
[2023-11-04 23:11:13.610] $GLGSV,1,1,04,76,,,,74,,,,81,,,,85,,,,1*7A
[2023-11-04 23:11:13.654] $GPGLL,,,,,235946.099,V,N*75
[2023-11-04 23:11:13.686] $GPTXT,01,01,02,ANTSTATUS=OPEN*2B
[2023-11-04 23:11:14.372] $GPRMC,235947.099,V,,,,,0.00,0.00,050180,,,N,V*35
[2023-11-04 23:11:14.426] $GPVTG,0.00,T,,M,0.00,N,0.00,K,N*32
[2023-11-04 23:11:14.459] $GPGGA,235947.099,,,,,0,0,,,M,,M,,*46
[2023-11-04 23:11:14.501] $GPGSA,A,1,,,,,,,,,,,,,,,,1*03
[2023-11-04 23:11:14.538] $GPGSA,A,1,,,,,,,,,,,,,,,,2*00
[2023-11-04 23:11:14.570] $GPGSV,1,1,02,18,,,35,31,,,36,0*6F
[2023-11-04 23:11:14.608] $GLGSV,1,1,04,76,,,,74,,,,81,,,,85,,,,1*7A
[2023-11-04 23:11:14.649] $GPGLL,,,,,235947.099,V,N*74
[2023-11-04 23:11:14.681] $GPTXT,01,01,02,ANTSTATUS=OPEN*2B
[2023-11-04 23:11:15.374] $GPRMC,235948.099,V,,,,,0.00,0.00,050180,,,N,V*3A
[2023-11-04 23:11:15.426] $GPVTG,0.00,T,,M,0.00,N,0.00,K,N*32
[2023-11-04 23:11:15.461] $GPGGA,235948.099,,,,,0,0,,,M,,M,,*49
[2023-11-04 23:11:15.506] $GPGSA,A,1,,,,,,,,,,,,,,,,1*03
[2023-11-04 23:11:15.536] $GPGSA,A,1,,,,,,,,,,,,,,,,2*00
[2023-11-04 23:11:15.571] $GPGSV,1,1,02,18,,,35,31,,,37,0*6E
[2023-11-04 23:11:15.606] $GLGSV,1,1,04,76,,,,74,,,,81,,,,85,,,,1*7A
[2023-11-04 23:11:15.646] $GPGLL,,,,,235948.099,V,N*7B
[2023-11-04 23:11:15.688] $GPTXT,01,01,02,ANTSTATUS=OPEN*2B
[2023-11-04 23:11:16.370] $GPRMC,235949.099,V,,,,,0.00,0.00,050180,,,N,V*3B
[2023-11-04 23:11:16.426] $GPVTG,0.00,T,,M,0.00,N,0.00,K,N*32
[2023-11-04 23:11:16.467] $GPGGA,235949.099,,,,,0,0,,,M,,M,,*48
[2023-11-04 23:11:16.505] $GPGSA,A,1,,,,,,,,,,,,,,,,1*03
[2023-11-04 23:11:16.537] $GPGSA,A,1,,,,,,,,,,,,,,,,2*00
[2023-11-04 23:11:16.566] $GPGSV,1,1,03,18,,,35,31,,,37,16,,,30,0*6B
[2023-11-04 23:11:16.609] $GLGSV,1,1,04,76,,,,74,,,,81,,,,85,,,,1*7A
[2023-11-04 23:11:16.658] $GPGLL,,,,,235949.099,V,N*7A
[2023-11-04 23:11:16.694] $GPTXT,01,01,02,ANTSTATUS=OPEN*2B
[2023-11-04 23:11:17.370] $GPRMC,235950.099,V,,,,,0.00,0.00,050180,,,N,V*33
[2023-11-04 23:11:17.425] $GPVTG,0.00,T,,M,0.00,N,0.00,K,N*32
[2023-11-04 23:11:17.463] $GPGGA,235950.099,,,,,0,0,,,M,,M,,*40
[2023-11-04 23:11:17.502] $GPGSA,A,1,,,,,,,,,,,,,,,,1*03
[2023-11-04 23:11:17.536] $GPGSA,A,1,,,,,,,,,,,,,,,,2*00
[2023-11-04 23:11:17.572] $GPGSV,1,1,03,18,,,35,31,,,36,16,,,30,0*6A
[2023-11-04 23:11:17.619] $GLGSV,1,1,04,76,,,,74,,,,81,,,,85,,,,1*7A
[2023-11-04 23:11:17.664] $GPGLL,,,,,235950.099,V,N*72
[2023-11-04 23:11:17.696] $GPTXT,01,01,02,ANTSTATUS=OPEN*2B
[2023-11-04 23:11:18.369] $GPRMC,235951.099,V,,,,,0.00,0.00,050180,,,N,V*32
[2023-11-04 23:11:18.424] $GPVTG,0.00,T,,M,0.00,N,0.00,K,N*32
[2023-11-04 23:11:18.464] $GPGGA,235951.099,,,,,0,0,,,M,,M,,*41
[2023-11-04 23:11:18.504] $GPGSA,A,1,,,,,,,,,,,,,,,,1*03
[2023-11-04 23:11:18.538] $GPGSA,A,1,,,,,,,,,,,,,,,,2*00
[2023-11-04 23:11:18.566] $GPGSV,1,1,03,18,,,35,31,,,36,16,,,30,0*6A
[2023-11-04 23:11:18.614] $GLGSV,1,1,04,76,,,,74,,,,81,,,,85,,,,1*7A
[2023-11-04 23:11:18.664] $GPGLL,,,,,235951.099,V,N*73
[2023-11-04 23:11:18.693] $GPTXT,01,01,02,ANTSTATUS=OPEN*2B
[2023-11-04 23:11:19.374] $GPRMC,235952.099,V,,,,,0.00,0.00,050180,,,N,V*31
[2023-11-04 23:11:19.430] $GPVTG,0.00,T,,M,0.00,N,0.00,K,N*32
[2023-11-04 23:11:19.466] $GPGGA,235952.099,,,,,0,0,,,M,,M,,*42
[2023-11-04 23:11:19.502] $GPGSA,A,1,,,,,,,,,,,,,,,,1*03
[2023-11-04 23:11:19.539] $GPGSA,A,1,,,,,,,,,,,,,,,,2*00
[2023-11-04 23:11:19.574] $GPGSV,1,1,03,18,,,35,31,,,36,16,,,32,0*68
[2023-11-04 23:11:19.613] $GLGSV,1,1,04,76,,,,74,,,,81,,,,85,,,,1*7A
[2023-11-04 23:11:19.661] $GPGLL,,,,,235952.099,V,N*70
[2023-11-04 23:11:19.693] $GPTXT,01,01,02,ANTSTATUS=OPEN*2B
[2023-11-04 23:11:19.730] $GPRMC,235952.317,V,,,,,0.00,0.00,050180,,,N,V*34
[2023-11-04 23:11:19.787] $GPVTG,0.00,T,,M,0.00,N,0.00,K,N*32
[2023-11-04 23:11:19.824] $GPGGA,235952.317,,,,,0,0,,,M,,M,,*47
[2023-11-04 23:11:19.866] $GPGSA,A,1,,,,,,,,,,,,,,,,1*03
[2023-11-04 23:11:19.898] $GPGSA,A,1,,,,,,,,,,,,,,,,2*00
[2023-11-04 23:11:19.930] $GPGSV,1,1,03,18,,,35,31,,,36,16,,,30,0*6A
[2023-11-04 23:11:19.977] $GLGSV,1,1,04,76,,,,74,,,,81,,,,85,,,,1*7A
[2023-11-04 23:11:20.024] $GPGLL,,,,,235952.317,V,N*75
[2023-11-04 23:11:20.055] $GPTXT,01,01,02,ANTSTATUS=OPEN*2B
[2023-11-04 23:11:20.584] $GPRMC,235953.317,V,,,,,0.00,0.00,050180,,,N,V*35
[2023-11-04 23:11:20.646] $GPVTG,0.00,T,,M,0.00,N,0.00,K,N*32
[2023-11-04 23:11:20.675] $GPGGA,235953.317,,,,,0,0,,,M,,M,,*46
[2023-11-04 23:11:20.721] $GPGSA,A,1,,,,,,,,,,,,,,,,1*03
[2023-11-04 23:11:20.755] $GPGSA,A,1,,,,,,,,,,,,,,,,2*00
[2023-11-04 23:11:20.785] $GPGSV,1,1,03,18,,,36,31,,,36,16,,,30,0*69
[2023-11-04 23:11:20.833] $GLGSV,1,1,04,76,,,,74,,,,81,,,,85,,,,1*7A
[2023-11-04 23:11:20.880] $GPGLL,,,,,235953.317,V,N*74
[2023-11-04 23:11:20.911] $GPTXT,01,01,02,ANTSTATUS=OPEN*2B
[2023-11-04 23:11:21.639] $GPRMC,221120.297,V,,,,,0.02,0.00,041123,,,N,V*3E
[2023-11-04 23:11:21.690] $GPVTG,0.00,T,,M,0.02,N,0.03,K,N*33
[2023-11-04 23:11:21.728] $GPGGA,221120.297,,,,,0,0,,,M,,M,,*46
[2023-11-04 23:11:21.772] $GPGSA,A,1,,,,,,,,,,,,,,,,1*03
[2023-11-04 23:11:21.803] $GPGSA,A,1,,,,,,,,,,,,,,,,2*00
[2023-11-04 23:11:21.837] $GPGSV,2,1,06,18,59,194,36,29,59,078,,31,33,245,36,16,29,305,30,0*69
[2023-11-04 23:11:21.906] $GPGSV,2,2,06,20,16,037,,09,02,339,,0*60
[2023-11-04 23:11:21.946] $GLGSV,1,1,04,76,,,,74,,,,81,,,,85,,,,1*7A
[2023-11-04 23:11:21.997] $GPGLL,,,,,221120.297,V,N*74
[2023-11-04 23:11:22.031] $GPTXT,01,01,02,ANTSTATUS=OPEN*2B
[2023-11-04 23:11:22.617] $GPRMC,221121.297,V,,,,,0.01,0.00,041123,,,N,V*3C
[2023-11-04 23:11:22.667] $GPVTG,0.00,T,,M,0.01,N,0.02,K,N*31
[2023-11-04 23:11:22.708] $GPGGA,221121.297,,,,,0,0,,,M,,M,,*47
[2023-11-04 23:11:22.747] $GPGSA,A,1,,,,,,,,,,,,,,,,1*03
[2023-11-04 23:11:22.779] $GPGSA,A,1,,,,,,,,,,,,,,,,2*00
[2023-11-04 23:11:22.818] $GPGSV,2,1,07,29,59,078,,31,33,245,36,16,29,305,30,09,02,339,,0*66
[2023-11-04 23:11:22.886] $GPGSV,2,2,07,18,,,36,26,,,29,20,,,30,0*60
[2023-11-04 23:11:22.933] $GLGSV,1,1,04,76,,,,74,,,,81,,,,85,,,,1*7A
[2023-11-04 23:11:22.979] $GPGLL,,,,,221121.297,V,N*75
[2023-11-04 23:11:23.006] $GPTXT,01,01,02,ANTSTATUS=OPEN*2B
[2023-11-04 23:11:23.647] $GPRMC,221122.297,V,,,,,0.38,0.00,041123,,,N,V*35
[2023-11-04 23:11:23.700] $GPVTG,0.00,T,,M,0.38,N,0.71,K,N*3F
[2023-11-04 23:11:23.738] $GPGGA,221122.297,,,,,0,0,,,M,,M,,*44
[2023-11-04 23:11:23.780] $GPGSA,A,1,,,,,,,,,,,,,,,,1*03
[2023-11-04 23:11:23.813] $GPGSA,A,1,,,,,,,,,,,,,,,,2*00
[2023-11-04 23:11:23.847] $GPGSV,2,1,07,18,59,194,36,29,59,078,21,31,33,245,36,16,29,305,30,0*6B
[2023-11-04 23:11:23.923] $GPGSV,2,2,07,20,16,037,31,09,02,339,,26,,,29,0*6C
[2023-11-04 23:11:23.977] $GLGSV,1,1,04,76,,,,74,,,,81,,,,85,,,,1*7A
[2023-11-04 23:11:24.023] $GPGLL,,,,,221122.297,V,N*76
[2023-11-04 23:11:24.054] $GPTXT,01,01,02,ANTSTATUS=OPEN*2B
[2023-11-04 23:11:24.636] $GNRMC,221123.297,A,5216.6988,N,02048.5447,E,0.43,0.00,041123,,,A,V*06
[2023-11-04 23:11:24.708] $GPVTG,0.00,T,,M,0.43,N,0.80,K,A*32
[2023-11-04 23:11:24.748] $GPGGA,221123.297,5216.6988,N,02048.5447,E,1,3,2.91,69.4,M,39.0,M,,*6A
[2023-11-04 23:11:24.823] $GNGSA,A,2,18,31,16,,,,,,,,,,3.08,2.91,1.00,1*0C
[2023-11-04 23:11:24.876] $GNGSA,A,2,,,,,,,,,,,,,3.08,2.91,1.00,2*03
[2023-11-04 23:11:24.920] $GPGSV,2,1,07,18,59,194,36,29,59,078,21,31,33,245,36,16,29,305,30,0*6B
[2023-11-04 23:11:24.996] $GPGSV,2,2,07,20,16,037,30,09,02,339,,26,,,29,0*6D
[2023-11-04 23:11:25.050] $GLGSV,1,1,04,76,,,,74,,,,81,,,,85,,,,1*7A
[2023-11-04 23:11:25.094] $GNGLL,5216.6988,N,02048.5447,E,221123.297,A,A*49
[2023-11-04 23:11:25.148] $$$$$$$$$$$$$$$$$$$$$$$$$$$$$$$$$$$$$$$$$$$$NMEA coordinates: 52.278313,20.809078
[2023-11-04 23:12:08.043] Astronode payload: ,60,60
[2023-11-04 23:12:08.051] Message sent to the Astronode --> 
[2023-11-04 23:12:08.051] 2500002C36302C3630EC71
[2023-11-04 23:12:08.082] Message received from the Astronode <-- 
[2023-11-04 23:12:08.097] A50000F09A
[2023-11-04 23:12:08.097] astronode_application: payload 0 queued.
[2023-11-04 23:12:08.105] my_astro: evt pin is high.
[2023-11-04 23:12:08.105] Message sent to the Astronode --> 
[2023-11-04 23:12:08.105] 65F3DD
[2023-11-04 23:12:08.114] Message received from the Astronode <-- 
[2023-11-04 23:12:08.130] E50A0253
[2023-11-04 23:12:08.130] Astronode has reset.
[2023-11-04 23:12:08.130] TX message pending.
[2023-11-04 23:12:08.138] my_astro: terminal has been reset.
[2023-11-04 23:12:08.138] Message sent to the Astronode --> 
[2023-11-04 23:12:08.148] 55A0EB
[2023-11-04 23:12:08.153] Message received from the Astronode <-- 
[2023-11-04 23:12:08.161] D5287A
[2023-11-04 23:12:08.161] astronode_application: The reset has been cleared.
[2023-11-04 23:13:07.910] Message sent to the Astronode --> 
[2023-11-04 23:13:07.910] 172683
[2023-11-04 23:13:07.936] Message received from the Astronode <-- 
[2023-11-04 23:13:07.942] 97000000005250
[2023-11-04 23:13:07.954] RTC time since Astrocast Epoch (2018-01-01 00:00:00 UTC): 0s.
[2023-11-04 23:13:07.961] Message sent to the Astronode --> 
[2023-11-04 23:13:07.961] 18C972
[2023-11-04 23:13:07.973] Message received from the Astronode <-- 
[2023-11-04 23:13:07.995] 9800000000AB35
[2023-11-04 23:13:07.995] Next opportunity for communication with the Astrocast Network: 0s.
[2023-11-04 23:13:08.005] Message sent to the Astronode --> 
[2023-11-04 23:13:08.005] 2500002C36302C3630EC71
[2023-11-04 23:13:08.036] Message received from the Astronode <-- 
[2023-11-04 23:13:08.044] FF11257A47
[2023-11-04 23:13:08.052] [ERROR] DUPLICATE_ID : Failed to queue the payload because the Payload ID provided by the asset is already in use in the Astronode queue.
[2023-11-04 23:13:08.058] astronode_application: payload 0 not queued.
[2023-11-04 23:14:07.811] Message sent to the Astronode --> 
[2023-11-04 23:14:07.811] 172683
[2023-11-04 23:14:07.843] Message received from the Astronode <-- 
[2023-11-04 23:14:07.843] 97000000005250
[2023-11-04 23:14:07.843] RTC time since Astrocast Epoch (2018-01-01 00:00:00 UTC): 0s.
[2023-11-04 23:14:07.861] Message sent to the Astronode --> 
[2023-11-04 23:14:07.861] 18C972
[2023-11-04 23:14:07.883] Message received from the Astronode <-- 
[2023-11-04 23:14:07.892] 9800000000AB35
[2023-11-04 23:14:07.892] Next opportunity for communication with the Astrocast Network: 0s.
[2023-11-04 23:14:07.902] Message sent to the Astronode --> 
[2023-11-04 23:14:07.907] 2500002C36302C3630EC71
[2023-11-04 23:14:07.939] Message received from the Astronode <-- 
[2023-11-04 23:14:07.954] FF11257A47
[2023-11-04 23:14:07.954] [ERROR] DUPLICATE_ID : Failed to queue the payload because the Payload ID provided by the asset is already in use in the Astronode queue.
[2023-11-04 23:14:07.954] astronode_application: payload 0 not queued.
[2023-11-04 23:15:07.723] Message sent to the Astronode --> 
[2023-11-04 23:15:07.723] 172683
[2023-11-04 23:15:07.753] Message received from the Astronode <-- 
[2023-11-04 23:15:07.753] 97000000005250
[2023-11-04 23:15:07.769] RTC time since Astrocast Epoch (2018-01-01 00:00:00 UTC): 0s.
[2023-11-04 23:15:07.769] Message sent to the Astronode --> 
[2023-11-04 23:15:07.769] 18C972
[2023-11-04 23:15:07.786] Message received from the Astronode <-- 
[2023-11-04 23:15:07.800] 9800000000AB35
[2023-11-04 23:15:07.800] Next opportunity for communication with the Astrocast Network: 0s.
[2023-11-04 23:15:07.816] Message sent to the Astronode --> 
[2023-11-04 23:15:07.816] 2500002C36302C3630EC71
[2023-11-04 23:15:07.847] Message received from the Astronode <-- 
[2023-11-04 23:15:07.853] FF11257A47
[2023-11-04 23:15:07.853] [ERROR] DUPLICATE_ID : Failed to queue the payload because the Payload ID provided by the asset is already in use in the Astronode queue.
[2023-11-04 23:15:07.884] astronode_application: payload 0 not queued.
[2023-11-04 23:16:07.646] Message sent to the Astronode --> 
[2023-11-04 23:16:07.646] 172683
[2023-11-04 23:16:07.674] Message received from the Astronode <-- 
[2023-11-04 23:16:07.687] 97000000005250
[2023-11-04 23:16:07.687] RTC time since Astrocast Epoch (2018-01-01 00:00:00 UTC): 0s.
[2023-11-04 23:16:07.687] Message sent to the Astronode --> 
[2023-11-04 23:16:07.697] 18C972
[2023-11-04 23:16:07.713] Message received from the Astronode <-- 
[2023-11-04 23:16:07.723] 9800000000AB35
[2023-11-04 23:16:07.723] Next opportunity for communication with the Astrocast Network: 0s.
[2023-11-04 23:16:07.738] Message sent to the Astronode --> 
[2023-11-04 23:16:07.738] 2500002C36302C3630EC71
[2023-11-04 23:16:07.769] Message received from the Astronode <-- 
[2023-11-04 23:16:07.779] FF11257A47
[2023-11-04 23:16:07.779] [ERROR] DUPLICATE_ID : Failed to queue the payload because the Payload ID provided by the asset is already in use in the Astronode queue.
[2023-11-04 23:16:07.807] astronode_application: payload 0 not queued.
[2023-11-04 23:17:07.554] Message sent to the Astronode --> 
[2023-11-04 23:17:07.569] 172683
[2023-11-04 23:17:07.593] Message received from the Astronode <-- 
[2023-11-04 23:17:07.603] 97000000005250
[2023-11-04 23:17:07.606] RTC time since Astrocast Epoch (2018-01-01 00:00:00 UTC): 0s.
[2023-11-04 23:17:07.606] Message sent to the Astronode --> 
[2023-11-04 23:17:07.610] 18C972
[2023-11-04 23:17:07.635] Message received from the Astronode <-- 
[2023-11-04 23:17:07.635] 9800000000AB35
[2023-11-04 23:17:07.635] Next opportunity for communication with the Astrocast Network: 0s.
[2023-11-04 23:17:07.651] Message sent to the Astronode --> 
[2023-11-04 23:17:07.651] 2500002C36302C3630EC71
[2023-11-04 23:17:07.681] Message received from the Astronode <-- 
[2023-11-04 23:17:07.700] FF11257A47
[2023-11-04 23:17:07.700] [ERROR] DUPLICATE_ID : Failed to queue the payload because the Payload ID provided by the asset is already in use in the Astronode queue.
[2023-11-04 23:17:07.716] astronode_application: payload 0 not queued.
[2023-11-04 23:17:42.272] my_astro: evt pin is high.
[2023-11-04 23:17:42.292] Message sent to the Astronode --> 
[2023-11-04 23:17:42.292] 65F3DD
[2023-11-04 23:17:42.304] Message received from the Astronode <-- 
[2023-11-04 23:17:42.315] E50DE523
[2023-11-04 23:17:42.315] Message acknowledgment available.
[2023-11-04 23:17:42.320] Command available.
[2023-11-04 23:17:42.320] TX message pending.
[2023-11-04 23:17:42.327] Message sent to the Astronode --> 
[2023-11-04 23:17:42.327] 4591F9
[2023-11-04 23:17:42.345] Message received from the Astronode <-- 
[2023-11-04 23:17:42.353] C500009B01
[2023-11-04 23:17:42.360] Acknowledgment for payload 0 is available.
[2023-11-04 23:17:42.360] Message sent to the Astronode --> 
[2023-11-04 23:17:42.360] 46F2C9
[2023-11-04 23:17:42.373] Message received from the Astronode <-- 
[2023-11-04 23:17:42.383] C67A58
[2023-11-04 23:17:42.383] The acknowledgment has been cleared.
[2023-11-04 23:17:42.392] my_astro: message has been acknowledged.
[2023-11-04 23:17:42.392] my_astro: unicast command is available
[2023-11-04 23:17:42.405] Message sent to the Astronode --> 
[2023-11-04 23:17:42.405] 47D3D9
[2023-11-04 23:17:42.493] Message received from the Astronode <-- 
[2023-11-04 23:17:42.512] C765A2FC0A323032332E31312E30342E31312E32365554432B31000000000000000000000000000000000000007F4D
[2023-11-04 23:17:42.526] Received downlink command
[2023-11-04 23:17:42.526] Command created date, Ref is astrocast Epoch (2018-01-01 00:00:00 UTC): 184328805s.
[2023-11-04 23:17:42.526] Command content is: 
[2023-11-04 23:17:42.526] 2023.11.04.11.26UTC+1 
[2023-11-04 23:17:42.546] Message sent to the Astronode --> 
[2023-11-04 23:17:42.546] 483C28
[2023-11-04 23:17:42.552] Message received from the Astronode <-- 
[2023-11-04 23:17:42.562] C8B4B9
[2023-11-04 23:17:42.562] The command ack has been cleared.
[2023-11-04 23:18:07.486] Message sent to the Astronode --> 
[2023-11-04 23:18:07.486] 172683
[2023-11-04 23:18:07.514] Message received from the Astronode <-- 
[2023-11-04 23:18:07.532] 971C49FD0A2C43
[2023-11-04 23:18:07.532] RTC time since Astrocast Epoch (2018-01-01 00:00:00 UTC): 184371484s.
[2023-11-04 23:18:07.538] Message sent to the Astronode --> 
[2023-11-04 23:18:07.538] 18C972
[2023-11-04 23:18:07.560] Message received from the Astronode <-- 
[2023-11-04 23:18:07.567] 9800000000AB35
[2023-11-04 23:18:07.567] Next opportunity for communication with the Astrocast Network: 0s.
[2023-11-04 23:18:07.577] Message sent to the Astronode --> 
[2023-11-04 23:18:07.577] 2500002C36302C3630EC71
[2023-11-04 23:18:07.610] Message received from the Astronode <-- 
[2023-11-04 23:18:07.619] A50000F09A
[2023-11-04 23:18:07.627] astronode_application: payload 0 queued.
[2023-11-04 23:18:17.325] my_astro: evt pin is high.
[2023-11-04 23:18:17.325] Message sent to the Astronode --> 
[2023-11-04 23:18:17.341] 65F3DD
[2023-11-04 23:18:17.348] Message received from the Astronode <-- 
[2023-11-04 23:18:17.358] E50169E2
[2023-11-04 23:18:17.365] Message acknowledgment available.
[2023-11-04 23:18:17.365] Message sent to the Astronode --> 
[2023-11-04 23:18:17.372] 4591F9
[2023-11-04 23:18:17.382] Message received from the Astronode <-- 
[2023-11-04 23:18:17.388] C500009B01
[2023-11-04 23:18:17.400] Acknowledgment for payload 0 is available.
[2023-11-04 23:18:17.400] Message sent to the Astronode --> 
[2023-11-04 23:18:17.407] 46F2C9
[2023-11-04 23:18:17.417] Message received from the Astronode <-- 
[2023-11-04 23:18:17.427] C67A58
[2023-11-04 23:18:17.427] The acknowledgment has been cleared.
[2023-11-04 23:18:17.433] my_astro: message has been acknowledged.
[2023-11-04 23:19:07.409] Message sent to the Astronode --> 
[2023-11-04 23:19:07.416] 172683
[2023-11-04 23:19:07.435] Message received from the Astronode <-- 
[2023-11-04 23:19:07.447] 975749FD0AAF33
[2023-11-04 23:19:07.455] RTC time since Astrocast Epoch (2018-01-01 00:00:00 UTC): 184371543s.
[2023-11-04 23:19:07.462] Message sent to the Astronode --> 
[2023-11-04 23:19:07.462] 18C972
[2023-11-04 23:19:07.481] Message received from the Astronode <-- 
[2023-11-04 23:19:07.488] 9800000000AB35
[2023-11-04 23:19:07.495] Next opportunity for communication with the Astrocast Network: 0s.
[2023-11-04 23:19:07.502] Message sent to the Astronode --> 
[2023-11-04 23:19:07.502] 2500002C36302C3630EC71
[2023-11-04 23:19:07.531] Message received from the Astronode <-- 
[2023-11-04 23:19:07.545] A50000F09A
[2023-11-04 23:19:07.545] astronode_application: payload 0 queued.
[2023-11-04 23:19:17.933] my_astro: evt pin is high.
[2023-11-04 23:19:17.938] Message sent to the Astronode --> 
[2023-11-04 23:19:17.946] 65F3DD
[2023-11-04 23:19:17.952] Message received from the Astronode <-- 
[2023-11-04 23:19:17.961] E50169E2
[2023-11-04 23:19:17.961] Message acknowledgment available.
[2023-11-04 23:19:17.961] Message sent to the Astronode --> 
[2023-11-04 23:19:17.961] 4591F9
[2023-11-04 23:19:17.983] Message received from the Astronode <-- 
[2023-11-04 23:19:18.005] C500009B01
[2023-11-04 23:19:18.005] Acknowledgment for payload 0 is available.
[2023-11-04 23:19:18.005] Message sent to the Astronode --> 
[2023-11-04 23:19:18.012] 46F2C9
[2023-11-04 23:19:18.017] Message received from the Astronode <-- 
[2023-11-04 23:19:18.030] C67A58
[2023-11-04 23:19:18.030] The acknowledgment has been cleared.
[2023-11-04 23:19:18.030] my_astro: message has been acknowledged.
[2023-11-04 23:20:07.333] Message sent to the Astronode --> 
[2023-11-04 23:20:07.340] 172683
[2023-11-04 23:20:07.354] Message received from the Astronode <-- 
[2023-11-04 23:20:07.367] 979349FD0AFA4A
[2023-11-04 23:20:07.367] RTC time since Astrocast Epoch (2018-01-01 00:00:00 UTC): 184371603s.
[2023-11-04 23:20:07.385] Message sent to the Astronode --> 
[2023-11-04 23:20:07.385] 18C972
[2023-11-04 23:20:07.395] Message received from the Astronode <-- 
[2023-11-04 23:20:07.409] 9800000000AB35
[2023-11-04 23:20:07.416] Next opportunity for communication with the Astrocast Network: 0s.
[2023-11-04 23:20:07.424] Message sent to the Astronode --> 
[2023-11-04 23:20:07.424] 2500002C36302C3630EC71
[2023-11-04 23:20:07.456] Message received from the Astronode <-- 
[2023-11-04 23:20:07.470] A50000F09A
[2023-11-04 23:20:07.470] astronode_application: payload 0 queued.
[2023-11-04 23:20:17.154] my_astro: evt pin is high.
[2023-11-04 23:20:17.154] Message sent to the Astronode --> 
[2023-11-04 23:20:17.170] 65F3DD
[2023-11-04 23:20:17.186] Message received from the Astronode <-- 
[2023-11-04 23:20:17.192] E50169E2
[2023-11-04 23:20:17.192] Message acknowledgment available.
[2023-11-04 23:20:17.202] Message sent to the Astronode --> 
[2023-11-04 23:20:17.202] 4591F9
[2023-11-04 23:20:17.217] Message received from the Astronode <-- 
[2023-11-04 23:20:17.234] C500009B01
[2023-11-04 23:20:17.234] Acknowledgment for payload 0 is available.
[2023-11-04 23:20:17.234] Message sent to the Astronode --> 
[2023-11-04 23:20:17.234] 46F2C9
[2023-11-04 23:20:17.250] Message received from the Astronode <-- 
[2023-11-04 23:20:17.255] C67A58
[2023-11-04 23:20:17.255] The acknowledgment has been cleared.
[2023-11-04 23:20:17.265] my_astro: message has been acknowledged.
[2023-11-04 23:21:07.261] Message sent to the Astronode --> 
[2023-11-04 23:21:07.269] 172683
[2023-11-04 23:21:07.284] Message received from the Astronode <-- 
[2023-11-04 23:21:07.301] 97CF49FD0AF370
[2023-11-04 23:21:07.301] RTC time since Astrocast Epoch (2018-01-01 00:00:00 UTC): 184371663s.
[2023-11-04 23:21:07.301] Message sent to the Astronode --> 
[2023-11-04 23:21:07.316] 18C972
[2023-11-04 23:21:07.332] Message received from the Astronode <-- 
[2023-11-04 23:21:07.336] 9800000000AB35
[2023-11-04 23:21:07.350] Next opportunity for communication with the Astrocast Network: 0s.
[2023-11-04 23:21:07.354] Message sent to the Astronode --> 
[2023-11-04 23:21:07.354] 2500002C36302C3630EC71
[2023-11-04 23:21:07.380] Message received from the Astronode <-- 
[2023-11-04 23:21:07.395] A50000F09A
[2023-11-04 23:21:07.403] astronode_application: payload 0 queued.
[2023-11-04 23:22:07.189] Message sent to the Astronode --> 
[2023-11-04 23:22:07.189] 172683
[2023-11-04 23:22:07.221] Message received from the Astronode <-- 
[2023-11-04 23:22:07.230] 970B4AFD0AF650
[2023-11-04 23:22:07.230] RTC time since Astrocast Epoch (2018-01-01 00:00:00 UTC): 184371723s.
[2023-11-04 23:22:07.241] Message sent to the Astronode --> 
[2023-11-04 23:22:07.254] 18C972
[2023-11-04 23:22:07.260] Message received from the Astronode <-- 
[2023-11-04 23:22:07.276] 9800000000AB35
[2023-11-04 23:22:07.276] Next opportunity for communication with the Astrocast Network: 0s.
[2023-11-04 23:22:07.284] Message sent to the Astronode --> 
[2023-11-04 23:22:07.289] 2500002C36302C3630EC71
[2023-11-04 23:22:07.316] Message received from the Astronode <-- 
[2023-11-04 23:22:07.316] FF11257A47
[2023-11-04 23:22:07.336] [ERROR] DUPLICATE_ID : Failed to queue the payload because the Payload ID provided by the asset is already in use in the Astronode queue.
[2023-11-04 23:22:07.345] astronode_application: payload 0 not queued.
[2023-11-04 23:23:07.131] Message sent to the Astronode --> 
[2023-11-04 23:23:07.135] 172683
[2023-11-04 23:23:07.155] Message received from the Astronode <-- 
