
[2023-10-29 22:46:55.606] Hello TSAT_P_P_001
[2023-10-29 22:46:57.218] Hello TSAT_P_P_001
[2023-10-29 22:46:57.677] $PMTK011,MTKGPS*08
[2023-10-29 22:46:57.699] 
[2023-10-29 22:46:57.699] $PMTK010,001*2E
[2023-10-29 22:46:57.716] 
[2023-10-29 22:46:58.478] $PMTK011,MTKGPS*08
[2023-10-29 22:46:58.499] 
[2023-10-29 22:46:58.499] $PMTK010,002*2D
[2023-10-29 22:46:58.516] 
[2023-10-29 22:46:58.564] $GPRMC,214658.750,V,,,,,0.00,0.00,291023,,,N,V*32
[2023-10-29 22:46:58.618] 
[2023-10-29 22:46:58.618] $GPVTG,0.00,T,,M,0.00,N,0.00,K,N*32
[2023-10-29 22:46:58.657] 
[2023-10-29 22:46:58.657] $GPGGA,214658.750,,,,,0,0,,,M,,M,,*46
[2023-10-29 22:46:58.701] 
[2023-10-29 22:46:58.701] $GPGSA,A,1,,,,,,,,,,,,,,,,1*03
[2023-10-29 22:46:58.730] 
[2023-10-29 22:46:58.730] $GPGSA,A,1,,,,,,,,,,,,,,,,2*00
[2023-10-29 22:46:58.763] 
[2023-10-29 22:46:58.763] $GPGSV,4,1,13,29,81,057,,25,43,137,,31,42,271,,28,39,237,,0*61
[2023-10-29 22:46:58.829] 
[2023-10-29 22:46:58.832] $GPGSV,4,2,13,26,35,299,,18,35,194,,05,27,094,30,20,25,056,,0*6A
[2023-10-29 22:46:58.899] 
[2023-10-29 22:46:58.902] $GPGSV,4,3,13,11,12,042,,16,09,302,,04,07,328,,12,07,126,,0*61
[2023-10-29 22:46:58.965] 
[2023-10-29 22:46:58.969] $GPGSV,4,4,13,09,03,357,,0*5C
[2023-10-29 22:46:59.004] 
[2023-10-29 22:46:59.004] $GLGSV,1,1,03,82,86,010,,80,70,186,,81,34,044,,1*40
[2023-10-29 22:46:59.055] 
[2023-10-29 22:46:59.055] $GPGLL,,,,,214658.750,V,N*74
[2023-10-29 22:46:59.084] 
[2023-10-29 22:46:59.086] $GPTXT,01,01,02,ANTSTATUS=OPEN*2B
[2023-10-29 22:46:59.121] 
[2023-10-29 22:46:59.121] $GPRMC,214658.894,V,,,,,0.00,0.00,291023,,,N,V*35
[2023-10-29 22:46:59.177] 
[2023-10-29 22:46:59.177] $GPVTG,0.00,T,,M,0.00,N,0.00,K,N*32
[2023-10-29 22:46:59.214] 
[2023-10-29 22:46:59.214] $GPGGA,214658.894,,,,,0,0,,,M,,M,,*41
[2023-10-29 22:46:59.255] 
[2023-10-29 22:46:59.255] $GPGSA,A,1,,,,,,,,,,,,,,,,1*03
[2023-10-29 22:46:59.288] 
[2023-10-29 22:46:59.288] $GPGSA,A,1,,,,,,,,,,,,,,,,2*00
[2023-10-29 22:46:59.324] 
[2023-10-29 22:46:59.324] $GPGSV,4,1,13,29,81,057,,25,43,137,,31,42,271,,28,39,237,,0*61
[2023-10-29 22:46:59.386] 
[2023-10-29 22:46:59.386] $GPGSV,4,2,13,26,35,299,,18,35,194,,05,27,094,29,20,25,056,,0*62
[2023-10-29 22:46:59.456] 
[2023-10-29 22:46:59.456] $GPGSV,4,3,13,11,12,042,,16,09,302,,04,07,328,,12,07,126,,0*61
[2023-10-29 22:46:59.528] 
[2023-10-29 22:46:59.528] $GPGSV,4,4,13,09,03,357,,0*5C
[2023-10-29 22:46:59.558] 
[2023-10-29 22:46:59.558] $GLGSV,1,1,03,82,86,010,,80,70,186,,81,34,044,,1*40
[2023-10-29 22:46:59.611] 
[2023-10-29 22:46:59.611] $GPGLL,,,,,214658.894,V,N*73
[2023-10-29 22:46:59.641] 
[2023-10-29 22:46:59.641] $GPTXT,01,01,02,ANTSTATUS=OPEN*2B
[2023-10-29 22:46:59.677] 
[2023-10-29 22:46:59.755] $GPRMC,214659.894,V,,,,,0.04,0.00,291023,,,N,V*30
[2023-10-29 22:46:59.807] 
[2023-10-29 22:46:59.809] $GPVTG,0.00,T,,M,0.04,N,0.08,K,N*3E
[2023-10-29 22:46:59.847] 
[2023-10-29 22:46:59.850] $GPGGA,214659.894,,,,,0,0,,,M,,M,,*40
[2023-10-29 22:46:59.888] 
[2023-10-29 22:46:59.888] $GPGSA,A,1,,,,,,,,,,,,,,,,1*03
[2023-10-29 22:46:59.920] 
[2023-10-29 22:46:59.920] $GPGSA,A,1,,,,,,,,,,,,,,,,2*00
[2023-10-29 22:46:59.953] 
[2023-10-29 22:46:59.953] $GPGSV,4,1,13,29,81,057,,25,43,137,,31,42,271,,28,39,237,,0*61
[2023-10-29 22:47:00.020] 
[2023-10-29 22:47:00.020] $GPGSV,4,2,13,26,35,299,,18,35,194,,05,27,094,30,20,25,056,20,0*68
[2023-10-29 22:47:00.092] 
[2023-10-29 22:47:00.092] $GPGSV,4,3,13,11,12,042,,16,09,302,,04,07,328,,12,07,126,,0*61
[2023-10-29 22:47:00.159] 
[2023-10-29 22:47:00.159] $GPGSV,4,4,13,09,03,357,,0*5C
[2023-10-29 22:47:00.189] 
[2023-10-29 22:47:00.190] $GLGSV,1,1,03,82,86,010,,80,70,186,,81,34,044,,1*40
[2023-10-29 22:47:00.245] 
[2023-10-29 22:47:00.245] $GPGLL,,,,,214659.894,V,N*72
[2023-10-29 22:47:00.278] 
[2023-10-29 22:47:00.278] $GPTXT,01,01,02,ANTSTATUS=OPEN*2B
[2023-10-29 22:47:00.313] 
[2023-10-29 22:47:00.713] $GPRMC,214700.894,V,,,,,0.04,0.00,291023,,,N,V*3D
[2023-10-29 22:47:00.768] 
[2023-10-29 22:47:00.771] $GPVTG,0.00,T,,M,0.04,N,0.07,K,N*31
[2023-10-29 22:47:00.803] 
[2023-10-29 22:47:00.804] $GPGGA,214700.894,,,,,0,0,,,M,,M,,*4D
[2023-10-29 22:47:00.844] 
[2023-10-29 22:47:00.844] $GPGSA,A,1,,,,,,,,,,,,,,,,1*03
[2023-10-29 22:47:00.877] 
[2023-10-29 22:47:00.879] $GPGSA,A,1,,,,,,,,,,,,,,,,2*00
[2023-10-29 22:47:00.911] 
[2023-10-29 22:47:00.911] $GPGSV,4,1,13,29,81,057,,25,43,137,,31,42,271,,28,39,237,,0*61
[2023-10-29 22:47:00.979] 
[2023-10-29 22:47:00.979] $GPGSV,4,2,13,26,35,299,,18,35,194,,05,27,094,30,20,25,056,22,0*6A
[2023-10-29 22:47:01.049] 
[2023-10-29 22:47:01.049] $GPGSV,4,3,13,11,12,042,18,16,09,302,,04,07,327,,12,07,126,,0*67
[2023-10-29 22:47:01.118] 
[2023-10-29 22:47:01.118] $GPGSV,4,4,13,09,03,357,,0*5C
[2023-10-29 22:47:01.151] 
[2023-10-29 22:47:01.151] $GLGSV,1,1,03,82,86,010,,80,70,186,,81,34,044,,1*40
[2023-10-29 22:47:01.209] 
[2023-10-29 22:47:01.209] $GPGLL,,,,,214700.894,V,N*7F
[2023-10-29 22:47:01.237] 
[2023-10-29 22:47:01.237] $GPTXT,01,01,02,ANTSTATUS=OPEN*2B
[2023-10-29 22:47:01.273] 
[2023-10-29 22:47:01.713] $GPRMC,214701.894,V,,,,,0.31,0.00,291023,,,N,V*3A
[2023-10-29 22:47:01.768] 
[2023-10-29 22:47:01.768] $GPVTG,0.00,T,,M,0.31,N,0.58,K,N*3D
[2023-10-29 22:47:01.806] 
[2023-10-29 22:47:01.807] $GPGGA,214701.894,,,,,0,0,,,M,,M,,*4C
[2023-10-29 22:47:01.847] 
[2023-10-29 22:47:01.851] $GPGSA,A,1,,,,,,,,,,,,,,,,1*03
[2023-10-29 22:47:01.884] 
[2023-10-29 22:47:01.884] $GPGSA,A,1,,,,,,,,,,,,,,,,2*00
[2023-10-29 22:47:01.918] 
[2023-10-29 22:47:01.918] $GPGSV,4,1,13,29,81,057,,25,43,137,,31,42,271,,28,39,237,,0*61
[2023-10-29 22:47:01.981] 
[2023-10-29 22:47:01.981] $GPGSV,4,2,13,26,35,299,,18,35,194,,05,27,094,29,20,25,056,23,0*63
[2023-10-29 22:47:02.052] 
[2023-10-29 22:47:02.052] $GPGSV,4,3,13,11,12,042,18,16,09,302,,04,07,327,,12,07,126,,0*67
[2023-10-29 22:47:02.120] 
[2023-10-29 22:47:02.120] $GPGSV,4,4,13,09,03,357,,0*5C
[2023-10-29 22:47:02.155] 
[2023-10-29 22:47:02.156] $GLGSV,1,1,03,82,86,010,,80,70,186,,81,34,044,,1*40
[2023-10-29 22:47:02.209] 
[2023-10-29 22:47:02.211] $GPGLL,,,,,214701.894,V,N*7E
[2023-10-29 22:47:02.238] 
[2023-10-29 22:47:02.239] $GPTXT,01,01,02,ANTSTATUS=OPEN*2B
[2023-10-29 22:47:02.275] 
[2023-10-29 22:47:02.720] $GPRMC,214702.894,V,,,,,0.43,0.00,291023,,,N,V*3C
[2023-10-29 22:47:02.775] 
[2023-10-29 22:47:02.779] $GPVTG,0.00,T,,M,0.43,N,0.81,K,N*3C
[2023-10-29 22:47:02.816] 
[2023-10-29 22:47:02.816] $GPGGA,214702.894,,,,,0,0,,,M,,M,,*4F
[2023-10-29 22:47:02.852] 
[2023-10-29 22:47:02.852] $GPGSA,A,1,,,,,,,,,,,,,,,,1*03
[2023-10-29 22:47:02.885] 
[2023-10-29 22:47:02.885] $GPGSA,A,1,,,,,,,,,,,,,,,,2*00
[2023-10-29 22:47:02.917] 
[2023-10-29 22:47:02.918] $GPGSV,4,1,13,29,81,057,,25,43,137,18,31,42,271,,28,39,237,,0*68
[2023-10-29 22:47:02.986] 
[2023-10-29 22:47:02.987] $GPGSV,4,2,13,26,35,299,,18,35,194,,05,27,094,29,20,25,056,22,0*62
[2023-10-29 22:47:03.061] 
[2023-10-29 22:47:03.065] $GPGSV,4,3,13,11,12,042,19,16,09,302,,04,07,327,,12,07,126,,0*66
[2023-10-29 22:47:03.131] 
[2023-10-29 22:47:03.131] $GPGSV,4,4,13,09,03,357,,0*5C
[2023-10-29 22:47:03.160] 
[2023-10-29 22:47:03.160] $GLGSV,1,1,03,82,86,010,,80,70,186,,81,34,044,,1*40
[2023-10-29 22:47:03.214] 
[2023-10-29 22:47:03.214] $GPGLL,,,,,214702.894,V,N*7D
[2023-10-29 22:47:03.247] 
[2023-10-29 22:47:03.247] $GPTXT,01,01,02,ANTSTATUS=OPEN*2B
[2023-10-29 22:47:03.282] 
[2023-10-29 22:47:03.750] $GPRMC,214703.894,V,,,,,0.43,0.00,291023,,,N,V*3D
[2023-10-29 22:47:03.805] 
[2023-10-29 22:47:03.805] $GPVTG,0.00,T,,M,0.43,N,0.80,K,N*3D
[2023-10-29 22:47:03.843] 
[2023-10-29 22:47:03.843] $GPGGA,214703.894,,,,,0,0,,,M,,M,,*4E
[2023-10-29 22:47:03.883] 
[2023-10-29 22:47:03.883] $GPGSA,A,1,,,,,,,,,,,,,,,,1*03
[2023-10-29 22:47:03.915] 
[2023-10-29 22:47:03.917] $GPGSA,A,1,,,,,,,,,,,,,,,,2*00
[2023-10-29 22:47:03.948] 
[2023-10-29 22:47:03.950] $GPGSV,4,1,13,29,81,057,,25,43,137,19,31,42,271,,28,39,237,,0*69
[2023-10-29 22:47:04.018] 
[2023-10-29 22:47:04.018] $GPGSV,4,2,13,26,35,299,,18,35,194,,05,27,094,30,20,25,056,23,0*6B
[2023-10-29 22:47:04.090] 
[2023-10-29 22:47:04.090] $GPGSV,4,3,13,11,12,042,19,16,09,302,,04,07,327,,12,07,126,,0*66
[2023-10-29 22:47:04.161] 
[2023-10-29 22:47:04.166] $GPGSV,4,4,13,09,03,357,,0*5C
[2023-10-29 22:47:04.191] 
[2023-10-29 22:47:04.191] $GLGSV,1,1,03,82,86,010,,80,70,186,,81,34,044,,1*40
[2023-10-29 22:47:04.244] 
[2023-10-29 22:47:04.245] $GPGLL,,,,,214703.894,V,N*7C
[2023-10-29 22:47:04.276] 
[2023-10-29 22:47:04.277] $GPTXT,01,01,02,ANTSTATUS=OPEN*2B
[2023-10-29 22:47:04.313] 
[2023-10-29 22:47:04.817] $GPRMC,214705.000,V,,,,,0.45,0.00,291023,,,N,V*38
[2023-10-29 22:47:04.872] 
[2023-10-29 22:47:04.872] $GPVTG,0.00,T,,M,0.45,N,0.84,K,N*3F
[2023-10-29 22:47:04.907] 
[2023-10-29 22:47:04.909] $GPGGA,214705.000,,,,,0,0,,,M,,M,,*4D
[2023-10-29 22:47:04.947] 
[2023-10-29 22:47:04.949] $GPGSA,A,1,,,,,,,,,,,,,,,,1*03
[2023-10-29 22:47:04.982] 
[2023-10-29 22:47:04.982] $GPGSA,A,1,,,,,,,,,,,,,,,,2*00
[2023-10-29 22:47:05.016] 
[2023-10-29 22:47:05.016] $GPGSV,4,1,13,29,81,057,,25,43,137,18,31,42,271,,28,39,237,,0*68
[2023-10-29 22:47:05.084] 
[2023-10-29 22:47:05.084] $GPGSV,4,2,13,26,35,299,,18,35,194,,05,27,094,30,20,25,056,23,0*6B
[2023-10-29 22:47:05.156] 
[2023-10-29 22:47:05.156] $GPGSV,4,3,13,11,12,042,18,16,09,302,,04,07,327,,12,07,126,,0*67
[2023-10-29 22:47:05.223] 
[2023-10-29 22:47:05.223] $GPGSV,4,4,13,09,03,357,,0*5C
[2023-10-29 22:47:05.258] 
[2023-10-29 22:47:05.262] $GLGSV,1,1,03,82,86,010,,80,70,186,,81,34,044,,1*40
[2023-10-29 22:47:05.312] 
[2023-10-29 22:47:05.312] $GPGLL,,,,,214705.000,V,N*7F
[2023-10-29 22:47:05.343] 
[2023-10-29 22:47:05.343] $GPTXT,01,01,02,ANTSTATUS=OPEN*2B
[2023-10-29 22:47:05.379] 
[2023-10-29 22:47:05.815] $GPRMC,214706.000,V,,,,,0.15,0.00,291023,,,N,V*3E
[2023-10-29 22:47:05.869] 
[2023-10-29 22:47:05.869] $GPVTG,0.00,T,,M,0.15,N,0.29,K,N*3D
[2023-10-29 22:47:05.907] 
[2023-10-29 22:47:05.907] $GPGGA,214706.000,,,,,0,0,,,M,,M,,*4E
[2023-10-29 22:47:05.946] 
[2023-10-29 22:47:05.946] $GPGSA,A,1,,,,,,,,,,,,,,,,1*03
[2023-10-29 22:47:05.984] 
[2023-10-29 22:47:05.984] $GPGSA,A,1,,,,,,,,,,,,,,,,2*00
[2023-10-29 22:47:06.016] 
[2023-10-29 22:47:06.016] $GPGSV,4,1,13,29,81,057,,25,43,137,20,31,42,271,,28,39,237,,0*63
[2023-10-29 22:47:06.082] 
[2023-10-29 22:47:06.082] $GPGSV,4,2,13,26,35,299,,18,35,194,,05,27,094,30,20,25,056,22,0*6A
[2023-10-29 22:47:06.157] 
[2023-10-29 22:47:06.161] $GPGSV,4,3,13,11,12,042,18,16,09,302,,04,07,327,,12,07,126,,0*67
[2023-10-29 22:47:06.222] 
[2023-10-29 22:47:06.222] $GPGSV,4,4,13,09,03,357,,0*5C
[2023-10-29 22:47:06.254] 
[2023-10-29 22:47:06.254] $GLGSV,1,1,03,82,86,010,,80,70,186,,81,34,044,,1*40
[2023-10-29 22:47:06.309] 
[2023-10-29 22:47:06.309] $GPGLL,,,,,214706.000,V,N*7C
[2023-10-29 22:47:06.338] 
[2023-10-29 22:47:06.340] $GPTXT,01,01,02,ANTSTATUS=OPEN*2B
[2023-10-29 22:47:06.377] 
[2023-10-29 22:47:06.816] $GPRMC,214707.000,V,,,,,0.24,0.00,291023,,,N,V*3D
[2023-10-29 22:47:06.871] 
[2023-10-29 22:47:06.871] $GPVTG,0.00,T,,M,0.24,N,0.44,K,N*34
[2023-10-29 22:47:06.909] 
[2023-10-29 22:47:06.909] $GPGGA,214707.000,,,,,0,0,,,M,,M,,*4F
[2023-10-29 22:47:06.948] 
[2023-10-29 22:47:06.948] $GPGSA,A,1,,,,,,,,,,,,,,,,1*03
[2023-10-29 22:47:06.982] 
[2023-10-29 22:47:06.982] $GPGSA,A,1,,,,,,,,,,,,,,,,2*00
[2023-10-29 22:47:07.016] 
[2023-10-29 22:47:07.016] $GPGSV,4,1,13,29,81,057,,25,43,137,19,31,42,271,,28,39,237,,0*69
[2023-10-29 22:47:07.084] 
[2023-10-29 22:47:07.084] $GPGSV,4,2,13,26,35,299,,18,35,194,,05,27,094,30,20,25,056,22,0*6A
[2023-10-29 22:47:07.153] 
[2023-10-29 22:47:07.155] $GPGSV,4,3,13,11,12,042,18,16,09,302,,04,07,327,,12,07,126,,0*67
[2023-10-29 22:47:07.223] 
[2023-10-29 22:47:07.224] $GPGSV,4,4,13,09,03,357,,0*5C
[2023-10-29 22:47:07.256] 
[2023-10-29 22:47:07.256] $GLGSV,1,1,03,82,86,010,,80,70,186,,81,34,044,,1*40
[2023-10-29 22:47:07.309] 
[2023-10-29 22:47:07.311] $GPGLL,,,,,214707.000,V,N*7D
[2023-10-29 22:47:07.342] 
[2023-10-29 22:47:07.342] $GPTXT,01,01,02,ANTSTATUS=OPEN*2B
[2023-10-29 22:47:07.379] 
[2023-10-29 22:47:07.821] $GPRMC,214708.000,V,,,,,0.36,0.00,291023,,,N,V*31
[2023-10-29 22:47:07.877] 
[2023-10-29 22:47:07.881] $GPVTG,0.00,T,,M,0.36,N,0.67,K,N*36
[2023-10-29 22:47:07.913] 
[2023-10-29 22:47:07.915] $GPGGA,214708.000,,,,,0,0,,,M,,M,,*40
[2023-10-29 22:47:07.953] 
[2023-10-29 22:47:07.953] $GPGSA,A,1,,,,,,,,,,,,,,,,1*03
[2023-10-29 22:47:07.985] 
[2023-10-29 22:47:07.986] $GPGSA,A,1,,,,,,,,,,,,,,,,2*00
[2023-10-29 22:47:08.019] 
[2023-10-29 22:47:08.019] $GPGSV,4,1,13,29,81,057,,25,43,137,19,31,42,271,,28,39,237,,0*69
[2023-10-29 22:47:08.088] 
[2023-10-29 22:47:08.088] $GPGSV,4,2,13,26,35,299,,18,35,194,,05,27,094,30,20,25,056,22,0*6A
[2023-10-29 22:47:08.158] 
[2023-10-29 22:47:08.160] $GPGSV,4,3,13,11,12,042,19,16,09,302,,04,07,327,,12,07,126,,0*66
[2023-10-29 22:47:08.229] 
[2023-10-29 22:47:08.229] $GPGSV,4,4,13,09,03,357,,0*5C
[2023-10-29 22:47:08.264] 
[2023-10-29 22:47:08.264] $GLGSV,1,1,03,82,86,010,,80,70,186,,81,34,044,,1*40
[2023-10-29 22:47:08.317] 
[2023-10-29 22:47:08.317] $GPGLL,,,,,214708.000,V,N*72
[2023-10-29 22:47:08.348] 
[2023-10-29 22:47:08.348] $GPTXT,01,01,02,ANTSTATUS=OPEN*2B
[2023-10-29 22:47:08.384] 
[2023-10-29 22:47:08.831] $GNRMC,214709.000,A,5216.6904,N,02048.5565,E,0.38,0.00,291023,,,A,V*05
[2023-10-29 22:47:08.906] 
[2023-10-29 22:47:08.906] $GPVTG,0.00,T,,M,0.38,N,0.70,K,A*31
[2023-10-29 22:47:08.943] 
[2023-10-29 22:47:08.945] $GPGGA,214709.000,5216.6904,N,02048.5565,E,1,4,3.85,79.2,M,39.0,M,,*6F
[2023-10-29 22:47:09.019] 
[2023-10-29 22:47:09.019] $GNGSA,A,3,05,20,25,11,,,,,,,,,3.98,3.85,0.99,1*0D
[2023-10-29 22:47:09.074] 
[2023-10-29 22:47:09.074] $GNGSA,A,3,,,,,,,,,,,,,3.98,3.85,0.99,2*0E
[2023-10-29 22:47:09.119] 
[2023-10-29 22:47:09.119] $GPGSV,4,1,13,29,81,057,,25,43,137,19,31,42,271,16,28,39,237,,0*6E
[2023-10-29 22:47:09.190] 
[2023-10-29 22:47:09.190] $GPGSV,4,2,13,26,35,299,,18,35,194,,05,27,094,30,20,25,056,22,0*6A
[2023-10-29 22:47:09.260] 
[2023-10-29 22:47:09.261] $GPGSV,4,3,13,11,12,042,19,16,09,302,,04,07,327,,12,07,126,,0*66
[2023-10-29 22:47:09.329] 
[2023-10-29 22:47:09.329] $GPGSV,4,4,13,09,03,357,,0*5C
[2023-10-29 22:47:09.363] 
[2023-10-29 22:47:09.363] $GLGSV,1,1,03,82,86,010,,80,70,186,,81,34,044,,1*40
[2023-10-29 22:47:09.417] 
[2023-10-29 22:47:09.417] $GNGLL,5216.6904,N,02048.5565,E,214709.000,A,A*48
[2023-10-29 22:47:09.472] 
[2023-10-29 22:47:09.473] $GPTXT,01,01,02,ANTSTATUS=OPEN*2B
[2023-10-29 22:47:09.510] 
[2023-10-29 22:47:09.824] $GNRMC,214710.000,A,5216.6900,N,02048.5568,E,0.40,0.00,291023,,,A,V*0B
[2023-10-29 22:47:09.902] 
[2023-10-29 22:47:09.902] $GPVTG,0.00,T,,M,0.40,N,0.74,K,A*3A
[2023-10-29 22:47:09.936] 
[2023-10-29 22:47:09.937] $GPGGA,214710.000,5216.6900,N,02048.5568,E,1,4,3.84,79.2,M,39.0,M,,*6F
[2023-10-29 22:47:10.014] 
[2023-10-29 22:47:10.014] $GNGSA,A,3,05,20,25,11,,,,,,,,,3.97,3.84,0.99,1*03
[2023-10-29 22:47:10.066] 
[2023-10-29 22:47:10.068] $GNGSA,A,3,,,,,,,,,,,,,3.97,3.84,0.99,2*00
[2023-10-29 22:47:10.114] 
[2023-10-29 22:47:10.114] $GPGSV,4,1,13,29,81,057,,25,43,137,18,31,42,271,15,28,39,237,,0*6C
[2023-10-29 22:47:10.183] 
[2023-10-29 22:47:10.185] $GPGSV,4,2,13,26,35,299,,18,35,194,,05,27,094,29,20,25,056,23,0*63
[2023-10-29 22:47:10.254] 
[2023-10-29 22:47:10.254] $GPGSV,4,3,13,11,12,042,20,16,09,302,,04,07,327,,12,07,126,,0*6C
[2023-10-29 22:47:10.324] 
[2023-10-29 22:47:10.324] $GPGSV,4,4,13,09,03,357,,0*5C
[2023-10-29 22:47:10.354] 
[2023-10-29 22:47:10.356] $GLGSV,1,1,03,82,86,010,,80,70,186,,81,34,044,,1*40
[2023-10-29 22:47:10.411] 
[2023-10-29 22:47:10.411] $GNGLL,5216.6900,N,02048.5568,E,214710.000,A,A*49
[2023-10-29 22:47:10.463] 
[2023-10-29 22:47:10.464] $GPTXT,01,01,02,ANTSTATUS=OPEN*2B
[2023-10-29 22:47:10.499] 
[2023-10-29 22:47:10.826] $GNRMC,214711.000,A,5216.6898,N,02048.5566,E,0.44,0.00,291023,,,A,V*00
[2023-10-29 22:47:10.902] 
[2023-10-29 22:47:10.902] $GPVTG,0.00,T,,M,0.44,N,0.82,K,A*37
[2023-10-29 22:47:10.939] 
[2023-10-29 22:47:10.941] $GPGGA,214711.000,5216.6898,N,02048.5566,E,1,4,3.85,79.2,M,39.0,M,,*61
[2023-10-29 22:47:11.015] 
[2023-10-29 22:47:11.015] $GNGSA,A,3,05,20,25,11,,,,,,,,,3.97,3.85,0.99,1*02
[2023-10-29 22:47:11.070] 
[2023-10-29 22:47:11.070] $GNGSA,A,3,,,,,,,,,,,,,3.97,3.85,0.99,2*01
[2023-10-29 22:47:11.114] 
[2023-10-29 22:47:11.114] $GPGSV,4,1,13,29,81,057,,25,43,137,18,31,42,271,17,28,39,237,,0*6E
[2023-10-29 22:47:11.186] 
[2023-10-29 22:47:11.186] $GPGSV,4,2,13,26,35,299,,18,35,194,,05,27,094,29,20,25,056,23,0*63
[2023-10-29 22:47:11.260] 
[2023-10-29 22:47:11.260] $GPGSV,4,3,13,11,12,042,20,16,09,302,,04,07,327,,12,07,126,,0*6C
[2023-10-29 22:47:11.325] 
[2023-10-29 22:47:11.325] $GPGSV,4,4,13,09,03,357,,0*5C
[2023-10-29 22:47:11.361] 
[2023-10-29 22:47:11.361] $GLGSV,1,1,03,82,86,010,,80,70,186,,81,34,044,,1*40
[2023-10-29 22:47:11.413] 
[2023-10-29 22:47:11.413] $GNGLL,5216.6898,N,02048.5566,E,214711.000,A,A*46
[2023-10-29 22:47:11.464] 
[2023-10-29 22:47:11.466] $GPTXT,01,01,02,ANTSTATUS=OPEN*2B
[2023-10-29 22:47:11.503] 
[2023-10-29 22:47:11.828] $GNRMC,214712.000,A,5216.6898,N,02048.5571,E,0.47,0.00,291023,,,A,V*06
[2023-10-29 22:47:11.906] 
[2023-10-29 22:47:11.907] $GPVTG,0.00,T,,M,0.47,N,0.88,K,A*3E
[2023-10-29 22:47:11.941] 
[2023-10-29 22:47:11.941] $GPGGA,214712.000,5216.6898,N,02048.5571,E,1,4,3.85,79.2,M,39.0,M,,*64
[2023-10-29 22:47:12.017] 
[2023-10-29 22:47:12.017] $GNGSA,A,3,05,20,25,11,,,,,,,,,3.98,3.85,0.99,1*0D
[2023-10-29 22:47:12.071] 
[2023-10-29 22:47:12.074] $GNGSA,A,3,,,,,,,,,,,,,3.98,3.85,0.99,2*0E
[2023-10-29 22:47:12.117] 
[2023-10-29 22:47:12.117] $GPGSV,4,1,13,29,81,057,,25,43,137,17,31,42,271,17,28,39,237,,0*61
[2023-10-29 22:47:12.186] 
[2023-10-29 22:47:12.188] $GPGSV,4,2,13,26,35,299,,18,35,194,15,05,27,094,29,20,25,056,23,0*67
[2023-10-29 22:47:12.259] 
[2023-10-29 22:47:12.261] $GPGSV,4,3,13,11,12,042,19,16,09,302,,04,07,327,,12,07,126,,0*66
[2023-10-29 22:47:12.328] 
[2023-10-29 22:47:12.330] $GPGSV,4,4,13,09,03,357,,0*5C
[2023-10-29 22:47:12.361] 
[2023-10-29 22:47:12.361] $GLGSV,1,1,03,82,86,010,,80,70,186,,81,34,044,,1*40
[2023-10-29 22:47:12.416] 
[2023-10-29 22:47:12.418] $GNGLL,5216.6898,N,02048.5571,E,214712.000,A,A*43
[2023-10-29 22:47:12.470] 
[2023-10-29 22:47:12.470] $GPTXT,01,01,02,ANTSTATUS=OPEN*2B
[2023-10-29 22:47:12.507] 
[2023-10-29 22:47:12.830] $GNRMC,214713.000,A,5216.6897,N,02048.5570,E,0.67,247.43,291023,,,A,V*0D
[2023-10-29 22:47:12.909] 
[2023-10-29 22:47:12.909] $GPVTG,247.43,T,,M,0.67,N,1.25,K,A*3C
[2023-10-29 22:47:12.947] 
[2023-10-29 22:47:12.949] $GPGGA,214713.000,5216.6897,N,02048.5570,E,1,4,3.85,79.2,M,39.0,M,,*6B
[2023-10-29 22:47:13.027] 
[2023-10-29 22:47:13.027] $GNGSA,A,3,05,20,25,11,,,,,,,,,3.98,3.85,0.99,1*0D
[2023-10-29 22:47:13.080] 
[2023-10-29 22:47:13.080] $GNGSA,A,3,,,,,,,,,,,,,3.98,3.85,0.99,2*0E
[2023-10-29 22:47:13.125] 
[2023-10-29 22:47:13.125] $GPGSV,4,1,13,29,81,057,18,25,43,137,17,31,42,271,17,28,39,237,,0*68
[2023-10-29 22:47:13.194] 
[2023-10-29 22:47:13.196] $GPGSV,4,2,13,26,35,299,,18,35,194,15,05,27,094,28,20,25,056,23,0*66
[2023-10-29 22:47:13.271] 
[2023-10-29 22:47:13.275] $GPGSV,4,3,13,11,12,042,18,16,09,302,,04,07,327,,12,07,126,,0*67
[2023-10-29 22:47:13.335] 
[2023-10-29 22:47:13.336] $GPGSV,4,4,13,09,03,357,,0*5C
[2023-10-29 22:47:13.368] 
[2023-10-29 22:47:13.369] $GLGSV,1,1,03,82,86,010,,80,70,186,,81,34,044,,1*40
[2023-10-29 22:47:13.424] 
[2023-10-29 22:47:13.424] $GNGLL,5216.6897,N,02048.5570,E,214713.000,A,A*4C
[2023-10-29 22:47:13.476] 
[2023-10-29 22:47:13.477] $GPTXT,01,01,02,ANTSTATUS=OPEN*2B
[2023-10-29 22:47:13.514] 
[2023-10-29 22:47:13.828] $GNRMC,214714.000,A,5216.6896,N,02048.5569,E,0.77,247.87,291023,,,A,V*0A
[2023-10-29 22:47:13.907] 
[2023-10-29 22:47:13.907] $GPVTG,247.87,T,,M,0.77,N,1.44,K,A*32
[2023-10-29 22:47:13.945] 
[2023-10-29 22:47:13.947] $GPGGA,214714.000,5216.6896,N,02048.5569,E,1,4,3.85,79.2,M,39.0,M,,*65
[2023-10-29 22:47:14.025] 
[2023-10-29 22:47:14.025] $GNGSA,A,3,05,20,25,11,,,,,,,,,3.98,3.85,0.99,1*0D
[2023-10-29 22:47:14.080] 
[2023-10-29 22:47:14.080] $GNGSA,A,3,,,,,,,,,,,,,3.98,3.85,0.99,2*0E
[2023-10-29 22:47:14.121] 
[2023-10-29 22:47:14.123] $GPGSV,4,1,13,29,81,057,16,25,43,137,17,31,42,271,17,28,39,237,,0*66
[2023-10-29 22:47:14.193] 
[2023-10-29 22:47:14.194] $GPGSV,4,2,13,26,35,299,,18,35,194,13,05,27,094,28,20,25,056,22,0*61
[2023-10-29 22:47:14.266] 
[2023-10-29 22:47:14.268] $GPGSV,4,3,13,11,12,042,18,16,09,302,,04,07,327,,12,07,126,,0*67
[2023-10-29 22:47:14.337] 
[2023-10-29 22:47:14.337] $GPGSV,4,4,13,09,03,357,,0*5C
[2023-10-29 22:47:14.367] 
[2023-10-29 22:47:14.369] $GLGSV,1,1,03,82,86,010,,80,70,186,,81,34,044,,1*40
[2023-10-29 22:47:14.423] 
[2023-10-29 22:47:14.425] $GNGLL,5216.6896,N,02048.5569,E,214714.000,A,A*42
[2023-10-29 22:47:14.477] 
[2023-10-29 22:47:14.477] $GPTXT,01,01,02,ANTSTATUS=OPEN*2B
[2023-10-29 22:47:14.521] 
[2023-10-29 22:47:14.829] $GNRMC,214715.000,A,5216.6897,N,02048.5562,E,0.82,261.04,291023,,,A,V*04
[2023-10-29 22:47:14.905] 
[2023-10-29 22:47:14.907] $GPVTG,261.04,T,,M,0.82,N,1.51,K,A*33
[2023-10-29 22:47:14.948] 
[2023-10-29 22:47:14.949] $GPGGA,214715.000,5216.6897,N,02048.5562,E,1,4,3.85,79.2,M,39.0,M,,*6E
[2023-10-29 22:47:15.021] 
[2023-10-29 22:47:15.023] $GNGSA,A,3,05,20,25,11,,,,,,,,,3.98,3.85,0.99,1*0D
[2023-10-29 22:47:15.077] 
[2023-10-29 22:47:15.077] $GNGSA,A,3,,,,,,,,,,,,,3.98,3.85,0.99,2*0E
[2023-10-29 22:47:15.125] 
[2023-10-29 22:47:15.125] $GPGSV,4,1,13,29,81,057,17,25,43,137,17,31,42,271,16,28,39,237,,0*66
[2023-10-29 22:47:15.196] 
[2023-10-29 22:47:15.196] $GPGSV,4,2,13,26,35,299,,18,35,194,16,05,27,094,28,20,25,056,22,0*64
[2023-10-29 22:47:15.268] 
[2023-10-29 22:47:15.268] $GPGSV,4,3,13,11,12,042,18,16,09,302,,04,07,327,,12,07,126,,0*67
[2023-10-29 22:47:15.336] 
[2023-10-29 22:47:15.337] $GPGSV,4,4,13,09,03,357,,0*5C
[2023-10-29 22:47:15.368] 
[2023-10-29 22:47:15.370] $GLGSV,1,1,03,82,86,010,,80,70,186,,81,34,044,,1*40
[2023-10-29 22:47:15.424] 
[2023-10-29 22:47:15.424] $GNGLL,5216.6897,N,02048.5562,E,214715.000,A,A*49
[2023-10-29 22:47:15.481] 
[2023-10-29 22:47:15.481] $GPTXT,01,01,02,ANTSTATUS=OPEN*2B
[2023-10-29 22:47:15.513] 
[2023-10-29 22:47:15.831] $GNRMC,214716.000,A,5216.6899,N,02048.5558,E,0.70,272.04,291023,,,A,V*0F
[2023-10-29 22:47:15.911] 
[2023-10-29 22:47:15.911] $GPVTG,272.04,T,,M,0.70,N,1.29,K,A*33
[2023-10-29 22:47:15.957] 
[2023-10-29 22:47:15.957] $GPGGA,214716.000,5216.6899,N,02048.5558,E,1,4,3.85,79.2,M,39.0,M,,*6A
[2023-10-29 22:47:16.024] 
[2023-10-29 22:47:16.024] $GNGSA,A,3,05,20,25,11,,,,,,,,,3.98,3.85,0.99,1*0D
[2023-10-29 22:47:16.076] 
[2023-10-29 22:47:16.077] $GNGSA,A,3,,,,,,,,,,,,,3.98,3.85,0.99,2*0E
[2023-10-29 22:47:16.131] 
[2023-10-29 22:47:16.131] $GPGSV,4,1,13,29,81,057,18,25,43,137,17,31,42,271,16,28,39,237,,0*69
[2023-10-29 22:47:16.195] 
[2023-10-29 22:47:16.197] $GPGSV,4,2,13,26,35,299,,18,35,194,16,05,27,094,29,20,25,056,22,0*65
[2023-10-29 22:47:16.268] 
[2023-10-29 22:47:16.269] $GPGSV,4,3,13,11,12,042,18,16,09,302,,04,07,327,,12,07,126,,0*67
[2023-10-29 22:47:16.337] 
[2023-10-29 22:47:16.338] $GPGSV,4,4,13,09,03,357,,0*5C
[2023-10-29 22:47:16.370] 
[2023-10-29 22:47:16.370] $GLGSV,1,1,03,82,86,010,,80,70,186,,81,34,044,,1*40
[2023-10-29 22:47:16.426] 
[2023-10-29 22:47:16.426] $GNGLL,5216.6899,N,02048.5558,E,214716.000,A,A*4D
[2023-10-29 22:47:16.478] 
[2023-10-29 22:47:16.479] $GPTXT,01,01,02,ANTSTATUS=OPEN*2B
[2023-10-29 22:47:16.514] 
[2023-10-29 22:47:16.831] $GNRMC,214717.000,A,5216.6904,N,02048.5562,E,0.64,283.02,291023,,,A,V*0F
[2023-10-29 22:47:16.913] 
[2023-10-29 22:47:16.913] $GPVTG,283.02,T,,M,0.64,N,1.19,K,A*3D
[2023-10-29 22:47:16.947] 
[2023-10-29 22:47:16.949] $GPGGA,214717.000,5216.6904,N,02048.5562,E,1,4,3.85,79.1,M,39.0,M,,*64
[2023-10-29 22:47:17.024] 
[2023-10-29 22:47:17.024] $GNGSA,A,3,05,20,25,11,,,,,,,,,3.98,3.85,0.99,1*0D
[2023-10-29 22:47:17.075] 
[2023-10-29 22:47:17.077] $GNGSA,A,3,,,,,,,,,,,,,3.98,3.85,0.99,2*0E
[2023-10-29 22:47:17.123] 
[2023-10-29 22:47:17.123] $GPGSV,4,1,13,29,81,057,18,25,43,137,17,31,42,271,16,28,39,237,,0*69
[2023-10-29 22:47:17.196] 
[2023-10-29 22:47:17.197] $GPGSV,4,2,13,26,35,299,,18,35,194,17,05,27,094,29,20,25,056,22,0*64
[2023-10-29 22:47:17.269] 
[2023-10-29 22:47:17.269] $GPGSV,4,3,13,11,12,042,19,16,09,302,,04,07,327,,12,07,126,,0*66
[2023-10-29 22:47:17.339] 
[2023-10-29 22:47:17.339] $GPGSV,4,4,13,09,03,357,,0*5C
[2023-10-29 22:47:17.369] 
[2023-10-29 22:47:17.370] $GLGSV,1,1,03,82,86,010,,80,70,186,,81,34,044,,1*40
[2023-10-29 22:47:17.426] 
[2023-10-29 22:47:17.426] $GNGLL,5216.6904,N,02048.5562,E,214717.000,A,A*40
[2023-10-29 22:47:17.478] 
[2023-10-29 22:47:17.479] $GPTXT,01,01,02,ANTSTATUS=OPEN*2B
[2023-10-29 22:47:17.517] 
[2023-10-29 22:47:17.829] $GNRMC,214718.000,A,5216.6908,N,02048.5569,E,0.54,283.02,291023,,,A,V*04
[2023-10-29 22:47:17.910] 
[2023-10-29 22:47:17.910] $GPVTG,283.02,T,,M,0.54,N,1.01,K,A*37
[2023-10-29 22:47:17.948] 
[2023-10-29 22:47:17.948] $GPGGA,214718.000,5216.6908,N,02048.5569,E,1,4,3.86,79.1,M,39.0,M,,*6F
[2023-10-29 22:47:18.022] 
[2023-10-29 22:47:18.023] $GNGSA,A,3,05,20,25,11,,,,,,,,,3.98,3.86,0.99,1*0E
[2023-10-29 22:47:18.076] 
[2023-10-29 22:47:18.076] $GNGSA,A,3,,,,,,,,,,,,,3.98,3.86,0.99,2*0D
[2023-10-29 22:47:18.123] 
[2023-10-29 22:47:18.123] $GPGSV,4,1,13,29,81,057,18,25,43,137,17,31,42,271,16,28,39,237,,0*69
[2023-10-29 22:47:18.195] 
[2023-10-29 22:47:18.195] $GPGSV,4,2,13,26,35,299,,18,35,194,14,05,27,094,29,20,25,056,21,0*64
[2023-10-29 22:47:18.269] 
[2023-10-29 22:47:18.269] $GPGSV,4,3,13,11,12,042,19,16,09,302,,04,07,327,,12,07,126,,0*66
[2023-10-29 22:47:18.337] 
[2023-10-29 22:47:18.337] $GPGSV,4,4,13,09,03,357,,0*5C
[2023-10-29 22:47:18.368] 
[2023-10-29 22:47:18.370] $GLGSV,1,1,03,82,86,010,,80,70,186,,81,34,044,,1*40
[2023-10-29 22:47:18.424] 
[2023-10-29 22:47:18.424] $GNGLL,5216.6908,N,02048.5569,E,214718.000,A,A*48
[2023-10-29 22:47:18.476] 
[2023-10-29 22:47:18.478] $GPTXT,01,01,02,ANTSTATUS=OPEN*2B
[2023-10-29 22:47:18.521] 
[2023-10-29 22:47:18.828] $GNRMC,214719.000,A,5216.6910,N,02048.5567,E,0.43,283.02,291023,,,A,V*04
[2023-10-29 22:47:18.906] 
[2023-10-29 22:47:18.906] $GPVTG,283.02,T,,M,0.43,N,0.79,K,A*3F
[2023-10-29 22:47:18.946] 
[2023-10-29 22:47:18.946] $GPGGA,214719.000,5216.6910,N,02048.5567,E,1,4,3.85,79.1,M,39.0,M,,*6A
[2023-10-29 22:47:19.019] 
[2023-10-29 22:47:19.021] $GNGSA,A,3,05,20,25,11,,,,,,,,,3.98,3.85,0.99,1*0D
[2023-10-29 22:47:19.082] 
[2023-10-29 22:47:19.082] $GNGSA,A,3,,,,,,,,,,,,,3.98,3.85,0.99,2*0E
[2023-10-29 22:47:19.123] 
[2023-10-29 22:47:19.128] $GPGSV,4,1,13,29,81,057,18,25,43,137,17,31,42,271,16,28,39,237,,0*69
[2023-10-29 22:47:19.193] 
[2023-10-29 22:47:19.193] $GPGSV,4,2,13,26,35,299,,18,35,194,14,05,27,094,28,20,25,056,20,0*64
[2023-10-29 22:47:19.266] 
[2023-10-29 22:47:19.266] $GPGSV,4,3,13,11,12,042,18,16,09,302,,04,07,327,,12,07,126,,0*67
[2023-10-29 22:47:19.334] 
[2023-10-29 22:47:19.336] $GPGSV,4,4,13,09,03,357,,0*5C
[2023-10-29 22:47:19.368] 
[2023-10-29 22:47:19.370] $GLGSV,1,1,03,82,86,010,,80,70,186,,81,34,044,,1*40
[2023-10-29 22:47:19.426] 
[2023-10-29 22:47:19.426] $GNGLL,5216.6910,N,02048.5567,E,214719.000,A,A*4E
[2023-10-29 22:47:19.476] 
[2023-10-29 22:47:19.476] $GPTXT,01,01,02,ANTSTATUS=OPEN*2B
[2023-10-29 22:47:19.521] 
[2023-10-29 22:47:19.838] $GNRMC,214720.000,A,5216.6911,N,02048.5557,E,0.49,283.02,291023,,,A,V*06
[2023-10-29 22:47:19.915] 
[2023-10-29 22:47:19.916] $GPVTG,283.02,T,,M,0.49,N,0.90,K,A*32
[2023-10-29 22:47:19.955] 
[2023-10-29 22:47:19.956] $GPGGA,214720.000,5216.6911,N,02048.5557,E,1,4,3.86,79.1,M,39.0,M,,*61
[2023-10-29 22:47:20.032] 
[2023-10-29 22:47:20.032] $GNGSA,A,3,05,20,25,11,,,,,,,,,3.98,3.86,0.99,1*0E
[2023-10-29 22:47:20.085] 
[2023-10-29 22:47:20.085] $GNGSA,A,3,,,,,,,,,,,,,3.98,3.86,0.99,2*0D
[2023-10-29 22:47:20.130] 
[2023-10-29 22:47:20.133] $GPGSV,4,1,14,29,81,057,17,25,43,137,17,31,42,271,16,28,39,237,,0*61
[2023-10-29 22:47:20.203] 
[2023-10-29 22:47:20.205] $GPGSV,4,2,14,26,35,299,19,18,35,194,14,37,30,179,,05,27,094,28,0*67
[2023-10-29 22:47:20.278] 
[2023-10-29 22:47:20.278] $GPGSV,4,3,14,20,25,056,20,11,12,042,18,16,09,302,,04,07,327,,0*65
[2023-10-29 22:47:20.347] 
[2023-10-29 22:47:20.349] $GPGSV,4,4,14,12,07,126,,09,03,357,,0*6A
[2023-10-29 22:47:20.390] 
[2023-10-29 22:47:20.392] $GLGSV,1,1,03,82,86,010,,80,70,186,,81,34,044,,1*40
[2023-10-29 22:47:20.450] 
[2023-10-29 22:47:20.455] $GNGLL,5216.6911,N,02048.5557,E,214720.000,A,A*46
[2023-10-29 22:47:20.503] 
[2023-10-29 22:47:20.509] $GPTXT,01,01,02,ANTSTATUS=OPEN*2B
[2023-10-29 22:47:20.537] 
[2023-10-29 22:47:20.836] $GNRMC,214721.000,A,5216.6912,N,02048.5544,E,0.54,283.02,291023,,,A,V*0A
[2023-10-29 22:47:20.913] 
[2023-10-29 22:47:20.913] $GPVTG,283.02,T,,M,0.54,N,1.00,K,A*36
[2023-10-29 22:47:20.953] 
[2023-10-29 22:47:20.953] $GPGGA,214721.000,5216.6912,N,02048.5544,E,1,4,3.86,79.1,M,39.0,M,,*61
[2023-10-29 22:47:21.030] 
[2023-10-29 22:47:21.030] $GNGSA,A,3,05,20,25,11,,,,,,,,,3.98,3.86,0.99,1*0E
[2023-10-29 22:47:21.082] 
[2023-10-29 22:47:21.084] $GNGSA,A,3,,,,,,,,,,,,,3.98,3.86,0.99,2*0D
[2023-10-29 22:47:21.129] 
[2023-10-29 22:47:21.129] $GPGSV,4,1,14,29,81,057,16,25,43,137,17,31,42,271,17,28,39,237,,0*61
[2023-10-29 22:47:21.201] 
[2023-10-29 22:47:21.202] $GPGSV,4,2,14,26,35,299,17,18,35,194,,37,30,179,,05,27,094,28,0*6C
[2023-10-29 22:47:21.273] 
[2023-10-29 22:47:21.273] $GPGSV,4,3,14,20,25,056,20,11,12,042,18,16,09,302,,04,07,327,,0*65
[2023-10-29 22:47:21.342] 
[2023-10-29 22:47:21.344] $GPGSV,4,4,14,12,07,126,,09,03,357,,0*6A
[2023-10-29 22:47:21.387] 
[2023-10-29 22:47:21.387] $GLGSV,1,1,03,82,86,010,,80,70,186,,81,34,044,,1*40
[2023-10-29 22:47:21.441] 
[2023-10-29 22:47:21.443] $GNGLL,5216.6912,N,02048.5544,E,214721.000,A,A*46
[2023-10-29 22:47:21.501] 
[2023-10-29 22:47:21.501] $GPTXT,01,01,02,ANTSTATUS=OPEN*2B
[2023-10-29 22:47:21.530] 
[2023-10-29 22:47:21.838] $GNRMC,214722.000,A,5216.6915,N,02048.5523,E,0.79,290.57,291023,,,A,V*02
[2023-10-29 22:47:21.915] 
[2023-10-29 22:47:21.915] $GPVTG,290.57,T,,M,0.79,N,1.46,K,A*39
[2023-10-29 22:47:21.957] 
[2023-10-29 22:47:21.957] $GPGGA,214722.000,5216.6915,N,02048.5523,E,1,4,3.85,79.1,M,39.0,M,,*67
[2023-10-29 22:47:22.033] 
[2023-10-29 22:47:22.033] $GNGSA,A,3,05,20,25,11,,,,,,,,,3.98,3.85,0.99,1*0D
[2023-10-29 22:47:22.084] 
[2023-10-29 22:47:22.084] $GNGSA,A,3,,,,,,,,,,,,,3.98,3.85,0.99,2*0E
[2023-10-29 22:47:22.130] 
[2023-10-29 22:47:22.130] $GPGSV,4,1,14,29,81,057,16,25,43,137,16,31,42,271,17,28,39,237,,0*60
[2023-10-29 22:47:22.206] 
[2023-10-29 22:47:22.206] $GPGSV,4,2,14,26,35,299,,18,35,194,,37,30,179,,05,27,094,28,0*6A
[2023-10-29 22:47:22.271] 
[2023-10-29 22:47:22.273] $GPGSV,4,3,14,20,25,056,20,11,12,042,18,16,09,302,,04,07,327,,0*65
[2023-10-29 22:47:22.343] 
[2023-10-29 22:47:22.343] $GPGSV,4,4,14,12,07,126,,09,03,357,,0*6A
[2023-10-29 22:47:22.386] 
[2023-10-29 22:47:22.386] $GLGSV,1,1,03,82,86,010,,80,70,186,,81,34,044,,1*40
[2023-10-29 22:47:22.441] 
[2023-10-29 22:47:22.443] $GNGLL,5216.6915,N,02048.5523,E,214722.000,A,A*43
[2023-10-29 22:47:22.494] 
[2023-10-29 22:47:22.495] $GPTXT,01,01,02,ANTSTATUS=OPEN*2B
[2023-10-29 22:47:22.530] 
[2023-10-29 22:47:22.839] $GNRMC,214723.000,A,5216.6914,N,02048.5508,E,0.89,282.63,291023,,,A,V*00
[2023-10-29 22:47:22.914] 
[2023-10-29 22:47:22.916] $GPVTG,282.63,T,,M,0.89,N,1.64,K,A*32
[2023-10-29 22:47:22.954] 
[2023-10-29 22:47:22.956] $GPGGA,214723.000,5216.6914,N,02048.5508,E,1,4,3.86,79.2,M,39.0,M,,*6E
[2023-10-29 22:47:23.031] 
[2023-10-29 22:47:23.031] $GNGSA,A,3,05,20,25,11,,,,,,,,,3.98,3.86,0.99,1*0E
[2023-10-29 22:47:23.084] 
[2023-10-29 22:47:23.086] $GNGSA,A,3,,,,,,,,,,,,,3.98,3.86,0.99,2*0D
[2023-10-29 22:47:23.130] 
[2023-10-29 22:47:23.130] $GPGSV,4,1,14,29,81,057,16,25,43,137,16,31,42,271,20,28,39,237,,0*64
[2023-10-29 22:47:23.208] 
[2023-10-29 22:47:23.208] $GPGSV,4,2,14,26,36,299,19,18,35,194,18,37,30,179,,05,27,094,29,0*69
[2023-10-29 22:47:23.276] 
[2023-10-29 22:47:23.276] $GPGSV,4,3,14,20,25,056,21,11,12,042,18,16,09,302,,04,07,327,,0*64
[2023-10-29 22:47:23.347] 
[2023-10-29 22:47:23.347] $GPGSV,4,4,14,12,07,126,,09,03,357,,0*6A
[2023-10-29 22:47:23.399] 
[2023-10-29 22:47:23.399] $GLGSV,1,1,03,82,86,010,,80,70,186,,81,34,044,,1*40
[2023-10-29 22:47:23.448] 
[2023-10-29 22:47:23.450] $GNGLL,5216.6914,N,02048.5508,E,214723.000,A,A*4A
[2023-10-29 22:47:23.499] 
[2023-10-29 22:47:23.500] $GPTXT,01,01,02,ANTSTATUS=OPEN*2B
[2023-10-29 22:47:23.537] 
[2023-10-29 22:47:23.830] $GNRMC,214724.000,A,5216.6916,N,02048.5515,E,0.82,295.07,291023,,,A,V*06
[2023-10-29 22:47:23.906] 
[2023-10-29 22:47:23.907] $GPVTG,295.07,T,,M,0.82,N,1.52,K,A*38
[2023-10-29 22:47:23.949] 
[2023-10-29 22:47:23.949] $GPGGA,214724.000,5216.6916,N,02048.5515,E,1,5,1.31,79.2,M,39.0,M,,*68
[2023-10-29 22:47:24.024] 
[2023-10-29 22:47:24.024] $GNGSA,A,3,05,20,25,11,26,,,,,,,,1.64,1.31,0.99,1*05
[2023-10-29 22:47:24.078] 
[2023-10-29 22:47:24.079] $GNGSA,A,3,,,,,,,,,,,,,1.64,1.31,0.99,2*02
[2023-10-29 22:47:24.123] 
[2023-10-29 22:47:24.124] $GPGSV,4,1,14,29,81,057,17,25,43,137,16,31,42,271,,28,39,237,,0*67
[2023-10-29 22:47:24.198] 
[2023-10-29 22:47:24.200] $GPGSV,4,2,14,26,36,299,17,18,35,194,18,37,30,179,,05,27,094,29,0*67
[2023-10-29 22:47:24.268] 
[2023-10-29 22:47:24.268] $GPGSV,4,3,14,20,25,056,22,11,12,042,18,16,09,302,,04,07,327,,0*67
[2023-10-29 22:47:24.343] 
[2023-10-29 22:47:24.343] $GPGSV,4,4,14,12,07,126,16,09,03,357,,0*6D
[2023-10-29 22:47:24.384] 
[2023-10-29 22:47:24.385] $GLGSV,1,1,03,82,86,010,,80,70,186,,81,34,044,,1*40
[2023-10-29 22:47:24.441] 
[2023-10-29 22:47:24.441] $GNGLL,5216.6916,N,02048.5515,E,214724.000,A,A*43
[2023-10-29 22:47:24.496] 
[2023-10-29 22:47:24.500] $GPTXT,01,01,02,ANTSTATUS=OPEN*2B
[2023-10-29 22:47:24.531] 
[2023-10-29 22:47:24.836] $GNRMC,214725.000,A,5216.6915,N,02048.5517,E,0.73,292.54,291023,,,A,V*09
[2023-10-29 22:47:24.913] 
[2023-10-29 22:47:24.915] $GPVTG,292.54,T,,M,0.73,N,1.35,K,A*36
[2023-10-29 22:47:24.953] 
[2023-10-29 22:47:24.955] $GPGGA,214725.000,5216.6915,N,02048.5517,E,1,5,1.31,79.2,M,39.0,M,,*68
[2023-10-29 22:47:25.028] 
[2023-10-29 22:47:25.030] $GNGSA,A,3,05,20,25,11,26,,,,,,,,1.64,1.31,0.99,1*05
[2023-10-29 22:47:25.086] 
[2023-10-29 22:47:25.086] $GNGSA,A,3,,,,,,,,,,,,,1.64,1.31,0.99,2*02
[2023-10-29 22:47:25.130] 
[2023-10-29 22:47:25.130] $GPGSV,4,1,14,29,81,057,17,25,43,137,16,31,42,271,,28,39,237,,0*67
[2023-10-29 22:47:25.202] 
[2023-10-29 22:47:25.202] $GPGSV,4,2,14,26,36,299,17,18,35,194,18,37,30,179,,05,27,094,29,0*67
[2023-10-29 22:47:25.274] 
[2023-10-29 22:47:25.274] $GPGSV,4,3,14,20,25,056,22,11,12,042,18,16,09,302,,04,07,327,,0*67
[2023-10-29 22:47:25.344] 
[2023-10-29 22:47:25.345] $GPGSV,4,4,14,12,07,126,15,09,03,357,,0*6E
[2023-10-29 22:47:25.392] 
[2023-10-29 22:47:25.392] $GLGSV,1,1,03,82,86,010,,80,70,186,,81,34,044,,1*40
[2023-10-29 22:47:25.450] 
[2023-10-29 22:47:25.450] $GNGLL,5216.6915,N,02048.5517,E,214725.000,A,A*43
[2023-10-29 22:47:25.500] 
[2023-10-29 22:47:25.500] $GPTXT,01,01,02,ANTSTATUS=OPEN*2B
[2023-10-29 22:47:25.542] 
[2023-10-29 22:47:25.828] $GNRMC,214726.000,A,5216.6916,N,02048.5515,E,0.69,301.06,291023,,,A,V*0C
[2023-10-29 22:47:25.906] 
[2023-10-29 22:47:25.906] $GPVTG,301.06,T,,M,0.69,N,1.28,K,A*3D
[2023-10-29 22:47:25.952] 
[2023-10-29 22:47:25.952] $GPGGA,214726.000,5216.6916,N,02048.5515,E,1,5,1.31,79.2,M,39.0,M,,*6A
[2023-10-29 22:47:26.024] 
[2023-10-29 22:47:26.029] $GNGSA,A,3,05,20,25,11,26,,,,,,,,1.64,1.31,0.99,1*05
[2023-10-29 22:47:26.076] 
[2023-10-29 22:47:26.078] $GNGSA,A,3,,,,,,,,,,,,,1.64,1.31,0.99,2*02
[2023-10-29 22:47:26.123] 
[2023-10-29 22:47:26.124] $GPGSV,4,1,14,29,80,058,17,25,43,137,16,31,42,271,,28,39,237,,0*69
[2023-10-29 22:47:26.193] 
[2023-10-29 22:47:26.195] $GPGSV,4,2,14,26,36,299,17,18,35,194,16,37,30,179,,05,27,094,29,0*69
[2023-10-29 22:47:26.269] 
[2023-10-29 22:47:26.269] $GPGSV,4,3,14,20,25,056,22,11,12,042,18,16,09,302,,04,07,327,,0*67
[2023-10-29 22:47:26.339] 
[2023-10-29 22:47:26.339] $GPGSV,4,4,14,12,07,126,14,09,03,357,,0*6F
[2023-10-29 22:47:26.385] 
[2023-10-29 22:47:26.385] $GLGSV,1,1,03,82,86,010,,80,70,186,,81,34,044,,1*40
[2023-10-29 22:47:26.440] 
[2023-10-29 22:47:26.440] $GNGLL,5216.6916,N,02048.5515,E,214726.000,A,A*41
[2023-10-29 22:47:26.494] 
[2023-10-29 22:47:26.494] $GPTXT,01,01,02,ANTSTATUS=OPEN*2B
[2023-10-29 22:47:26.535] 
[2023-10-29 22:47:26.832] $GNRMC,214727.000,A,5216.6914,N,02048.5515,E,0.53,301.06,291023,,,A,V*06
[2023-10-29 22:47:26.910] 
[2023-10-29 22:47:26.910] $GPVTG,301.06,T,,M,0.53,N,0.98,K,A*3E
[2023-10-29 22:47:26.949] 
[2023-10-29 22:47:26.949] $GPGGA,214727.000,5216.6914,N,02048.5515,E,1,6,1.15,79.2,M,39.0,M,,*6C
[2023-10-29 22:47:27.029] 
[2023-10-29 22:47:27.029] $GNGSA,A,3,05,20,25,11,26,12,,,,,,,1.48,1.15,0.93,1*04
[2023-10-29 22:47:27.083] 
[2023-10-29 22:47:27.083] $GNGSA,A,3,,,,,,,,,,,,,1.48,1.15,0.93,2*00
[2023-10-29 22:47:27.129] 
[2023-10-29 22:47:27.129] $GPGSV,4,1,14,29,80,058,17,25,43,137,15,31,42,271,,28,39,237,,0*6A
[2023-10-29 22:47:27.199] 
[2023-10-29 22:47:27.199] $GPGSV,4,2,14,26,36,299,18,18,35,194,15,37,30,179,,05,27,094,29,0*65
[2023-10-29 22:47:27.271] 
[2023-10-29 22:47:27.272] $GPGSV,4,3,14,20,25,056,22,11,12,042,18,16,09,302,,04,07,327,,0*67
[2023-10-29 22:47:27.342] 
[2023-10-29 22:47:27.344] $GPGSV,4,4,14,12,07,126,14,09,03,357,,0*6F
[2023-10-29 22:47:27.389] 
[2023-10-29 22:47:27.389] $GLGSV,1,1,03,82,86,010,,80,70,186,,81,34,044,,1*40
[2023-10-29 22:47:27.443] 
[2023-10-29 22:47:27.445] $GNGLL,5216.6914,N,02048.5515,E,214727.000,A,A*42
[2023-10-29 22:47:27.499] 
[2023-10-29 22:47:27.501] $GPTXT,01,01,02,ANTSTATUS=OPEN*2B
[2023-10-29 22:47:27.540] 
[2023-10-29 22:47:27.830] $GNRMC,214728.000,A,5216.6914,N,02048.5503,E,0.81,278.10,291023,,,A,V*09
[2023-10-29 22:47:27.909] 
[2023-10-29 22:47:27.909] $GPVTG,278.10,T,,M,0.81,N,1.50,K,A*3C
[2023-10-29 22:47:27.949] 
[2023-10-29 22:47:27.951] $GPGGA,214728.000,5216.6914,N,02048.5503,E,1,6,1.15,79.2,M,39.0,M,,*64
[2023-10-29 22:47:28.022] 
[2023-10-29 22:47:28.023] $GNGSA,A,3,05,20,25,11,26,12,,,,,,,1.48,1.15,0.93,1*04
[2023-10-29 22:47:28.081] 
[2023-10-29 22:47:28.081] $GNGSA,A,3,,,,,,,,,,,,,1.48,1.15,0.93,2*00
[2023-10-29 22:47:28.126] 
[2023-10-29 22:47:28.128] $GPGSV,4,1,14,29,80,058,17,25,43,137,15,31,42,271,,28,39,237,,0*6A
[2023-10-29 22:47:28.200] 
[2023-10-29 22:47:28.205] $GPGSV,4,2,14,26,36,299,17,18,35,194,15,37,30,179,,05,27,094,29,0*6A
[2023-10-29 22:47:28.271] 
[2023-10-29 22:47:28.271] $GPGSV,4,3,14,20,25,056,22,11,12,042,18,16,09,302,,04,07,327,,0*67
[2023-10-29 22:47:28.342] 
[2023-10-29 22:47:28.342] $GPGSV,4,4,14,12,07,126,13,09,03,357,,0*68
[2023-10-29 22:47:28.389] 
[2023-10-29 22:47:28.389] $GLGSV,1,1,03,82,86,010,,80,70,186,,81,34,044,,1*40
[2023-10-29 22:47:28.450] 
[2023-10-29 22:47:28.450] $GNGLL,5216.6914,N,02048.5503,E,214728.000,A,A*4A
[2023-10-29 22:47:28.496] 
[2023-10-29 22:47:28.496] $GPTXT,01,01,02,ANTSTATUS=OPEN*2B
[2023-10-29 22:47:28.533] 
[2023-10-29 22:47:28.840] $GNRMC,214729.000,A,5216.6912,N,02048.5488,E,1.07,271.30,291023,,,A,V*08
[2023-10-29 22:47:28.917] 
[2023-10-29 22:47:28.917] $GPVTG,271.30,T,,M,1.07,N,1.98,K,A*3C
[2023-10-29 22:47:28.959] 
[2023-10-29 22:47:28.959] $GPGGA,214729.000,5216.6912,N,02048.5488,E,1,6,1.15,79.1,M,39.0,M,,*62
[2023-10-29 22:47:29.033] 
[2023-10-29 22:47:29.033] $GNGSA,A,3,05,20,25,11,26,12,,,,,,,1.48,1.15,0.93,1*04
[2023-10-29 22:47:29.090] 
[2023-10-29 22:47:29.091] $GNGSA,A,3,,,,,,,,,,,,,1.48,1.15,0.93,2*00
[2023-10-29 22:47:29.137] 
[2023-10-29 22:47:29.137] $GPGSV,4,1,14,29,80,058,17,25,43,137,16,31,42,271,,28,39,237,,0*69
[2023-10-29 22:47:29.209] 
[2023-10-29 22:47:29.209] $GPGSV,4,2,14,26,36,299,18,18,35,194,16,39,29,174,,05,27,094,29,0*6D
[2023-10-29 22:47:29.284] 
[2023-10-29 22:47:29.284] $GPGSV,4,3,14,20,25,056,23,11,12,042,18,16,09,302,,04,07,327,,0*66
[2023-10-29 22:47:29.350] 
[2023-10-29 22:47:29.352] $GPGSV,4,4,14,12,07,126,14,09,03,357,,0*6F
[2023-10-29 22:47:29.396] 
[2023-10-29 22:47:29.396] $GLGSV,1,1,03,82,86,010,,80,70,186,,81,34,044,,1*40
[2023-10-29 22:47:29.451] 
[2023-10-29 22:47:29.452] $GNGLL,5216.6912,N,02048.5488,E,214729.000,A,A*4F
[2023-10-29 22:47:29.509] 
[2023-10-29 22:47:29.509] $GPTXT,01,01,02,ANTSTATUS=OPEN*2B
[2023-10-29 22:47:29.541] 
[2023-10-29 22:47:29.833] $GNRMC,214730.000,A,5216.6912,N,02048.5487,E,1.03,272.39,291023,,,A,V*01
[2023-10-29 22:47:29.911] 
[2023-10-29 22:47:29.911] $GPVTG,272.39,T,,M,1.03,N,1.90,K,A*3A
[2023-10-29 22:47:29.950] 
[2023-10-29 22:47:29.952] $GPGGA,214730.000,5216.6912,N,02048.5487,E,1,6,1.15,79.1,M,39.0,M,,*65
[2023-10-29 22:47:30.026] 
[2023-10-29 22:47:30.026] $GNGSA,A,3,05,20,25,11,26,12,,,,,,,1.48,1.15,0.93,1*04
[2023-10-29 22:47:30.082] 
[2023-10-29 22:47:30.084] $GNGSA,A,3,,,,,,,,,,,,,1.48,1.15,0.93,2*00
[2023-10-29 22:47:30.130] 
[2023-10-29 22:47:30.130] $GPGSV,4,1,14,29,80,058,17,25,43,137,15,31,42,271,,28,39,237,,0*6A
[2023-10-29 22:47:30.200] 
[2023-10-29 22:47:30.200] $GPGSV,4,2,14,26,36,299,18,18,35,194,15,39,29,174,,05,27,094,28,0*6F
[2023-10-29 22:47:30.273] 
[2023-10-29 22:47:30.273] $GPGSV,4,3,14,20,25,056,23,11,12,042,18,16,09,302,,04,07,327,,0*66
[2023-10-29 22:47:30.344] 
[2023-10-29 22:47:30.344] $GPGSV,4,4,14,12,07,126,14,09,03,357,,0*6F
[2023-10-29 22:47:30.390] 
[2023-10-29 22:47:30.390] $GLGSV,1,1,03,82,86,010,,80,70,186,,81,34,044,,1*40
[2023-10-29 22:47:30.446] 
[2023-10-29 22:47:30.446] $GNGLL,5216.6912,N,02048.5487,E,214730.000,A,A*48
[2023-10-29 22:47:30.497] 
[2023-10-29 22:47:30.498] $GPTXT,01,01,02,ANTSTATUS=OPEN*2B
[2023-10-29 22:47:30.535] 
[2023-10-29 22:47:30.839] $GNRMC,214731.000,A,5216.6911,N,02048.5484,E,1.06,271.10,291023,,,A,V*0D
[2023-10-29 22:47:30.917] 
[2023-10-29 22:47:30.917] $GPVTG,271.10,T,,M,1.06,N,1.96,K,A*31
[2023-10-29 22:47:30.957] 
[2023-10-29 22:47:30.959] $GPGGA,214731.000,5216.6911,N,02048.5484,E,1,6,1.15,79.1,M,39.0,M,,*64
[2023-10-29 22:47:31.030] 
[2023-10-29 22:47:31.032] $GNGSA,A,3,05,20,25,11,26,12,,,,,,,1.48,1.15,0.93,1*04
[2023-10-29 22:47:31.089] 
[2023-10-29 22:47:31.091] $GNGSA,A,3,,,,,,,,,,,,,1.48,1.15,0.93,2*00
[2023-10-29 22:47:31.137] 
[2023-10-29 22:47:31.137] $GPGSV,4,1,14,29,80,058,16,25,43,137,14,31,42,271,,28,39,237,,0*6A
[2023-10-29 22:47:31.207] 
[2023-10-29 22:47:31.212] $GPGSV,4,2,14,26,36,299,17,18,35,194,15,39,29,174,,05,27,094,28,0*60
[2023-10-29 22:47:31.281] 
[2023-10-29 22:47:31.281] $GPGSV,4,3,14,20,25,056,23,11,12,042,18,16,09,302,,04,07,327,,0*66
[2023-10-29 22:47:31.351] 
[2023-10-29 22:47:31.351] $GPGSV,4,4,14,12,07,126,13,09,03,357,,0*68
[2023-10-29 22:47:31.397] 
[2023-10-29 22:47:31.397] $GLGSV,1,1,03,82,86,010,,80,70,186,,81,34,044,,1*40
[2023-10-29 22:47:31.451] 
[2023-10-29 22:47:31.453] $GNGLL,5216.6911,N,02048.5484,E,214731.000,A,A*49
[2023-10-29 22:47:31.506] 
[2023-10-29 22:47:31.506] $GPTXT,01,01,02,ANTSTATUS=OPEN*2B
[2023-10-29 22:47:31.542] 
[2023-10-29 22:47:31.829] $GNRMC,214732.000,A,5216.6913,N,02048.5480,E,1.28,275.01,291023,,,A,V*00
[2023-10-29 22:47:31.906] 
[2023-10-29 22:47:31.908] $GPVTG,275.01,T,,M,1.28,N,2.38,K,A*3E
[2023-10-29 22:47:31.946] 
[2023-10-29 22:47:31.946] $GPGGA,214732.000,5216.6913,N,02048.5480,E,1,5,1.31,79.2,M,39.0,M,,*67
[2023-10-29 22:47:32.020] 
[2023-10-29 22:47:32.022] $GNGSA,A,3,05,20,25,11,26,,,,,,,,1.64,1.31,0.99,1*05
[2023-10-29 22:47:32.079] 
[2023-10-29 22:47:32.079] $GNGSA,A,3,,,,,,,,,,,,,1.64,1.31,0.99,2*02
[2023-10-29 22:47:32.123] 
[2023-10-29 22:47:32.125] $GPGSV,4,1,14,29,80,058,16,25,43,137,17,31,42,271,,28,39,237,,0*69
[2023-10-29 22:47:32.197] 
[2023-10-29 22:47:32.197] $GPGSV,4,2,14,26,36,299,17,18,35,194,15,39,29,174,,05,27,094,28,0*60
[2023-10-29 22:47:32.269] 
[2023-10-29 22:47:32.269] $GPGSV,4,3,14,20,25,056,22,11,12,042,18,16,09,302,,04,07,327,,0*67
[2023-10-29 22:47:32.340] 
[2023-10-29 22:47:32.345] $GPGSV,4,4,14,12,07,126,,09,03,357,,0*6A
[2023-10-29 22:47:32.387] 
[2023-10-29 22:47:32.387] $GLGSV,1,1,03,82,86,010,,80,70,186,,81,34,044,,1*40
[2023-10-29 22:47:32.438] 
[2023-10-29 22:47:32.438] $GNGLL,5216.6913,N,02048.5480,E,214732.000,A,A*4C
[2023-10-29 22:47:32.490] 
[2023-10-29 22:47:32.492] $GPTXT,01,01,02,ANTSTATUS=OPEN*2B
[2023-10-29 22:47:32.528] 
[2023-10-29 22:47:32.838] $GNRMC,214733.000,A,5216.6914,N,02048.5480,E,1.31,276.25,291023,,,A,V*0B
[2023-10-29 22:47:32.917] 
[2023-10-29 22:47:32.917] $GPVTG,276.25,T,,M,1.31,N,2.42,K,A*3E
[2023-10-29 22:47:32.958] 
[2023-10-29 22:47:32.961] $GPGGA,214733.000,5216.6914,N,02048.5480,E,1,5,1.31,79.2,M,39.0,M,,*61
[2023-10-29 22:47:33.030] 
[2023-10-29 22:47:33.030] $GNGSA,A,3,05,20,25,11,26,,,,,,,,1.64,1.31,0.99,1*05
[2023-10-29 22:47:33.088] 
[2023-10-29 22:47:33.088] $GNGSA,A,3,,,,,,,,,,,,,1.64,1.31,0.99,2*02
[2023-10-29 22:47:33.131] 
[2023-10-29 22:47:33.133] $GPGSV,4,1,14,29,80,058,15,25,43,137,15,31,42,271,,28,39,237,,0*68
[2023-10-29 22:47:33.204] 
[2023-10-29 22:47:33.204] $GPGSV,4,2,14,26,36,299,17,18,35,194,,39,29,174,,05,27,094,28,0*64
[2023-10-29 22:47:33.273] 
[2023-10-29 22:47:33.275] $GPGSV,4,3,14,20,25,056,22,11,12,042,18,16,09,302,,04,07,327,,0*67
[2023-10-29 22:47:33.344] 
[2023-10-29 22:47:33.346] $GPGSV,4,4,14,12,07,126,,09,03,357,,0*6A
[2023-10-29 22:47:33.390] 
[2023-10-29 22:47:33.390] $GLGSV,1,1,03,82,86,010,,80,70,186,,81,34,044,,1*40
[2023-10-29 22:47:33.445] 
[2023-10-29 22:47:33.445] $GNGLL,5216.6914,N,02048.5480,E,214733.000,A,A*4A
[2023-10-29 22:47:33.498] 
[2023-10-29 22:47:33.499] $GPTXT,01,01,02,ANTSTATUS=OPEN*2B
[2023-10-29 22:47:33.537] 
[2023-10-29 22:47:33.860] $GNRMC,214734.000,A,5216.6912,N,02048.5468,E,1.60,268.22,291023,,,A,V*00
[2023-10-29 22:47:33.938] 
[2023-10-29 22:47:33.938] $GPVTG,268.22,T,,M,1.60,N,2.97,K,A*3A
[2023-10-29 22:47:33.976] 
[2023-10-29 22:47:33.978] $GPGGA,214734.000,5216.6912,N,02048.5468,E,1,5,1.31,79.2,M,39.0,M,,*66
[2023-10-29 22:47:34.053] 
[2023-10-29 22:47:34.053] $GNGSA,A,3,05,20,25,11,26,,,,,,,,1.64,1.31,0.99,1*05
[2023-10-29 22:47:34.107] 
[2023-10-29 22:47:34.109] $GNGSA,A,3,,,,,,,,,,,,,1.64,1.31,0.99,2*02
[2023-10-29 22:47:34.155] 
[2023-10-29 22:47:34.155] $GPGSV,4,1,14,29,80,058,16,25,43,137,15,31,42,271,,28,39,237,,0*6B
[2023-10-29 22:47:34.226] 
[2023-10-29 22:47:34.226] $GPGSV,4,2,14,26,36,299,18,18,35,194,,39,29,174,,05,27,094,28,0*6B
[2023-10-29 22:47:34.305] 
[2023-10-29 22:47:34.305] $GPGSV,4,3,14,20,25,056,22,11,12,042,18,16,09,302,,04,07,327,,0*67
[2023-10-29 22:47:34.367] 
[2023-10-29 22:47:34.368] $GPGSV,4,4,14,12,07,126,,09,03,357,,0*6A
[2023-10-29 22:47:34.409] 
[2023-10-29 22:47:34.412] $GLGSV,1,1,03,82,86,010,,80,70,186,,81,34,044,,1*40
[2023-10-29 22:47:34.465] 
[2023-10-29 22:47:34.469] $GNGLL,5216.6912,N,02048.5468,E,214734.000,A,A*4D
[2023-10-29 22:47:34.518] 
[2023-10-29 22:47:34.522] $GPTXT,01,01,02,ANTSTATUS=OPEN*2B
[2023-10-29 22:47:34.554] 
[2023-10-29 22:47:34.866] $GNRMC,214735.000,A,5216.6914,N,02048.5469,E,1.38,268.74,291023,,,A,V*08
[2023-10-29 22:47:34.945] 
[2023-10-29 22:47:34.945] $GPVTG,268.74,T,,M,1.38,N,2.56,K,A*39
[2023-10-29 22:47:34.984] 
[2023-10-29 22:47:34.984] $GPGGA,214735.000,5216.6914,N,02048.5469,E,1,6,1.18,79.2,M,39.0,M,,*68
[2023-10-29 22:47:35.058] 
[2023-10-29 22:47:35.059] $GNGSA,A,3,05,20,25,31,11,26,,,,,,,1.54,1.18,0.99,1*0F
[2023-10-29 22:47:35.118] 
[2023-10-29 22:47:35.118] $GNGSA,A,3,,,,,,,,,,,,,1.54,1.18,0.99,2*0A
[2023-10-29 22:47:35.167] 
[2023-10-29 22:47:35.169] $GPGSV,4,1,14,29,80,058,16,25,43,137,16,31,42,271,17,28,39,237,,0*6E
[2023-10-29 22:47:35.236] 
[2023-10-29 22:47:35.236] $GPGSV,4,2,14,26,36,299,19,18,35,194,,39,29,174,,05,27,094,28,0*6A
[2023-10-29 22:47:35.306] 
[2023-10-29 22:47:35.307] $GPGSV,4,3,14,20,25,056,22,11,12,042,18,16,09,302,,04,07,327,,0*67
[2023-10-29 22:47:35.378] 
[2023-10-29 22:47:35.378] $GPGSV,4,4,14,12,07,126,,09,03,357,,0*6A
[2023-10-29 22:47:35.424] 
[2023-10-29 22:47:35.428] $GLGSV,1,1,03,82,86,010,,80,70,186,,81,34,044,,1*40
[2023-10-29 22:47:35.476] 
[2023-10-29 22:47:35.476] $GNGLL,5216.6914,N,02048.5469,E,214735.000,A,A*4B
[2023-10-29 22:47:35.530] 
[2023-10-29 22:47:35.530] $GPTXT,01,01,02,ANTSTATUS=OPEN*2B
[2023-10-29 22:47:35.566] 
[2023-10-29 22:47:35.863] $GNRMC,214736.000,A,5216.6916,N,02048.5470,E,1.31,268.77,291023,,,A,V*0B
[2023-10-29 22:47:35.940] 
[2023-10-29 22:47:35.942] $GPVTG,268.77,T,,M,1.31,N,2.43,K,A*37
[2023-10-29 22:47:35.983] 
[2023-10-29 22:47:35.983] $GPGGA,214736.000,5216.6916,N,02048.5470,E,1,6,1.18,79.2,M,39.0,M,,*61
[2023-10-29 22:47:36.056] 
[2023-10-29 22:47:36.056] $GNGSA,A,3,05,20,25,31,11,26,,,,,,,1.55,1.18,0.99,1*0E
[2023-10-29 22:47:36.114] 
[2023-10-29 22:47:36.114] $GNGSA,A,3,,,,,,,,,,,,,1.55,1.18,0.99,2*0B
[2023-10-29 22:47:36.159] 
[2023-10-29 22:47:36.160] $GPGSV,4,1,14,29,80,058,16,25,43,137,16,31,42,271,17,28,39,237,,0*6E
[2023-10-29 22:47:36.232] 
[2023-10-29 22:47:36.233] $GPGSV,4,2,14,26,36,299,18,18,35,194,,39,29,174,,05,27,094,28,0*6B
[2023-10-29 22:47:36.303] 
[2023-10-29 22:47:36.303] $GPGSV,4,3,14,20,25,056,22,11,12,042,17,16,09,302,,04,07,327,,0*68
[2023-10-29 22:47:36.374] 
[2023-10-29 22:47:36.374] $GPGSV,4,4,14,12,07,126,,09,03,357,,0*6A
[2023-10-29 22:47:36.417] 
[2023-10-29 22:47:36.417] $GLGSV,1,1,03,82,86,010,,80,70,186,,81,34,044,,1*40
[2023-10-29 22:47:36.473] 
[2023-10-29 22:47:36.473] $GNGLL,5216.6916,N,02048.5470,E,214736.000,A,A*42
[2023-10-29 22:47:36.529] 
[2023-10-29 22:47:36.529] $GPTXT,01,01,02,ANTSTATUS=OPEN*2B
[2023-10-29 22:47:36.565] 
[2023-10-29 22:47:36.858] $GNRMC,214737.000,A,5216.6920,N,02048.5466,E,1.25,277.74,291023,,,A,V*00
[2023-10-29 22:47:36.938] 
[2023-10-29 22:47:36.943] $GPVTG,277.74,T,,M,1.25,N,2.31,K,A*3A
[2023-10-29 22:47:36.976] 
[2023-10-29 22:47:36.976] $GPGGA,214737.000,5216.6920,N,02048.5466,E,1,4,3.87,79.2,M,39.0,M,,*64
[2023-10-29 22:47:37.052] 
[2023-10-29 22:47:37.052] $GNGSA,A,3,05,20,25,11,,,,,,,,,3.99,3.87,0.99,1*0E
[2023-10-29 22:47:37.106] 
[2023-10-29 22:47:37.106] $GNGSA,A,3,,,,,,,,,,,,,3.99,3.87,0.99,2*0D
[2023-10-29 22:47:37.151] 
[2023-10-29 22:47:37.151] $GPGSV,4,1,14,29,80,058,16,25,43,137,16,31,42,271,20,28,39,237,,0*6A
[2023-10-29 22:47:37.225] 
[2023-10-29 22:47:37.225] $GPGSV,4,2,14,26,36,299,,18,35,194,,39,29,174,,05,27,094,29,0*63
[2023-10-29 22:47:37.292] 
[2023-10-29 22:47:37.292] $GPGSV,4,3,14,20,25,056,23,11,12,042,17,16,09,302,,04,07,327,,0*69
[2023-10-29 22:47:37.363] 
[2023-10-29 22:47:37.363] $GPGSV,4,4,14,12,07,126,,09,03,357,,0*6A
[2023-10-29 22:47:37.406] 
[2023-10-29 22:47:37.407] $GLGSV,1,1,03,82,86,010,,80,70,186,,81,34,044,,1*40
[2023-10-29 22:47:37.462] 
[2023-10-29 22:47:37.462] $GNGLL,5216.6920,N,02048.5466,E,214737.000,A,A*41
[2023-10-29 22:47:37.514] 
[2023-10-29 22:47:37.516] $GPTXT,01,01,02,ANTSTATUS=OPEN*2B
[2023-10-29 22:47:37.557] 
[2023-10-29 22:47:37.857] $GNRMC,214738.000,A,5216.6922,N,02048.5465,E,1.20,281.35,291023,,,A,V*07
[2023-10-29 22:47:37.933] 
[2023-10-29 22:47:37.935] $GPVTG,281.35,T,,M,1.20,N,2.22,K,A*31
[2023-10-29 22:47:37.975] 
[2023-10-29 22:47:37.975] $GPGGA,214738.000,5216.6922,N,02048.5465,E,1,5,1.32,79.2,M,39.0,M,,*67
[2023-10-29 22:47:38.050] 
[2023-10-29 22:47:38.050] $GNGSA,A,3,05,20,25,31,11,,,,,,,,1.65,1.32,0.99,1*01
[2023-10-29 22:47:38.106] 
[2023-10-29 22:47:38.106] $GNGSA,A,3,,,,,,,,,,,,,1.65,1.32,0.99,2*00
[2023-10-29 22:47:38.151] 
[2023-10-29 22:47:38.152] $GPGSV,4,1,13,29,80,058,16,25,43,137,16,31,42,271,18,28,39,237,,0*66
[2023-10-29 22:47:38.229] 
[2023-10-29 22:47:38.229] $GPGSV,4,2,13,26,36,299,,18,35,194,,05,27,094,29,20,25,056,23,0*60
[2023-10-29 22:47:38.296] 
[2023-10-29 22:47:38.296] $GPGSV,4,3,13,11,12,042,18,16,09,302,,04,07,327,,12,07,126,,0*67
[2023-10-29 22:47:38.364] 
[2023-10-29 22:47:38.364] $GPGSV,4,4,13,09,03,357,,0*5C
[2023-10-29 22:47:38.396] 
[2023-10-29 22:47:38.396] $GLGSV,1,1,03,82,86,010,,80,70,186,,81,34,044,,1*40
[2023-10-29 22:47:38.452] 
[2023-10-29 22:47:38.452] $GNGLL,5216.6922,N,02048.5465,E,214738.000,A,A*4F
[2023-10-29 22:47:38.505] 
[2023-10-29 22:47:38.505] $GPTXT,01,01,02,ANTSTATUS=OPEN*2B
[2023-10-29 22:47:38.540] 
[2023-10-29 22:47:38.863] $GNRMC,214739.000,A,5216.6927,N,02048.5493,E,0.88,288.79,291023,,,A,V*08
[2023-10-29 22:47:38.938] 
[2023-10-29 22:47:38.940] $GPVTG,288.79,T,,M,0.88,N,1.63,K,A*35
[2023-10-29 22:47:38.988] 
[2023-10-29 22:47:38.988] $GPGGA,214739.000,5216.6927,N,02048.5493,E,1,5,1.32,79.2,M,39.0,M,,*6A
[2023-10-29 22:47:39.053] 
[2023-10-29 22:47:39.055] $GNGSA,A,3,05,20,25,31,11,,,,,,,,1.65,1.32,0.99,1*01
[2023-10-29 22:47:39.111] 
[2023-10-29 22:47:39.111] $GNGSA,A,3,,,,,,,,,,,,,1.65,1.32,0.99,2*00
[2023-10-29 22:47:39.156] 
[2023-10-29 22:47:39.157] $GPGSV,4,1,13,29,80,058,16,25,43,137,16,31,42,271,20,28,39,237,17,0*6B
[2023-10-29 22:47:39.233] 
[2023-10-29 22:47:39.233] $GPGSV,4,2,13,26,36,299,,18,35,194,,05,27,094,29,20,25,056,23,0*60
[2023-10-29 22:47:39.303] 
[2023-10-29 22:47:39.303] $GPGSV,4,3,13,11,12,042,17,16,09,302,,04,07,327,,12,07,126,,0*68
[2023-10-29 22:47:39.371] 
[2023-10-29 22:47:39.371] $GPGSV,4,4,13,09,03,357,,0*5C
[2023-10-29 22:47:39.403] 
[2023-10-29 22:47:39.404] $GLGSV,1,1,03,82,86,010,,80,70,186,,81,34,044,,1*40
[2023-10-29 22:47:39.467] 
[2023-10-29 22:47:39.467] $GNGLL,5216.6927,N,02048.5493,E,214739.000,A,A*42
[2023-10-29 22:47:39.512] 
[2023-10-29 22:47:39.512] $GPTXT,01,01,02,ANTSTATUS=OPEN*2B
[2023-10-29 22:47:39.548] 
[2023-10-29 22:47:39.859] $GNRMC,214740.000,A,5216.6932,N,02048.5505,E,0.87,298.86,291023,,,A,V*02
[2023-10-29 22:47:39.937] 
[2023-10-29 22:47:39.937] $GPVTG,298.86,T,,M,0.87,N,1.62,K,A*3A
[2023-10-29 22:47:39.976] 
[2023-10-29 22:47:39.977] $GPGGA,214740.000,5216.6932,N,02048.5505,E,1,5,1.32,79.1,M,39.0,M,,*6D
[2023-10-29 22:47:40.052] 
[2023-10-29 22:47:40.052] $GNGSA,A,3,05,20,25,31,11,,,,,,,,1.65,1.32,0.99,1*01
[2023-10-29 22:47:40.113] 
[2023-10-29 22:47:40.113] $GNGSA,A,3,,,,,,,,,,,,,1.65,1.32,0.99,2*00
[2023-10-29 22:47:40.154] 
[2023-10-29 22:47:40.154] $GPGSV,4,1,13,29,80,058,16,25,43,137,16,31,42,271,20,28,39,237,18,0*64
[2023-10-29 22:47:40.230] 
[2023-10-29 22:47:40.230] $GPGSV,4,2,13,26,36,299,,18,35,194,,05,27,094,29,20,25,056,22,0*61
[2023-10-29 22:47:40.300] 
[2023-10-29 22:47:40.300] $GPGSV,4,3,13,11,12,042,16,16,09,302,,04,07,327,,12,07,126,,0*69
[2023-10-29 22:47:40.368] 
[2023-10-29 22:47:40.370] $GPGSV,4,4,13,09,03,357,,0*5C
[2023-10-29 22:47:40.402] 
[2023-10-29 22:47:40.402] $GLGSV,1,1,03,82,86,010,,80,70,186,,81,34,044,,1*40
[2023-10-29 22:47:40.457] 
[2023-10-29 22:47:40.457] $GNGLL,5216.6932,N,02048.5505,E,214740.000,A,A*46
[2023-10-29 22:47:40.509] 
[2023-10-29 22:47:40.512] $GPTXT,01,01,02,ANTSTATUS=OPEN*2B
[2023-10-29 22:47:40.546] 
[2023-10-29 22:47:40.862] $GNRMC,214741.000,A,5216.6934,N,02048.5512,E,0.83,298.96,291023,,,A,V*06
[2023-10-29 22:47:40.937] 
[2023-10-29 22:47:40.939] $GPVTG,298.96,T,,M,0.83,N,1.53,K,A*3D
[2023-10-29 22:47:40.979] 
[2023-10-29 22:47:40.979] $GPGGA,214741.000,5216.6934,N,02048.5512,E,1,6,1.21,79.1,M,39.0,M,,*6D
[2023-10-29 22:47:41.054] 
[2023-10-29 22:47:41.056] $GNGSA,A,3,28,05,20,25,31,11,,,,,,,1.56,1.21,0.99,1*09
[2023-10-29 22:47:41.115] 
[2023-10-29 22:47:41.115] $GNGSA,A,3,,,,,,,,,,,,,1.56,1.21,0.99,2*02
[2023-10-29 22:47:41.157] 
[2023-10-29 22:47:41.158] $GPGSV,4,1,13,29,80,058,17,25,43,137,16,31,42,271,19,28,39,237,19,0*6E
[2023-10-29 22:47:41.233] 
[2023-10-29 22:47:41.234] $GPGSV,4,2,13,26,36,299,,18,35,194,,05,27,094,29,20,25,056,22,0*61
[2023-10-29 22:47:41.308] 
[2023-10-29 22:47:41.309] $GPGSV,4,3,13,11,12,042,16,16,09,302,,04,07,327,,12,07,126,,0*69
[2023-10-29 22:47:41.372] 
[2023-10-29 22:47:41.374] $GPGSV,4,4,13,09,03,357,,0*5C
[2023-10-29 22:47:41.404] 
[2023-10-29 22:47:41.406] $GLGSV,1,1,03,82,86,010,,80,70,186,,81,34,044,,1*40
[2023-10-29 22:47:41.460] 
[2023-10-29 22:47:41.461] $GNGLL,5216.6934,N,02048.5512,E,214741.000,A,A*47
[2023-10-29 22:47:41.518] 
[2023-10-29 22:47:41.518] $GPTXT,01,01,02,ANTSTATUS=OPEN*2B
[2023-10-29 22:47:41.549] 
[2023-10-29 22:47:41.861] $GNRMC,214742.000,A,5216.6939,N,02048.5532,E,0.00,298.96,291023,,,A,V*01
[2023-10-29 22:47:41.937] 
[2023-10-29 22:47:41.939] $GPVTG,298.96,T,,M,0.00,N,0.00,K,A*31
[2023-10-29 22:47:41.977] 
[2023-10-29 22:47:41.978] $GPGGA,214742.000,5216.6939,N,02048.5532,E,1,6,1.21,79.1,M,39.0,M,,*61
[2023-10-29 22:47:42.053] 
[2023-10-29 22:47:42.053] $GNGSA,A,3,28,05,20,25,31,11,,,,,,,1.56,1.21,0.99,1*09
[2023-10-29 22:47:42.112] 
[2023-10-29 22:47:42.117] $GNGSA,A,3,,,,,,,,,,,,,1.56,1.21,0.99,2*02
[2023-10-29 22:47:42.159] 
[2023-10-29 22:47:42.159] $GPGSV,4,1,13,29,80,058,17,25,43,137,16,31,42,271,19,28,39,237,18,0*6F
[2023-10-29 22:47:42.233] 
[2023-10-29 22:47:42.233] $GPGSV,4,2,13,26,36,299,,18,35,194,,05,27,094,28,20,25,056,21,0*63
[2023-10-29 22:47:42.303] 
[2023-10-29 22:47:42.303] $GPGSV,4,3,13,11,12,042,14,16,09,302,,04,07,327,,12,07,126,,0*6B
[2023-10-29 22:47:42.370] 
[2023-10-29 22:47:42.371] $GPGSV,4,4,13,09,03,357,,0*5C
[2023-10-29 22:47:42.404] 
[2023-10-29 22:47:42.404] $GLGSV,1,1,03,82,86,010,,80,70,186,,81,34,044,,1*40
[2023-10-29 22:47:42.458] 
[2023-10-29 22:47:42.459] $GNGLL,5216.6939,N,02048.5532,E,214742.000,A,A*4B
[2023-10-29 22:47:42.512] 
[2023-10-29 22:47:42.512] $GPTXT,01,01,02,ANTSTATUS=OPEN*2B
[2023-10-29 22:47:42.550] 
[2023-10-29 22:47:42.859] $GNRMC,214743.000,A,5216.6948,N,02048.5544,E,0.00,298.96,291023,,,A,V*07
[2023-10-29 22:47:42.939] 
[2023-10-29 22:47:42.944] $GPVTG,298.96,T,,M,0.00,N,0.00,K,A*31
[2023-10-29 22:47:42.977] 
[2023-10-29 22:47:42.978] $GPGGA,214743.000,5216.6948,N,02048.5544,E,1,6,1.21,79.1,M,39.0,M,,*67
[2023-10-29 22:47:43.055] 
[2023-10-29 22:47:43.055] $GNGSA,A,3,28,05,20,25,31,11,,,,,,,1.56,1.21,0.99,1*09
[2023-10-29 22:47:43.111] 
[2023-10-29 22:47:43.111] $GNGSA,A,3,,,,,,,,,,,,,1.56,1.21,0.99,2*02
[2023-10-29 22:47:43.155] 
[2023-10-29 22:47:43.157] $GPGSV,4,1,13,29,80,058,17,25,43,137,16,31,42,271,19,28,39,237,17,0*60
[2023-10-29 22:47:43.231] 
[2023-10-29 22:47:43.233] $GPGSV,4,2,13,26,36,299,,18,35,194,,05,27,094,29,20,25,056,21,0*62
[2023-10-29 22:47:43.306] 
[2023-10-29 22:47:43.306] $GPGSV,4,3,13,11,12,042,16,16,09,302,,04,07,327,,12,07,126,,0*69
[2023-10-29 22:47:43.372] 
[2023-10-29 22:47:43.372] $GPGSV,4,4,13,09,03,357,,0*5C
[2023-10-29 22:47:43.404] 
[2023-10-29 22:47:43.404] $GLGSV,1,1,03,82,86,010,,80,70,186,,81,34,044,,1*40
[2023-10-29 22:47:43.460] 
[2023-10-29 22:47:43.460] $GNGLL,5216.6948,N,02048.5544,E,214743.000,A,A*4D
[2023-10-29 22:47:43.517] 
[2023-10-29 22:47:43.517] $GPTXT,01,01,02,ANTSTATUS=OPEN*2B
[2023-10-29 22:47:43.549] 
[2023-10-29 22:47:43.860] $GNRMC,214744.000,A,5216.6954,N,02048.5547,E,0.00,349.20,291023,,,A,V*0E
[2023-10-29 22:47:43.938] 
[2023-10-29 22:47:43.938] $GPVTG,349.20,T,,M,0.00,N,0.00,K,A*31
[2023-10-29 22:47:43.987] 
[2023-10-29 22:47:43.987] $GPGGA,214744.000,5216.6954,N,02048.5547,E,1,6,1.21,79.1,M,39.0,M,,*6E
[2023-10-29 22:47:44.053] 
[2023-10-29 22:47:44.053] $GNGSA,A,3,28,05,20,25,31,11,,,,,,,1.56,1.21,0.99,1*09
[2023-10-29 22:47:44.110] 
[2023-10-29 22:47:44.112] $GNGSA,A,3,,,,,,,,,,,,,1.56,1.21,0.99,2*02
[2023-10-29 22:47:44.157] 
[2023-10-29 22:47:44.157] $GPGSV,4,1,13,29,80,058,17,25,43,137,17,31,42,271,20,28,39,237,17,0*6B
[2023-10-29 22:47:44.240] 
[2023-10-29 22:47:44.240] $GPGSV,4,2,13,26,36,299,,18,35,194,,05,27,094,30,20,25,056,22,0*69
[2023-10-29 22:47:44.302] 
[2023-10-29 22:47:44.303] $GPGSV,4,3,13,11,12,042,16,16,09,302,,04,07,327,,12,07,126,,0*69
[2023-10-29 22:47:44.371] 
[2023-10-29 22:47:44.372] $GPGSV,4,4,13,09,03,357,,0*5C
[2023-10-29 22:47:44.403] 
[2023-10-29 22:47:44.405] $GLGSV,1,1,03,82,86,010,,80,70,186,,81,34,044,,1*40
[2023-10-29 22:47:44.459] 
[2023-10-29 22:47:44.461] $GNGLL,5216.6954,N,02048.5547,E,214744.000,A,A*44
[2023-10-29 22:47:44.513] 
[2023-10-29 22:47:44.513] $GPTXT,01,01,02,ANTSTATUS=OPEN*2B
[2023-10-29 22:47:44.550] 
[2023-10-29 22:47:44.860] $GNRMC,214745.000,A,5216.6954,N,02048.5547,E,0.00,349.20,291023,,,A,V*0F
[2023-10-29 22:47:44.936] 
[2023-10-29 22:47:44.938] $GPVTG,349.20,T,,M,0.00,N,0.00,K,A*31
[2023-10-29 22:47:44.984] 
[2023-10-29 22:47:44.984] $GPGGA,214745.000,5216.6954,N,02048.5547,E,1,5,1.43,79.1,M,39.0,M,,*68
[2023-10-29 22:47:45.053] 
[2023-10-29 22:47:45.053] $GNGSA,A,3,28,05,20,25,11,,,,,,,,1.74,1.43,0.99,1*0F
[2023-10-29 22:47:45.111] 
