[2023-11-02 00:16:43.948] 71,28,109,19,76,23,208,,78,23,331,24,85,14,073,,1*7B
[2023-11-02 00:16:43.963] 
[2023-11-02 00:16:43.963] $GLGSV,3,3,10,88,03,265,,72,02,148,,1*71
[2023-11-02 00:16:43.963] 
[2023-11-02 00:16:43.963] $GNGLL,5216.7032,N,02048.5579,E,001623.000,A,A*47
[2023-11-02 00:16:43.963] 
[2023-11-02 00:16:43.963] $GPTXT,01,01,02,ANTSTATUS=OPEN*2B
[2023-11-02 00:16:43.963] 
[2023-11-02 00:16:43.963] $GNRMC,001624.000,A,5216.7038,N,02048.5585,E,1.50,22.76,021123,,,A,V*32
[2023-11-02 00:16:43.963] 
[2023-11-02 00:16:43.963] $GPVTG,22.76,T,,M,1.50,N,2.77,K,A*0A
[2023-11-02 00:16:43.963] 
[2023-11-02 00:16:43.963] $GPGGA,001624.000,5216.7038,N,02048.5585,E,1,6,1.51,83.4,M,39.0,M,,*64
[2023-11-02 00:16:43.963] 
[2023-11-02 00:16:43.963] $GNGSA,A,3,16,18,29,26,27,,,,,,,,1.78,1.51,0.94,1*03
[2023-11-02 00:16:43.963] 
[2023-11-02 00:16:43.963] $GNGSA,A,3,71,,,,,,,,,,,,1.78,1.51,0.94,2*02
[2023-11-02 00:16:43.963] 
[2023-11-02 00:16:43.963] $GPGSV,3,1,12,18,62,066,16,16,60,246,16,23,53,137,14,27,47,292,22,0*60
[2023-11-02 00:16:43.963] 
[2023-11-02 00:16:43.963] $GPGSV,3,2,12,26,43,206,16,10,28,175,,15,16,081,21,29,13,109,23,0*66
[2023-11-02 00:16:43.963] 
[2023-11-02 00:16:43.963] $GPGSV,3,3,12,07,09,335,,08,09,293,,13,09,044,18,05,05,033,,0*66
[2023-11-02 00:16:43.963] 
[2023-11-02 00:16:43.963] $GLGSV,3,1,10,86,60,049,,87,51,284,,77,47,261,,70,32,050,,1*7E
[2023-11-02 00:16:43.963] 
[2023-11-02 00:16:43.963] $GLGSV,3,2,10,71,28,109,19,76,23,208,,78,23,331,24,85,14,073,,1*7B
[2023-11-02 00:16:43.963] 
[2023-11-02 00:16:43.963] $GLGSV,3,3,10,88,03,265,,72,02,148,,1*71
[2023-11-02 00:16:43.963] 
[2023-11-02 00:16:43.963] $GNGLL,5216.7038,N,02048.5585,E,001624.000,A,A*49
[2023-11-02 00:16:43.963] 
[2023-11-02 00:16:43.963] $GPTXT,01,01,02,ANTSTATUS=OPEN*2B
[2023-11-02 00:16:43.963] 
[2023-11-02 00:16:43.963] $GNRMC,001625.000,A,5216.7035,N,02048.5588,E,1.23,29.29,021123,,,A,V*36
[2023-11-02 00:16:43.977] 
[2023-11-02 00:16:43.977] $GPVTG,29.29,T,,M,1.23,N,2.27,K,A*0A
[2023-11-02 00:16:43.977] 
[2023-11-02 00:16:43.977] $GPGGA,001625.000,5216.7035,N,02048.5588,E,1,6,1.51,83.4,M,39.0,M,,*65
[2023-11-02 00:16:43.977] 
[2023-11-02 00:16:43.977] $GNGSA,A,3,16,18,29,26,27,,,,,,,,1.78,1.51,0.94,1*03
[2023-11-02 00:16:43.977] 
[2023-11-02 00:16:43.977] $GNGSA,A,3,71,,,,,,,,,,,,1.78,1.51,0.94,2*02
[2023-11-02 00:16:43.977] 
[2023-11-02 00:16:43.977] $GPGSV,3,1,12,18,62,066,16,16,60,246,16,23,53,137,,27,47,292,23,0*64
[2023-11-02 00:16:43.977] 
[2023-11-02 00:16:43.977] $GPGSV,3,2,12,26,43,206,16,10,28,175,,15,16,081,22,29,13,109,23,0*65
[2023-11-02 00:16:43.977] 
[2023-11-02 00:16:43.977] $GPGSV,3,3,12,07,09,335,,08,09,293,,13,09,044,18,05,05,033,,0*66
[2023-11-02 00:16:43.977] 
[2023-11-02 00:16:43.977] $GLGSV,3,1,10,86,60,049,,87,51,284,,77,47,261,,70,32,050,,1*7E
[2023-11-02 00:16:43.977] 
[2023-11-02 00:16:43.977] $GLGSV,3,2,10,71,28,109,19,76,23,208,,78,23,331,24,85,14,073,,1*7B
[2023-11-02 00:16:43.977] 
[2023-11-02 00:16:43.977] $GLGSV,3,3,10,88,03,265,,72,02,148,,1*71
[2023-11-02 00:16:43.977] 
[2023-11-02 00:16:43.977] $GNGLL,5216.7035,N,02048.5588,E,001625.000,A,A*48
[2023-11-02 00:16:43.977] 
[2023-11-02 00:16:43.977] $GPTXT,01,01,02,ANTSTATUS=OPEN*2B
[2023-11-02 00:16:43.977] 
[2023-11-02 00:16:43.977] $GNRMC,001626.000,A,5216.7037,N,02048.5591,E,1.19,31.35,021123,,,A,V*32
[2023-11-02 00:16:43.977] 
[2023-11-02 00:16:43.977] $GPVTG,31.35,T,,M,1.19,N,2.21,K,A*01
[2023-11-02 00:16:43.977] 
[2023-11-02 00:16:43.977] $GPGGA,001626.000,5216.7037,N,02048.5591,E,1,6,1.51,83.4,M,39.0,M,,*6C
[2023-11-02 00:16:43.977] 
[2023-11-02 00:16:43.977] $GNGSA,A,3,16,18,29,26,27,,,,,,,,1.78,1.51,0.94,1*03
[2023-11-02 00:16:43.977] 
[2023-11-02 00:16:43.977] $GNGSA,A,3,71,,,,,,,,,,,,1.78,1.51,0.94,2*02
[2023-11-02 00:16:43.993] 
[2023-11-02 00:16:43.993] $GPGSV,3,1,12,18,62,066,16,16,60,246,16,23,53,137,,27,47,292,23,0*64
[2023-11-02 00:16:43.993] 
[2023-11-02 00:16:43.993] $GPGSV,3,2,12,26,43,206,16,10,28,175,,15,16,081,22,29,13,109,23,0*65
[2023-11-02 00:16:43.993] 
[2023-11-02 00:16:43.993] $GPGSV,3,3,12,07,09,335,,08,09,293,,13,09,044,18,05,05,033,,0*66
[2023-11-02 00:16:43.993] 
[2023-11-02 00:16:43.993] $GLGSV,3,1,10,86,60,049,,87,51,284,,77,47,261,,70,32,050,,1*7E
[2023-11-02 00:16:43.993] 
[2023-11-02 00:16:43.993] $GLGSV,3,2,10,71,28,109,18,76,23,208,,78,23,331,24,85,14,073,,1*7A
[2023-11-02 00:16:43.993] 
[2023-11-02 00:16:43.993] $GLGSV,3,3,10,88,03,265,,72,02,148,,1*71
[2023-11-02 00:16:43.993] 
[2023-11-02 00:16:43.993] $GNGLL,5216.7037,N,02048.5591,E,001626.000,A,A*41
[2023-11-02 00:16:43.993] 
[2023-11-02 00:16:43.993] $GPTXT,01,01,02,ANTSTATUS=OPEN*2B
[2023-11-02 00:16:43.993] 
[2023-11-02 00:16:43.993] $GNRMC,001627.000,A,5216.7023,N,02048.5585,E,0.00,31.35,021123,,,A,V*3A
[2023-11-02 00:16:43.993] 
[2023-11-02 00:16:43.993] $GPVTG,31.35,T,,M,0.00,N,0.00,K,A*09
[2023-11-02 00:16:43.993] 
[2023-11-02 00:16:43.993] $GPGGA,001627.000,5216.7023,N,02048.5585,E,1,6,1.51,83.4,M,39.0,M,,*6D
[2023-11-02 00:16:43.993] 
[2023-11-02 00:16:43.993] $GNGSA,A,3,16,18,29,26,27,,,,,,,,1.78,1.51,0.94,1*03
[2023-11-02 00:16:43.993] 
[2023-11-02 00:16:43.993] $GNGSA,A,3,71,,,,,,,,,,,,1.78,1.51,0.94,2*02
[2023-11-02 00:16:43.993] 
[2023-11-02 00:16:43.993] $GPGSV,3,1,12,18,62,066,12,16,60,246,16,23,53,137,,27,47,292,23,0*60
[2023-11-02 00:16:43.993] 
[2023-11-02 00:16:43.993] $GPGSV,3,2,12,26,43,206,16,10,28,175,,15,16,081,21,29,13,109,22,0*67
[2023-11-02 00:16:43.993] 
[2023-11-02 00:16:43.993] $GPGSV,3,3,12,07,09,335,,08,09,293,,13,09,044,18,05,05,033,,0*66
[2023-11-02 00:16:43.993] 
[2023-11-02 00:16:43.993] $GLGSV,3,1,10,86,60,049,,87,51,284,,77,47,261,,70,32,050,,1*7E
[2023-11-02 00:16:44.010] 
[2023-11-02 00:16:44.010] $GLGSV,3,2,10,71,28,109,18,76,23,208,,78,23,331,24,85,14,073,,1*7A
[2023-11-02 00:16:44.010] 
[2023-11-02 00:16:44.010] $GLGSV,3,3,10,88,03,265,,72,02,148,,1*71
[2023-11-02 00:16:44.010] 
[2023-11-02 00:16:44.010] $GNGLL,5216.7023,N,02048.5585,E,001627.000,A,A*40
[2023-11-02 00:16:44.010] 
[2023-11-02 00:16:44.010] $GPTXT,01,01,02,ANTSTATUS=OPEN*2B
[2023-11-02 00:16:44.010] 
[2023-11-02 00:16:44.010] $GNRMC,001628.000,A,5216.7018,N,02048.5581,E,0.00,31.35,021123,,,A,V*39
[2023-11-02 00:16:44.010] 
[2023-11-02 00:16:44.010] $GPVTG,31.35,T,,M,0.00,N,0.00,K,A*09
[2023-11-02 00:16:44.010] 
[2023-11-02 00:16:44.010] $GPGGA,001628.000,5216.7018,N,02048.5581,E,1,6,1.51,83.4,M,39.0,M,,*6E
[2023-11-02 00:16:44.010] 
[2023-11-02 00:16:44.010] $GNGSA,A,3,16,18,29,26,27,,,,,,,,1.78,1.51,0.94,1*03
[2023-11-02 00:16:44.010] 
[2023-11-02 00:16:44.010] $GNGSA,A,3,71,,,,,,,,,,,,1.78,1.51,0.94,2*02
[2023-11-02 00:16:44.010] 
[2023-11-02 00:16:44.010] $GPGSV,3,1,12,18,62,066,13,16,60,246,16,23,53,137,,27,47,292,23,0*61
[2023-11-02 00:16:44.010] 
[2023-11-02 00:16:44.010] $GPGSV,3,2,12,26,43,206,16,10,28,175,15,15,16,081,21,29,13,109,22,0*63
[2023-11-02 00:16:44.010] 
[2023-11-02 00:16:44.010] $GPGSV,3,3,12,07,09,335,,08,09,293,,13,09,044,18,05,05,033,,0*66
[2023-11-02 00:16:44.010] 
[2023-11-02 00:16:44.010] $GLGSV,3,1,10,86,60,049,,87,51,284,,77,47,261,,70,32,050,,1*7E
[2023-11-02 00:16:44.010] 
[2023-11-02 00:16:44.010] $GLGSV,3,2,10,71,28,109,18,76,23,208,,78,23,331,24,85,14,073,,1*7A
[2023-11-02 00:16:44.010] 
[2023-11-02 00:16:44.010] $GLGSV,3,3,10,88,03,265,,72,02,148,,1*71
[2023-11-02 00:16:44.010] 
[2023-11-02 00:16:44.010] $GNGLL,5216.7018,N,02048.5581,E,001628.000,A,A*43
[2023-11-02 00:16:44.010] 
[2023-11-02 00:16:44.010] $GPTXT,01,01,02,ANTSTATUS=OPEN*2B
[2023-11-02 00:16:44.025] 
[2023-11-02 00:16:44.025] $GNRMC,001629.000,A,5216.7017,N,02048.5580,E,0.00,31.35,021123,,,A,V*36
[2023-11-02 00:16:44.025] 
[2023-11-02 00:16:44.025] $GPVTG,31.35,T,,M,0.00,N,0.00,K,A*09
[2023-11-02 00:16:44.025] 
[2023-11-02 00:16:44.025] $GPGGA,001629.000,5216.7017,N,02048.5580,E,1,6,1.51,83.4,M,39.0,M,,*61
[2023-11-02 00:16:44.025] 
[2023-11-02 00:16:44.025] $GNGSA,A,3,16,18,29,26,27,,,,,,,,1.78,1.51,0.94,1*03
[2023-11-02 00:16:44.025] 
[2023-11-02 00:16:44.025] $GNGSA,A,3,71,,,,,,,,,,,,1.78,1.51,0.94,2*02
[2023-11-02 00:16:44.025] 
[2023-11-02 00:16:44.025] $GPGSV,3,1,12,18,62,066,13,16,60,246,16,23,53,137,,27,47,292,22,0*60
[2023-11-02 00:16:44.025] 
[2023-11-02 00:16:44.025] $GPGSV,3,2,12,26,43,206,16,10,28,175,16,15,16,081,21,29,13,109,22,0*60
[2023-11-02 00:16:44.025] 
[2023-11-02 00:16:44.025] $GPGSV,3,3,12,07,09,335,,08,09,293,,13,09,044,18,05,05,033,,0*66
[2023-11-02 00:16:44.025] 
[2023-11-02 00:16:44.025] $GLGSV,3,1,10,86,60,049,,87,51,284,,77,47,261,,70,32,050,,1*7E
[2023-11-02 00:16:44.025] 
[2023-11-02 00:16:44.025] $GLGSV,3,2,10,71,28,109,18,76,23,208,,78,23,331,24,85,14,073,,1*7A
[2023-11-02 00:16:44.025] 
[2023-11-02 00:16:44.025] $GLGSV,3,3,10,88,03,265,,72,02,148,,1*71
[2023-11-02 00:16:44.025] 
[2023-11-02 00:16:44.025] $GNGLL,5216.7017,N,02048.5580,E,001629.000,A,A*4C
[2023-11-02 00:16:44.025] 
[2023-11-02 00:16:44.025] $GPTXT,01,01,02,ANTSTATUS=OPEN*2B
[2023-11-02 00:16:44.025] 
[2023-11-02 00:16:44.025] $GNRMC,001630.000,A,5216.7017,N,02048.5580,E,0.00,31.35,021123,,,A,V*3E
[2023-11-02 00:16:44.025] 
[2023-11-02 00:16:44.025] $GPVTG,31.35,T,,M,0.00,N,0.00,K,A*09
[2023-11-02 00:16:44.025] 
[2023-11-02 00:16:44.025] $GPGGA,001630.000,5216.7017,N,02048.5580,E,1,5,1.78,83.4,M,39.0,M,,*61
[2023-11-02 00:16:44.025] 
[2023-11-02 00:16:44.025] $GNGSA,A,3,16,29,26,27,,,,,,,,,2.03,1.78,0.98,1*02
[2023-11-02 00:16:44.041] 
[2023-11-02 00:16:44.041] $GNGSA,A,3,71,,,,,,,,,,,,2.03,1.78,0.98,2*0A
[2023-11-02 00:16:44.041] 
[2023-11-02 00:16:44.041] $GPGSV,3,1,12,18,62,066,14,16,60,246,16,23,53,137,,27,47,292,22,0*67
[2023-11-02 00:16:44.041] 
[2023-11-02 00:16:44.041] $GPGSV,3,2,12,26,43,206,16,10,28,175,16,15,16,081,21,29,13,109,22,0*60
[2023-11-02 00:16:44.041] 
[2023-11-02 00:16:44.041] $GPGSV,3,3,12,07,09,335,,08,09,293,,13,09,044,18,05,05,033,,0*66
[2023-11-02 00:16:44.042] 
[2023-11-02 00:16:44.042] $GLGSV,3,1,10,86,60,049,,87,51,284,,77,47,261,,70,32,050,,1*7E
[2023-11-02 00:16:44.042] 
[2023-11-02 00:16:44.042] $GLGSV,3,2,10,71,28,109,19,76,23,208,,78,23,331,24,85,14,073,,1*7B
[2023-11-02 00:16:44.042] 
[2023-11-02 00:16:44.042] $GLGSV,3,3,10,88,03,265,,72,02,148,,1*71
[2023-11-02 00:16:44.042] 
[2023-11-02 00:16:44.042] $GNGLL,5216.7017,N,02048.5580,E,001630.000,A,A*44
[2023-11-02 00:16:44.042] 
[2023-11-02 00:16:44.042] $GPTXT,01,01,02,ANTSTATUS=OPEN*2B
[2023-11-02 00:16:44.042] 
[2023-11-02 00:16:44.042] $GNRMC,001631.000,A,5216.7017,N,02048.5580,E,0.00,31.35,021123,,,A,V*3F
[2023-11-02 00:16:44.042] 
[2023-11-02 00:16:44.042] $GPVTG,31.35,T,,M,0.00,N,0.00,K,A*09
[2023-11-02 00:16:44.042] 
[2023-11-02 00:16:44.042] $GPGGA,001631.000,5216.7017,N,02048.5580,E,1,5,1.78,83.4,M,39.0,M,,*60
[2023-11-02 00:16:44.042] 
[2023-11-02 00:16:44.042] $GNGSA,A,3,16,29,26,27,,,,,,,,,2.03,1.78,0.98,1*02
[2023-11-02 00:16:44.042] 
[2023-11-02 00:16:44.042] $GNGSA,A,3,71,,,,,,,,,,,,2.03,1.78,0.98,2*0A
[2023-11-02 00:16:44.042] 
[2023-11-02 00:16:44.042] $GPGSV,3,1,12,18,62,066,15,16,60,246,16,23,53,137,,27,47,292,22,0*66
[2023-11-02 00:16:44.042] 
[2023-11-02 00:16:44.042] $GPGSV,3,2,12,26,43,206,16,10,28,175,16,15,16,081,21,29,13,109,22,0*60
[2023-11-02 00:16:44.042] 
[2023-11-02 00:16:44.042] $GPGSV,3,3,12,07,09,335,,08,09,293,,13,09,044,18,05,05,033,,0*66
[2023-11-02 00:16:44.056] 
[2023-11-02 00:16:44.056] $GLGSV,3,1,10,86,60,049,,87,51,284,,77,47,261,,70,32,050,,1*7E
[2023-11-02 00:16:44.056] 
[2023-11-02 00:16:44.056] $GLGSV,3,2,10,71,28,109,19,76,23,208,,78,23,331,24,85,14,073,,1*7B
[2023-11-02 00:16:44.056] 
[2023-11-02 00:16:44.056] $GLGSV,3,3,10,88,03,265,,72,02,148,,1*71
[2023-11-02 00:16:44.056] 
[2023-11-02 00:16:44.056] $GNGLL,5216.7017,N,02048.5580,E,001631.000,A,A*45
[2023-11-02 00:16:44.056] 
[2023-11-02 00:16:44.056] $GPTXT,01,01,02,ANTSTATUS=OPEN*2B
[2023-11-02 00:16:44.056] 
[2023-11-02 00:16:44.056] $GNRMC,001632.000,A,5216.7017,N,02048.5580,E,0.00,31.35,021123,,,A,V*3C
[2023-11-02 00:16:44.056] 
[2023-11-02 00:16:44.056] $GPVTG,31.35,T,,M,0.00,N,0.00,K,A*09
[2023-11-02 00:16:44.056] 
[2023-11-02 00:16:44.056] $GPGGA,001632.000,5216.7017,N,02048.5580,E,1,6,1.51,83.4,M,39.0,M,,*6B
[2023-11-02 00:16:44.056] 
[2023-11-02 00:16:44.056] $GNGSA,A,3,16,18,29,26,27,,,,,,,,1.78,1.51,0.94,1*03
[2023-11-02 00:16:44.056] 
[2023-11-02 00:16:44.056] $GNGSA,A,3,71,,,,,,,,,,,,1.78,1.51,0.94,2*02
[2023-11-02 00:16:44.056] 
[2023-11-02 00:16:44.056] $GPGSV,3,1,12,18,62,066,13,16,60,246,16,23,53,137,,27,47,292,22,0*60
[2023-11-02 00:16:44.056] 
[2023-11-02 00:16:44.056] $GPGSV,3,2,12,26,43,206,16,10,28,175,17,15,16,081,21,29,13,109,22,0*61
[2023-11-02 00:16:44.056] 
[2023-11-02 00:16:44.056] $GPGSV,3,3,12,07,09,335,,08,09,293,,13,09,044,18,05,05,033,,0*66
[2023-11-02 00:16:44.056] 
[2023-11-02 00:16:44.056] $GLGSV,3,1,10,86,60,049,,87,51,284,,77,47,261,,70,32,050,,1*7E
[2023-11-02 00:16:44.056] 
[2023-11-02 00:16:44.056] $GLGSV,3,2,10,71,28,109,19,76,23,208,,78,23,331,24,85,14,073,,1*7B
[2023-11-02 00:16:44.056] 
[2023-11-02 00:16:44.056] $GLGSV,3,3,10,88,03,265,,72,02,148,,1*71
[2023-11-02 00:16:44.056] 
[2023-11-02 00:16:44.056] $GNGLL,5216.7017,N,02048.5580,E,001632.000,A,A*46
[2023-11-02 00:16:44.071] 
[2023-11-02 00:16:44.071] $GPTXT,01,01,02,ANTSTATUS=OPEN*2B
[2023-11-02 00:16:44.071] 
[2023-11-02 00:16:44.071] $GNRMC,001633.000,A,5216.7017,N,02048.5580,E,0.00,31.35,021123,,,A,V*3D
[2023-11-02 00:16:44.071] 
[2023-11-02 00:16:44.071] $GPVTG,31.35,T,,M,0.00,N,0.00,K,A*09
[2023-11-02 00:16:44.071] 
[2023-11-02 00:16:44.071] $GPGGA,001633.000,5216.7017,N,02048.5580,E,1,6,1.51,83.4,M,39.0,M,,*6A
[2023-11-02 00:16:44.071] 
[2023-11-02 00:16:44.071] $GNGSA,A,3,16,18,29,26,27,,,,,,,,1.78,1.51,0.94,1*03
[2023-11-02 00:16:44.071] 
[2023-11-02 00:16:44.071] $GNGSA,A,3,71,,,,,,,,,,,,1.78,1.51,0.94,2*02
[2023-11-02 00:16:44.071] 
[2023-11-02 00:16:44.071] $GPGSV,3,1,12,18,62,066,14,16,60,246,16,23,53,137,,27,47,292,22,0*67
[2023-11-02 00:16:44.071] 
[2023-11-02 00:16:44.071] $GPGSV,3,2,12,26,43,206,16,10,28,175,16,15,16,081,21,29,13,109,22,0*60
[2023-11-02 00:16:44.071] 
[2023-11-02 00:16:44.071] $GPGSV,3,3,12,07,09,335,,08,09,293,,13,09,044,18,05,05,033,,0*66
[2023-11-02 00:16:44.071] 
[2023-11-02 00:16:44.071] $GLGSV,3,1,10,86,60,049,,87,51,284,,77,47,261,,70,32,050,,1*7E
[2023-11-02 00:16:44.071] 
[2023-11-02 00:16:44.071] $GLGSV,3,2,10,71,28,109,19,76,23,208,,78,23,331,24,85,14,073,,1*7B
[2023-11-02 00:16:44.071] 
[2023-11-02 00:16:44.071] $GLGSV,3,3,10,88,03,265,,72,02,148,,1*71
[2023-11-02 00:16:44.071] 
[2023-11-02 00:16:44.071] $GNGLL,5216.7017,N,02048.5580,E,001633.000,A,A*47
[2023-11-02 00:16:44.071] 
[2023-11-02 00:16:44.071] $GPTXT,01,01,02,ANTSTATUS=OPEN*2B
[2023-11-02 00:16:44.071] 
[2023-11-02 00:16:44.071] $GNRMC,001634.000,A,5216.7017,N,02048.5580,E,0.00,31.35,021123,,,A,V*3A
[2023-11-02 00:16:44.071] 
[2023-11-02 00:16:44.071] $GPVTG,31.35,T,,M,0.00,N,0.00,K,A*09
[2023-11-02 00:16:44.071] 
[2023-11-02 00:16:44.071] $GPGGA,001634.000,5216.7017,N,02048.5580,E,1,6,1.51,83.4,M,39.0,M,,*6D
[2023-11-02 00:16:44.087] 
[2023-11-02 00:16:44.087] $GNGSA,A,3,16,18,29,26,27,,,,,,,,1.78,1.51,0.94,1*03
[2023-11-02 00:16:44.087] 
[2023-11-02 00:16:44.087] $GNGSA,A,3,71,,,,,,,,,,,,1.78,1.51,0.94,2*02
[2023-11-02 00:16:44.087] 
[2023-11-02 00:16:44.087] $GPGSV,3,1,12,18,62,066,14,16,60,246,16,23,53,137,,27,47,292,22,0*67
[2023-11-02 00:16:44.087] 
[2023-11-02 00:16:44.087] $GPGSV,3,2,12,26,43,206,16,10,28,175,16,15,16,081,21,29,13,109,22,0*60
[2023-11-02 00:16:44.087] 
[2023-11-02 00:16:44.087] $GPGSV,3,3,12,07,09,335,,08,09,293,,13,09,044,18,05,05,033,,0*66
[2023-11-02 00:16:44.087] 
[2023-11-02 00:16:44.087] $GLGSV,3,1,10,86,60,049,,87,51,284,,77,47,261,,70,32,050,,1*7E
[2023-11-02 00:16:44.087] 
[2023-11-02 00:16:44.087] $GLGSV,3,2,10,71,28,109,18,76,23,208,,78,23,331,24,85,14,073,,1*7A
[2023-11-02 00:16:44.087] 
[2023-11-02 00:16:44.087] $GLGSV,3,3,10,88,03,265,,72,02,148,,1*71
[2023-11-02 00:16:44.087] 
[2023-11-02 00:16:44.087] $GNGLL,5216.7017,N,02048.5580,E,001634.000,A,A*40
[2023-11-02 00:16:44.087] 
[2023-11-02 00:16:44.087] $GPTXT,01,01,02,ANTSTATUS=OPEN*2B
[2023-11-02 00:16:44.087] 
[2023-11-02 00:16:44.087] $GNRMC,001635.000,A,5216.7017,N,02048.5580,E,0.00,31.35,021123,,,A,V*3B
[2023-11-02 00:16:44.087] 
[2023-11-02 00:16:44.087] $GPVTG,31.35,T,,M,0.00,N,0.00,K,A*09
[2023-11-02 00:16:44.087] 
[2023-11-02 00:16:44.087] $GPGGA,001635.000,5216.7017,N,02048.5580,E,1,5,1.55,83.4,M,39.0,M,,*6B
[2023-11-02 00:16:44.087] 
[2023-11-02 00:16:44.087] $GNGSA,A,3,18,29,26,27,,,,,,,,,1.81,1.55,0.94,1*06
[2023-11-02 00:16:44.087] 
[2023-11-02 00:16:44.087] $GNGSA,A,3,71,,,,,,,,,,,,1.81,1.55,0.94,2*00
[2023-11-02 00:16:44.087] 
[2023-11-02 00:16:44.087] $GPGSV,3,1,12,18,62,066,13,16,60,246,15,23,53,137,,27,47,292,22,0*63
[2023-11-02 00:16:44.087] 
[2023-11-02 00:16:44.087] $GPGSV,3,2,12,26,43,206,16,10,28,175,16,15,16,081,21,29,13,109,21,0*63
[2023-11-02 00:16:44.104] 
[2023-11-02 00:16:44.104] $GPGSV,3,3,12,07,09,335,,08,09,293,,13,09,044,18,05,05,033,,0*66
[2023-11-02 00:16:44.104] 
[2023-11-02 00:16:44.104] $GLGSV,3,1,10,86,60,049,,87,51,284,,77,47,261,,70,32,050,,1*7E
[2023-11-02 00:16:44.104] 
[2023-11-02 00:16:44.104] $GLGSV,3,2,10,71,28,109,18,76,23,208,,78,23,331,24,85,14,073,,1*7A
[2023-11-02 00:16:44.104] 
[2023-11-02 00:16:44.104] $GLGSV,3,3,10,88,03,265,,72,02,148,,1*71
[2023-11-02 00:16:44.104] 
[2023-11-02 00:16:44.104] $GNGLL,5216.7017,N,02048.5580,E,001635.000,A,A*41
[2023-11-02 00:16:44.104] 
[2023-11-02 00:16:44.104] $GPTXT,01,01,02,ANTSTATUS=OPEN*2B
[2023-11-02 00:16:44.104] 
[2023-11-02 00:16:44.104] $GNRMC,001636.000,A,5216.7017,N,02048.5580,E,0.00,31.35,021123,,,A,V*38
[2023-11-02 00:16:44.104] 
[2023-11-02 00:16:44.104] $GPVTG,31.35,T,,M,0.00,N,0.00,K,A*09
[2023-11-02 00:16:44.104] 
[2023-11-02 00:16:44.104] $GPGGA,001636.000,5216.7017,N,02048.5580,E,1,5,1.55,83.4,M,39.0,M,,*68
[2023-11-02 00:16:44.104] 
[2023-11-02 00:16:44.104] $GNGSA,A,3,18,29,26,27,,,,,,,,,1.82,1.55,0.94,1*05
[2023-11-02 00:16:44.104] 
[2023-11-02 00:16:44.104] $GNGSA,A,3,71,,,,,,,,,,,,1.82,1.55,0.94,2*03
[2023-11-02 00:16:44.104] 
[2023-11-02 00:16:44.104] $GPGSV,3,1,12,18,62,066,14,16,60,246,14,23,53,137,,27,47,292,22,0*65
[2023-11-02 00:16:44.104] 
[2023-11-02 00:16:44.104] $GPGSV,3,2,12,26,43,206,16,10,28,175,16,15,16,081,21,29,13,109,21,0*63
[2023-11-02 00:16:44.104] 
[2023-11-02 00:16:44.104] $GPGSV,3,3,12,07,09,335,,08,09,293,,13,09,044,18,05,05,033,,0*66
[2023-11-02 00:16:44.104] 
[2023-11-02 00:16:44.104] $GLGSV,3,1,10,86,60,049,,87,51,284,,77,47,261,,70,32,050,,1*7E
[2023-11-02 00:16:44.104] 
[2023-11-02 00:16:44.104] $GLGSV,3,2,10,71,28,109,18,76,23,208,,78,23,331,24,85,14,073,,1*7A
[2023-11-02 00:16:44.104] 
[2023-11-02 00:16:44.119] $GLGSV,3,3,10,88,03,265,,72,02,148,,1*71
[2023-11-02 00:16:44.119] 
[2023-11-02 00:16:44.119] $GNGLL,5216.7017,N,02048.5580,E,001636.000,A,A*42
[2023-11-02 00:16:44.119] 
[2023-11-02 00:16:44.119] $GPTXT,01,01,02,ANTSTATUS=OPEN*2B
[2023-11-02 00:16:44.119] 
[2023-11-02 00:16:44.119] $GNRMC,001637.000,A,5216.7017,N,02048.5580,E,0.00,31.35,021123,,,A,V*39
[2023-11-02 00:16:44.119] 
[2023-11-02 00:16:44.119] $GPVTG,31.35,T,,M,0.00,N,0.00,K,A*09
[2023-11-02 00:16:44.119] 
[2023-11-02 00:16:44.119] $GPGGA,001637.000,5216.7017,N,02048.5580,E,1,5,1.55,83.4,M,39.0,M,,*69
[2023-11-02 00:16:44.119] 
[2023-11-02 00:16:44.119] $GNGSA,A,3,18,29,26,27,,,,,,,,,1.81,1.55,0.94,1*06
[2023-11-02 00:16:44.119] 
[2023-11-02 00:16:44.119] $GNGSA,A,3,71,,,,,,,,,,,,1.81,1.55,0.94,2*00
[2023-11-02 00:16:44.119] 
[2023-11-02 00:16:44.119] $GPGSV,3,1,12,18,62,066,15,16,60,246,16,23,53,137,,27,47,292,22,0*66
[2023-11-02 00:16:44.119] 
[2023-11-02 00:16:44.119] $GPGSV,3,2,12,26,43,206,16,10,28,175,16,15,16,081,20,29,13,109,21,0*62
[2023-11-02 00:16:44.119] 
[2023-11-02 00:16:44.119] $GPGSV,3,3,12,07,09,335,,08,09,293,,13,09,044,18,05,05,033,,0*66
[2023-11-02 00:16:44.119] 
[2023-11-02 00:16:44.119] $GLGSV,3,1,10,86,60,049,,87,51,284,,77,47,261,,70,32,050,,1*7E
[2023-11-02 00:16:44.119] 
[2023-11-02 00:16:44.119] $GLGSV,3,2,10,71,28,109,19,76,23,208,,78,23,331,24,85,14,073,,1*7B
[2023-11-02 00:16:44.119] 
[2023-11-02 00:16:44.119] $GLGSV,3,3,10,88,03,265,,72,02,148,,1*71
[2023-11-02 00:16:44.119] 
[2023-11-02 00:16:44.119] $GNGLL,5216.7017,N,02048.5580,E,001637.000,A,A*43
[2023-11-02 00:16:44.119] 
[2023-11-02 00:16:44.119] $GPTXT,01,01,02,ANTSTATUS=OPEN*2B
[2023-11-02 00:16:44.119] 
[2023-11-02 00:16:44.119] $GNRMC,001638.000,A,5216.7017,N,02048.5580,E,0.00,31.35,021123,,,A,V*36
[2023-11-02 00:16:44.119] 
[2023-11-02 00:16:44.119] $GPVTG,31.35,T,,M,0.00,N,0.00,K,A*09
[2023-11-02 00:16:44.134] 
[2023-11-02 00:16:44.134] $GPGGA,001638.000,5216.7017,N,02048.5580,E,1,5,1.55,83.4,M,39.0,M,,*66
[2023-11-02 00:16:44.134] 
[2023-11-02 00:16:44.134] $GNGSA,A,3,18,29,26,27,,,,,,,,,1.82,1.55,0.94,1*05
[2023-11-02 00:16:44.134] 
[2023-11-02 00:16:44.134] $GNGSA,A,3,71,,,,,,,,,,,,1.82,1.55,0.94,2*03
[2023-11-02 00:16:44.134] 
[2023-11-02 00:16:44.134] $GPGSV,3,1,12,18,62,066,15,16,60,246,,23,53,137,,27,47,292,22,0*61
[2023-11-02 00:16:44.134] 
[2023-11-02 00:16:44.134] $GPGSV,3,2,12,26,43,206,16,10,28,175,16,15,16,081,20,29,13,109,21,0*62
[2023-11-02 00:16:44.134] 
[2023-11-02 00:16:44.134] $GPGSV,3,3,12,07,09,335,,08,09,293,,13,09,044,18,05,05,033,,0*66
[2023-11-02 00:16:44.134] 
[2023-11-02 00:16:44.134] $GLGSV,3,1,10,86,60,049,,87,51,284,,77,47,261,,70,32,050,,1*7E
[2023-11-02 00:16:44.134] 
[2023-11-02 00:16:44.134] $GLGSV,3,2,10,71,28,109,19,76,23,208,,78,23,331,24,85,14,073,,1*7B
[2023-11-02 00:16:44.134] 
[2023-11-02 00:16:44.134] $GLGSV,3,3,10,88,03,265,,72,02,148,,1*71
[2023-11-02 00:16:44.134] 
[2023-11-02 00:16:44.134] $GNGLL,5216.7017,N,02048.5580,E,001638.000,A,A*4C
[2023-11-02 00:16:44.134] 
[2023-11-02 00:16:44.134] $GPTXT,01,01,02,ANTSTATUS=OPEN*2B
[2023-11-02 00:16:44.134] 
[2023-11-02 00:16:44.134] $GNRMC,001639.000,A,5216.7017,N,02048.5580,E,0.00,31.35,021123,,,A,V*37
[2023-11-02 00:16:44.134] 
[2023-11-02 00:16:44.134] $GPVTG,31.35,T,,M,0.00,N,0.00,K,A*09
[2023-11-02 00:16:44.134] 
[2023-11-02 00:16:44.134] $GPGGA,001639.000,5216.7017,N,02048.5580,E,1,5,1.55,83.4,M,39.0,M,,*67
[2023-11-02 00:16:44.134] 
[2023-11-02 00:16:44.134] $GNGSA,A,3,18,29,26,27,,,,,,,,,1.81,1.55,0.94,1*06
[2023-11-02 00:16:44.134] 
[2023-11-02 00:16:44.134] $GNGSA,A,3,71,,,,,,,,,,,,1.81,1.55,0.94,2*00
[2023-11-02 00:16:44.134] 
[2023-11-02 00:16:44.134] $GPGSV,3,1,12,18,62,066,14,16,60,246,14,23,53,137,,27,47,292,22,0*65
[2023-11-02 00:16:44.150] 
[2023-11-02 00:16:44.150] $GPGSV,3,2,12,26,43,206,16,10,28,175,16,15,16,081,20,29,13,109,21,0*62
[2023-11-02 00:16:44.150] 
[2023-11-02 00:16:44.150] $GPGSV,3,3,12,07,09,335,,08,09,293,,13,09,044,18,05,05,033,,0*66
[2023-11-02 00:16:44.150] 
[2023-11-02 00:16:44.150] $GLGSV,3,1,10,86,60,049,,87,51,284,,77,47,261,,70,32,050,,1*7E
[2023-11-02 00:16:44.150] 
[2023-11-02 00:16:44.150] $GLGSV,3,2,10,71,28,109,19,76,23,208,,78,23,331,24,85,14,073,,1*7B
[2023-11-02 00:16:44.150] 
[2023-11-02 00:16:44.151] $GLGSV,3,3,10,88,03,265,,72,02,148,,1*71
[2023-11-02 00:16:44.151] 
[2023-11-02 00:16:44.151] $GNGLL,5216.7017,N,02048.5580,E,001639.000,A,A*4D
[2023-11-02 00:16:44.151] 
[2023-11-02 00:16:44.151] $GPTXT,01,01,02,ANTSTATUS=OPEN*2B
[2023-11-02 00:16:44.151] 
[2023-11-02 00:16:44.151] $GNRMC,001640.000,A,5216.7017,N,02048.5580,E,0.00,31.35,021123,,,A,V*39
[2023-11-02 00:16:44.151] 
[2023-11-02 00:16:44.151] $GPVTG,31.35,T,,M,0.00,N,0.00,K,A*09
[2023-11-02 00:16:44.151] 
[2023-11-02 00:16:44.151] $GPGGA,001640.000,5216.7017,N,02048.5580,E,1,5,1.55,83.4,M,39.0,M,,*69
[2023-11-02 00:16:44.151] 
[2023-11-02 00:16:44.151] $GNGSA,A,3,18,29,26,27,,,,,,,,,1.81,1.55,0.94,1*06
[2023-11-02 00:16:44.151] 
[2023-11-02 00:16:44.151] $GNGSA,A,3,71,,,,,,,,,,,,1.81,1.55,0.94,2*00
[2023-11-02 00:16:44.151] 
[2023-11-02 00:16:44.151] $GPGSV,3,1,12,18,62,066,16,16,60,246,,23,53,137,,27,47,292,22,0*62
[2023-11-02 00:16:44.151] 
[2023-11-02 00:16:44.151] $GPGSV,3,2,12,26,43,206,16,10,28,175,16,15,16,081,20,29,13,109,21,0*62
[2023-11-02 00:16:44.151] 
[2023-11-02 00:16:44.151] $GPGSV,3,3,12,07,09,335,,08,09,293,,13,09,044,18,05,05,033,,0*66
[2023-11-02 00:16:44.151] 
[2023-11-02 00:16:44.151] $GLGSV,3,1,10,86,60,049,,87,51,284,,77,47,261,,70,32,050,,1*7E
[2023-11-02 00:16:44.151] 
[2023-11-02 00:16:44.151] $GLGSV,3,2,10,71,28,109,19,76,23,208,,78,23,331,24,85,14,073,,1*7B
[2023-11-02 00:16:44.167] 
[2023-11-02 00:16:44.167] $GLGSV,3,3,10,88,03,265,,72,02,148,,1*71
[2023-11-02 00:16:44.167] 
[2023-11-02 00:16:44.167] $GNGLL,5216.7017,N,02048.5580,E,001640.000,A,A*43
[2023-11-02 00:16:44.167] 
[2023-11-02 00:16:44.167] $GPTXT,01,01,02,ANTSTATUS=OPEN*2B
[2023-11-02 00:16:44.167] 
[2023-11-02 00:16:44.167] $GNRMC,001641.000,A,5216.7017,N,02048.5580,E,0.00,31.35,021123,,,A,V*38
[2023-11-02 00:16:44.167] 
[2023-11-02 00:16:44.167] $GPVTG,31.35,T,,M,0.00,N,0.00,K,A*09
[2023-11-02 00:16:44.167] 
[2023-11-02 00:16:44.167] $GPGGA,001641.000,5216.7017,N,02048.5580,E,1,5,1.55,83.4,M,39.0,M,,*68
[2023-11-02 00:16:44.167] 
[2023-11-02 00:16:44.167] $GNGSA,A,3,18,29,26,27,,,,,,,,,1.81,1.55,0.94,1*06
[2023-11-02 00:16:44.167] 
[2023-11-02 00:16:44.167] $GNGSA,A,3,71,,,,,,,,,,,,1.81,1.55,0.94,2*00
[2023-11-02 00:16:44.167] 
[2023-11-02 00:16:44.167] $GPGSV,3,1,12,18,62,066,15,16,60,246,,23,53,137,,27,47,292,22,0*61
[2023-11-02 00:16:44.167] 
[2023-11-02 00:16:44.167] $GPGSV,3,2,12,26,43,206,16,10,28,175,16,15,16,081,20,29,13,109,21,0*62
[2023-11-02 00:16:44.167] 
[2023-11-02 00:16:44.167] $GPGSV,3,3,12,07,09,335,,08,09,293,,13,09,044,18,05,05,033,,0*66
[2023-11-02 00:16:44.167] 
[2023-11-02 00:16:44.167] $GLGSV,3,1,10,86,60,049,,87,51,284,,77,47,261,,70,32,050,,1*7E
[2023-11-02 00:16:44.167] 
[2023-11-02 00:16:44.167] $GLGSV,3,2,10,71,28,109,19,76,23,208,,78,23,331,24,85,14,073,,1*7B
[2023-11-02 00:16:44.167] 
[2023-11-02 00:16:44.167] $GLGSV,3,3,10,88,03,265,,72,02,148,,1*71
[2023-11-02 00:16:44.167] 
[2023-11-02 00:16:44.167] $GNGLL,5216.7017,N,02048.5580,E,001641.000,A,A*42
[2023-11-02 00:16:44.167] 
[2023-11-02 00:16:44.167] $GPTXT,01,01,02,ANTSTATUS=OPEN*2B
[2023-11-02 00:16:44.167] 
[2023-11-02 00:16:44.168] $GNRMC,001642.000,A,5216.7017,N,02048.5580,E,0.00,31.35,021123,,,A,V*3B
[2023-11-02 00:16:44.177] 
[2023-11-02 00:16:44.177] $GPVTG,31.35,T,,M,0.00,N,0.00,K,A*09
[2023-11-02 00:16:44.177] 
[2023-11-02 00:16:44.177] $GPGGA,001642.000,5216.7017,N,02048.5580,E,1,5,1.55,83.4,M,39.0,M,,*6B
[2023-11-02 00:16:44.177] 
[2023-11-02 00:16:44.177] $GNGSA,A,3,18,29,26,27,,,,,,,,,1.82,1.55,0.94,1*05
[2023-11-02 00:16:44.177] 
[2023-11-02 00:16:44.177] $GNGSA,A,3,71,,,,,,,,,,,,1.82,1.55,0.94,2*03
[2023-11-02 00:16:44.177] 
[2023-11-02 00:16:44.177] $GPGSV,3,1,12,18,62,066,15,16,60,246,,23,53,137,,27,47,292,22,0*61
[2023-11-02 00:16:44.177] 
[2023-11-02 00:16:44.177] $GPGSV,3,2,12,26,43,206,16,10,28,175,16,15,16,081,20,29,13,109,22,0*61
[2023-11-02 00:16:44.177] 
[2023-11-02 00:16:44.177] $GPGSV,3,3,12,07,09,335,,08,09,293,,13,09,044,18,05,05,033,,0*66
[2023-11-02 00:16:44.177] 
[2023-11-02 00:16:44.177] $GLGSV,3,1,10,862,22,0*63
[2023-11-02 00:16:44.177] 
[2023-11-02 00:16:44.177] $GPGSV,3,2,12,26,43,206,16,10,28,175,16,15,16,081,19,29,13,109,22,0*6B
[2023-11-02 00:16:44.177] 
[2023-11-02 00:16:44.177] $GPGSV,3,3,12,07,09,335,,08,09,293,,13,09,044,18,05,05,033,,0*66
[2023-11-02 00:16:44.177] 
[2023-11-02 00:16:44.181] $GLGSV,3,1,10,86,60,049,,87,51,284,,77,47,261,,70,32,050,,1*7E
[2023-11-02 00:16:44.237] 
[2023-11-02 00:16:44.237] $GLGSV,3,2,10,71,28,109,19,76,23,208,,78,23,331,24,85,14,073,,1*7B
[2023-11-02 00:16:44.307] 
[2023-11-02 00:16:44.307] $GLGSV,3,3,10,88,03,265,,72,02,148,,1*71
[2023-11-02 00:16:44.352] 
[2023-11-02 00:16:44.352] $GNGLL,5216.7017,N,02048.5580,E,001644.000,A,A*47
[2023-11-02 00:16:44.404] 
[2023-11-02 00:16:44.404] $GPTXT,01,01,02,ANTSTATUS=OPEN*2B
[2023-11-02 00:16:44.441] 
[2023-11-02 00:16:44.673] $GNRMC,001645.000,A,5216.7017,N,02048.5580,E,0.00,31.35,021123,,,A,V*3C
[2023-11-02 00:16:44.750] 
[2023-11-02 00:16:44.752] $GPVTG,31.35,T,,M,0.00,N,0.00,K,A*09
[2023-11-02 00:16:44.789] 
[2023-11-02 00:16:44.791] $GPGGA,001645.000,5216.7017,N,02048.5580,E,1,5,1.55,83.4,M,39.0,M,,*6C
[2023-11-02 00:16:44.865] 
[2023-11-02 00:16:44.865] $GNGSA,A,3,18,29,26,27,,,,,,,,,1.81,1.55,0.94,1*06
[2023-11-02 00:16:44.919] 
[2023-11-02 00:16:44.919] $GNGSA,A,3,71,,,,,,,,,,,,1.81,1.55,0.94,2*00
[2023-11-02 00:16:44.969] 
[2023-11-02 00:16:44.969] $GPGSV,3,1,12,18,62,066,16,16,60,246,,23,53,137,,27,47,292,22,0*62
[2023-11-02 00:16:45.038] 
[2023-11-02 00:16:45.039] $GPGSV,3,2,12,26,43,206,16,10,28,175,16,15,16,081,19,29,13,109,22,0*6B
[2023-11-02 00:16:45.112] 
[2023-11-02 00:16:45.113] $GPGSV,3,3,12,07,09,335,,08,09,293,,13,09,044,18,05,05,033,,0*66
[2023-11-02 00:16:45.181] 
[2023-11-02 00:16:45.182] $GLGSV,3,1,10,86,60,049,,87,51,284,,77,47,261,,70,32,050,,1*7E
[2023-11-02 00:16:45.248] 
[2023-11-02 00:16:45.250] $GLGSV,3,2,10,71,28,109,19,76,23,208,,78,23,331,24,85,14,073,,1*7B
[2023-11-02 00:16:45.318] 
[2023-11-02 00:16:45.319] $GLGSV,3,3,10,88,03,265,,72,02,148,,1*71
[2023-11-02 00:16:45.362] 
[2023-11-02 00:16:45.363] $GNGLL,5216.7017,N,02048.5580,E,001645.000,A,A*46
[2023-11-02 00:16:45.416] 
[2023-11-02 00:16:45.417] $GPTXT,01,01,02,ANTSTATUS=OPEN*2B
[2023-11-02 00:16:45.452] 
[2023-11-02 00:16:45.684] $GNRMC,001646.000,A,5216.7017,N,02048.5580,E,0.00,31.35,021123,,,A,V*3F
[2023-11-02 00:16:45.760] 
[2023-11-02 00:16:45.761] $GPVTG,31.35,T,,M,0.00,N,0.00,K,A*09
[2023-11-02 00:16:45.799] 
[2023-11-02 00:16:45.801] $GPGGA,001646.000,5216.7017,N,02048.5580,E,1,5,1.55,83.4,M,39.0,M,,*6F
[2023-11-02 00:16:45.875] 
[2023-11-02 00:16:45.876] $GNGSA,A,3,18,29,26,27,,,,,,,,,1.81,1.55,0.94,1*06
[2023-11-02 00:16:45.928] 
[2023-11-02 00:16:45.930] $GNGSA,A,3,71,,,,,,,,,,,,1.81,1.55,0.94,2*00
[2023-11-02 00:16:45.976] 
[2023-11-02 00:16:45.978] $GPGSV,3,1,12,18,62,066,16,16,60,246,,23,53,137,,27,47,292,22,0*62
[2023-11-02 00:16:46.047] 
[2023-11-02 00:16:46.050] $GPGSV,3,2,12,26,43,206,16,10,28,175,16,15,16,081,19,29,13,109,22,0*6B
[2023-11-02 00:16:46.122] 
[2023-11-02 00:16:46.124] $GPGSV,3,3,12,07,09,335,,08,09,293,,13,09,044,18,05,05,033,,0*66
[2023-11-02 00:16:46.194] 
[2023-11-02 00:16:46.194] $GLGSV,3,1,10,86,60,049,,87,51,284,,77,47,261,,70,32,050,,1*7E
[2023-11-02 00:16:46.258] 
[2023-11-02 00:16:46.259] $GLGSV,3,2,10,71,28,109,19,76,23,208,,78,23,331,24,85,14,073,,1*7B
[2023-11-02 00:16:46.329] 
[2023-11-02 00:16:46.331] $GLGSV,3,3,10,88,03,265,,72,02,148,,1*71
[2023-11-02 00:16:46.372] 
[2023-11-02 00:16:46.374] $GNGLL,5216.7017,N,02048.5580,E,001646.000,A,A*45
[2023-11-02 00:16:46.430] 
[2023-11-02 00:16:46.430] $GPTXT,01,01,02,ANTSTATUS=OPEN*2B
[2023-11-02 00:16:46.462] 
[2023-11-02 00:16:46.672] $GNRMC,001647.000,A,5216.7017,N,02048.5580,E,0.00,31.35,021123,,,A,V*3E
[2023-11-02 00:16:46.750] 
[2023-11-02 00:16:46.750] $GPVTG,31.35,T,,M,0.00,N,0.00,K,A*09
[2023-11-02 00:16:46.787] 
[2023-11-02 00:16:46.788] $GPGGA,001647.000,5216.7017,N,02048.5580,E,1,5,1.55,83.4,M,39.0,M,,*6E
[2023-11-02 00:16:46.861] 
[2023-11-02 00:16:46.863] $GNGSA,A,3,18,29,26,27,,,,,,,,,1.81,1.55,0.94,1*06
[2023-11-02 00:16:46.917] 
[2023-11-02 00:16:46.918] $GNGSA,A,3,71,,,,,,,,,,,,1.81,1.55,0.94,2*00
[2023-11-02 00:16:46.965] 
[2023-11-02 00:16:46.966] $GPGSV,3,1,12,18,62,066,15,16,60,246,,23,53,137,,27,47,292,22,0*61
[2023-11-02 00:16:47.035] 
[2023-11-02 00:16:47.036] $GPGSV,3,2,12,26,43,206,16,10,28,175,16,15,16,081,19,29,13,109,21,0*68
[2023-11-02 00:16:47.111] 
[2023-11-02 00:16:47.112] $GPGSV,3,3,12,07,09,335,,08,09,293,,13,09,044,18,05,05,033,,0*66
[2023-11-02 00:16:47.178] 
[2023-11-02 00:16:47.180] $GLGSV,3,1,10,86,60,049,,87,51,284,,77,47,261,,70,32,050,,1*7E
[2023-11-02 00:16:47.246] 
[2023-11-02 00:16:47.247] $GLGSV,3,2,10,71,28,109,19,76,23,208,,78,23,331,24,85,14,073,,1*7B
[2023-11-02 00:16:47.317] 
[2023-11-02 00:16:47.318] $GLGSV,3,3,10,88,03,265,,72,02,148,,1*71
[2023-11-02 00:16:47.360] 
[2023-11-02 00:16:47.362] $GNGLL,5216.7017,N,02048.5580,E,001647.000,A,A*44
[2023-11-02 00:16:47.415] 
[2023-11-02 00:16:47.415] $GPTXT,01,01,02,ANTSTATUS=OPEN*2B
[2023-11-02 00:16:47.449] 
[2023-11-02 00:16:47.671] $GNRMC,001648.000,A,5216.7017,N,02048.5580,E,1.35,356.43,021123,,,A,V*05
[2023-11-02 00:16:47.748] 
[2023-11-02 00:16:47.748] $GPVTG,356.43,T,,M,1.35,N,2.49,K,A*32
[2023-11-02 00:16:47.788] 
[2023-11-02 00:16:47.790] $GPGGA,001648.000,5216.7017,N,02048.5580,E,1,5,1.55,83.4,M,39.0,M,,*61
[2023-11-02 00:16:47.864] 
[2023-11-02 00:16:47.865] $GNGSA,A,3,18,29,26,27,,,,,,,,,1.81,1.55,0.94,1*06
[2023-11-02 00:16:47.920] 
[2023-11-02 00:16:47.920] $GNGSA,A,3,71,,,,,,,,,,,,1.81,1.55,0.94,2*00
[2023-11-02 00:16:47.967] 
[2023-11-02 00:16:47.967] $GPGSV,3,1,12,18,62,066,15,16,60,246,,23,53,137,,27,47,292,22,0*61
[2023-11-02 00:16:48.036] 
[2023-11-02 00:16:48.038] $GPGSV,3,2,12,26,43,206,16,10,28,175,16,15,16,081,19,29,13,109,21,0*68
[2023-11-02 00:16:48.112] 
[2023-11-02 00:16:48.113] $GPGSV,3,3,12,07,09,335,,08,09,293,,13,09,044,18,05,05,033,,0*66
[2023-11-02 00:16:48.181] 
[2023-11-02 00:16:48.182] $GLGSV,3,1,10,86,60,049,,87,51,284,,77,47,261,,70,32,050,,1*7E
[2023-11-02 00:16:48.247] 
[2023-11-02 00:16:48.248] $GLGSV,3,2,10,71,28,109,19,76,23,208,,78,23,331,24,85,14,073,,1*7B
[2023-11-02 00:16:48.317] 
[2023-11-02 00:16:48.319] $GLGSV,3,3,10,88,03,265,,72,02,148,,1*71
[2023-11-02 00:16:48.361] 
[2023-11-02 00:16:48.363] $GNGLL,5216.7017,N,02048.5580,E,001648.000,A,A*4B
[2023-11-02 00:16:48.414] 
[2023-11-02 00:16:48.415] $GPTXT,01,01,02,ANTSTATUS=OPEN*2B
[2023-11-02 00:16:48.452] 
[2023-11-02 00:16:48.675] $GNRMC,001649.000,A,5216.7017,N,02048.5580,E,0.00,31.35,021123,,,A,V*30
[2023-11-02 00:16:48.750] 
[2023-11-02 00:16:48.750] $GPVTG,31.35,T,,M,0.00,N,0.00,K,A*09
[2023-11-02 00:16:48.787] 
[2023-11-02 00:16:48.787] $GPGGA,001649.000,5216.7017,N,02048.5580,E,1,5,1.55,83.4,M,39.0,M,,*60
[2023-11-02 00:16:48.862] 
[2023-11-02 00:16:48.863] $GNGSA,A,3,18,29,26,27,,,,,,,,,1.81,1.55,0.94,1*06
[2023-11-02 00:16:48.917] 
[2023-11-02 00:16:48.918] $GNGSA,A,3,71,,,,,,,,,,,,1.81,1.55,0.94,2*00
[2023-11-02 00:16:48.964] 
[2023-11-02 00:16:48.965] $GPGSV,3,1,12,18,62,066,15,16,60,246,,23,53,137,,27,47,292,22,0*61
[2023-11-02 00:16:49.035] 
[2023-11-02 00:16:49.035] $GPGSV,3,2,12,26,43,206,17,10,28,175,16,15,16,081,19,29,13,109,21,0*69
[2023-11-02 00:16:49.109] 
[2023-11-02 00:16:49.110] $GPGSV,3,3,12,07,09,335,,08,09,293,,13,09,044,18,05,05,033,,0*66
[2023-11-02 00:16:49.178] 
[2023-11-02 00:16:49.179] $GLGSV,3,1,10,86,60,049,,87,51,284,,77,47,261,,70,32,050,,1*7E
[2023-11-02 00:16:49.245] 
[2023-11-02 00:16:49.246] $GLGSV,3,2,10,71,28,109,20,76,23,208,,78,23,331,24,85,14,073,,1*71
[2023-11-02 00:16:49.316] 
[2023-11-02 00:16:49.317] $GLGSV,3,3,10,88,03,265,,72,02,148,,1*71
[2023-11-02 00:16:49.360] 
[2023-11-02 00:16:49.361] $GNGLL,5216.7017,N,02048.5580,E,001649.000,A,A*4A
[2023-11-02 00:16:49.414] 
[2023-11-02 00:16:49.414] $GPTXT,01,01,02,ANTSTATUS=OPEN*2B
[2023-11-02 00:16:49.449] 
[2023-11-02 00:16:49.672] $GNRMC,001650.000,A,5216.7017,N,02048.5580,E,0.00,31.35,021123,,,A,V*38
[2023-11-02 00:16:49.748] 
[2023-11-02 00:16:49.750] $GPVTG,31.35,T,,M,0.00,N,0.00,K,A*09
[2023-11-02 00:16:49.788] 
[2023-11-02 00:16:49.788] $GPGGA,001650.000,5216.7017,N,02048.5580,E,1,5,1.55,83.4,M,39.0,M,,*68
[2023-11-02 00:16:49.861] 
[2023-11-02 00:16:49.862] $GNGSA,A,3,18,29,26,27,,,,,,,,,1.81,1.55,0.94,1*06
[2023-11-02 00:16:49.916] 
[2023-11-02 00:16:49.917] $GNGSA,A,3,71,,,,,,,,,,,,1.81,1.55,0.94,2*00
[2023-11-02 00:16:49.964] 
[2023-11-02 00:16:49.965] $GPGSV,3,1,12,18,62,066,15,16,60,246,12,23,53,137,,27,47,292,22,0*62
[2023-11-02 00:16:50.036] 
[2023-11-02 00:16:50.038] $GPGSV,3,2,12,26,43,206,17,10,28,175,15,15,16,081,19,29,13,109,22,0*69
[2023-11-02 00:16:50.113] 
[2023-11-02 00:16:50.113] $GPGSV,3,3,12,07,09,335,,08,09,293,,13,09,044,17,05,05,033,,0*69
[2023-11-02 00:16:50.182] 
[2023-11-02 00:16:50.182] $GLGSV,3,1,10,86,60,049,,87,51,284,,77,47,261,,70,32,050,,1*7E
[2023-11-02 00:16:50.251] 
[2023-11-02 00:16:50.253] $GLGSV,3,2,10,71,28,109,20,76,23,208,,78,23,331,24,85,14,073,,1*71
[2023-11-02 00:16:50.318] 
[2023-11-02 00:16:50.320] $GLGSV,3,3,10,88,03,265,,72,02,148,,1*71
[2023-11-02 00:16:50.362] 
[2023-11-02 00:16:50.364] $GNGLL,5216.7017,N,02048.5580,E,001650.000,A,A*42
[2023-11-02 00:16:50.415] 
[2023-11-02 00:16:50.417] $GPTXT,01,01,02,ANTSTATUS=OPEN*2B
[2023-11-02 00:16:50.453] 
[2023-11-02 00:16:50.672] $GNRMC,001651.000,A,5216.7017,N,02048.5580,E,0.00,31.35,021123,,,A,V*39
[2023-11-02 00:16:50.748] 
[2023-11-02 00:16:50.748] $GPVTG,31.35,T,,M,0.00,N,0.00,K,A*09
[2023-11-02 00:16:50.788] 
[2023-11-02 00:16:50.790] $GPGGA,001651.000,5216.7017,N,02048.5580,E,1,5,1.55,83.4,M,39.0,M,,*69
[2023-11-02 00:16:50.863] 
[2023-11-02 00:16:50.864] $GNGSA,A,3,18,29,26,27,,,,,,,,,1.81,1.55,0.94,1*06
[2023-11-02 00:16:50.917] 
[2023-11-02 00:16:50.918] $GNGSA,A,3,71,,,,,,,,,,,,1.81,1.55,0.94,2*00
[2023-11-02 00:16:50.964] 
[2023-11-02 00:16:50.966] $GPGSV,3,1,12,18,62,066,15,16,60,246,,23,53,137,,27,47,292,22,0*61
[2023-11-02 00:16:51.036] 
[2023-11-02 00:16:51.037] $GPGSV,3,2,12,26,43,206,17,10,28,175,15,15,16,081,19,29,13,109,22,0*69
[2023-11-02 00:16:51.111] 
[2023-11-02 00:16:51.112] $GPGSV,3,3,12,07,09,335,,08,09,293,,13,09,044,17,05,05,033,,0*69
[2023-11-02 00:16:51.181] 
[2023-11-02 00:16:51.182] $GLGSV,3,1,10,86,60,049,,87,51,284,,77,47,261,,70,32,050,,1*7E
[2023-11-02 00:16:51.246] 
[2023-11-02 00:16:51.247] $GLGSV,3,2,10,71,28,109,20,76,23,208,,78,23,331,24,85,14,073,,1*71
[2023-11-02 00:16:51.317] 
[2023-11-02 00:16:51.318] $GLGSV,3,3,10,88,03,265,,72,02,148,,1*71
[2023-11-02 00:16:51.361] 
[2023-11-02 00:16:51.362] $GNGLL,5216.7017,N,02048.5580,E,001651.000,A,A*43
[2023-11-02 00:16:51.414] 
[2023-11-02 00:16:51.415] $GPTXT,01,01,02,ANTSTATUS=OPEN*2B
[2023-11-02 00:16:51.451] 
[2023-11-02 00:16:51.672] $GNRMC,001652.000,A,5216.7017,N,02048.5580,E,1.13,184.77,021123,,,A,V*00
[2023-11-02 00:16:51.750] 
[2023-11-02 00:16:51.751] $GPVTG,184.77,T,,M,1.13,N,2.10,K,A*30
[2023-11-02 00:16:51.790] 
[2023-11-02 00:16:51.791] $GPGGA,001652.000,5216.7017,N,02048.5580,E,1,5,1.55,83.4,M,39.0,M,,*6A
[2023-11-02 00:16:51.864] 
[2023-11-02 00:16:51.865] $GNGSA,A,3,18,29,26,27,,,,,,,,,1.81,1.55,0.94,1*06
[2023-11-02 00:16:51.918] 
[2023-11-02 00:16:51.920] $GNGSA,A,3,71,,,,,,,,,,,,1.81,1.55,0.94,2*00
[2023-11-02 00:16:51.966] 
[2023-11-02 00:16:51.968] $GPGSV,3,1,12,18,62,066,16,16,60,246,,23,53,137,,27,47,292,22,0*62
[2023-11-02 00:16:52.037] 
[2023-11-02 00:16:52.039] $GPGSV,3,2,12,26,43,206,17,10,28,175,15,15,16,081,19,29,13,109,22,0*69
[2023-11-02 00:16:52.113] 
[2023-11-02 00:16:52.113] $GPGSV,3,3,12,07,09,335,,08,09,293,,13,09,044,17,05,05,033,,0*69
[2023-11-02 00:16:52.182] 
[2023-11-02 00:16:52.183] $GLGSV,3,1,10,86,60,049,,87,51,284,,77,47,261,,70,32,050,,1*7E
[2023-11-02 00:16:52.248] 
[2023-11-02 00:16:52.250] $GLGSV,3,2,10,71,28,109,20,76,23,208,,78,23,331,24,85,14,073,,1*71
[2023-11-02 00:16:52.319] 
[2023-11-02 00:16:52.320] $GLGSV,3,3,10,88,03,265,,72,02,148,,1*71
[2023-11-02 00:16:52.362] 
[2023-11-02 00:16:52.364] $GNGLL,5216.7017,N,02048.5580,E,001652.000,A,A*40
[2023-11-02 00:16:52.415] 
[2023-11-02 00:16:52.417] $GPTXT,01,01,02,ANTSTATUS=OPEN*2B
[2023-11-02 00:16:52.452] 
[2023-11-02 00:16:52.673] $GNRMC,001653.000,A,5216.7027,N,02048.5591,E,1.95,207.89,021123,,,A,V*05
[2023-11-02 00:16:52.750] 
[2023-11-02 00:16:52.751] $GPVTG,207.89,T,,M,1.95,N,3.62,K,A*33
[2023-11-02 00:16:52.792] 
[2023-11-02 00:16:52.792] $GPGGA,001653.000,5216.7027,N,02048.5591,E,1,5,1.55,83.5,M,39.0,M,,*69
[2023-11-02 00:16:52.866] 
[2023-11-02 00:16:52.867] $GNGSA,A,3,18,29,26,27,,,,,,,,,1.81,1.55,0.94,1*06
[2023-11-02 00:16:52.920] 
[2023-11-02 00:16:52.921] $GNGSA,A,3,71,,,,,,,,,,,,1.81,1.55,0.94,2*00
[2023-11-02 00:16:52.969] 
[2023-11-02 00:16:52.970] $GPGSV,3,1,12,18,62,066,16,16,60,246,,23,53,137,,27,47,292,22,0*62
[2023-11-02 00:16:53.039] 
[2023-11-02 00:16:53.040] $GPGSV,3,2,12,26,43,206,17,10,28,175,16,15,16,081,19,29,13,109,22,0*6A
[2023-11-02 00:16:53.114] 
[2023-11-02 00:16:53.115] $GPGSV,3,3,12,07,09,335,,08,09,293,,13,09,044,17,05,05,033,,0*69
[2023-11-02 00:16:53.183] 
[2023-11-02 00:16:53.184] $GLGSV,3,1,10,86,60,049,,87,51,284,,77,47,261,,70,32,050,,1*7E
[2023-11-02 00:16:53.253] 
[2023-11-02 00:16:53.253] $GLGSV,3,2,10,71,28,109,20,76,23,208,,78,23,331,24,85,14,073,,1*71
[2023-11-02 00:16:53.320] 
[2023-11-02 00:16:53.322] $GLGSV,3,3,10,88,03,265,,72,02,148,,1*71
[2023-11-02 00:16:53.364] 
[2023-11-02 00:16:53.365] $GNGLL,5216.7027,N,02048.5591,E,001653.000,A,A*42
[2023-11-02 00:16:53.417] 
[2023-11-02 00:16:53.418] $GPTXT,01,01,02,ANTSTATUS=OPEN*2B
[2023-11-02 00:16:53.454] 
[2023-11-02 00:16:53.691] $GNRMC,001654.000,A,5216.7038,N,02048.5593,E,0.00,207.89,021123,,,A,V*03
[2023-11-02 00:16:53.769] 
[2023-11-02 00:16:53.770] $GPVTG,207.89,T,,M,0.00,N,0.00,K,A*39
[2023-11-02 00:16:53.809] 
[2023-11-02 00:16:53.811] $GPGGA,001654.000,5216.7038,N,02048.5593,E,1,5,1.55,83.5,M,39.0,M,,*62
[2023-11-02 00:16:53.884] 
[2023-11-02 00:16:53.885] $GNGSA,A,3,18,29,26,27,,,,,,,,,1.81,1.55,0.94,1*06
[2023-11-02 00:16:53.938] 
[2023-11-02 00:16:53.939] $GNGSA,A,3,71,,,,,,,,,,,,1.81,1.55,0.94,2*00
[2023-11-02 00:16:53.986] 
[2023-11-02 00:16:53.987] $GPGSV,3,1,12,18,62,066,16,16,60,246,14,23,53,137,,27,47,292,22,0*67
[2023-11-02 00:16:54.059] 
[2023-11-02 00:16:54.061] $GPGSV,3,2,12,26,43,206,17,10,28,175,16,15,16,081,20,29,13,109,22,0*60
[2023-11-02 00:16:54.134] 
[2023-11-02 00:16:54.135] $GPGSV,3,3,12,07,09,335,,08,09,293,,13,09,044,17,05,05,033,,0*69
[2023-11-02 00:16:54.203] 
[2023-11-02 00:16:54.204] $GLGSV,3,1,10,86,60,049,,87,51,284,,77,47,261,,70,32,050,,1*7E
[2023-11-02 00:16:54.269] 
[2023-11-02 00:16:54.271] $GLGSV,3,2,10,71,28,109,20,76,23,208,,78,23,331,24,85,14,073,,1*71
[2023-11-02 00:16:54.340] 
[2023-11-02 00:16:54.341] $GLGSV,3,3,10,88,03,265,,72,02,148,,1*71
[2023-11-02 00:16:54.384] 
[2023-11-02 00:16:54.386] $GNGLL,5216.7038,N,02048.5593,E,001654.000,A,A*49
[2023-11-02 00:16:54.437] 
[2023-11-02 00:16:54.438] $GPTXT,01,01,02,ANTSTATUS=OPEN*2B
[2023-11-02 00:16:54.474] 
[2023-11-02 00:16:54.678] $GNRMC,001655.000,A,5216.7038,N,02048.5594,E,0.00,207.89,021123,,,A,V*05
[2023-11-02 00:16:54.754] 
[2023-11-02 00:16:54.756] $GPVTG,207.89,T,,M,0.00,N,0.00,K,A*39
[2023-11-02 00:16:54.795] 
[2023-11-02 00:16:54.796] $GPGGA,001655.000,5216.7038,N,02048.5594,E,1,5,1.55,83.6,M,39.0,M,,*67
[2023-11-02 00:16:54.870] 
[2023-11-02 00:16:54.871] $GNGSA,A,3,18,29,26,27,,,,,,,,,1.81,1.55,0.94,1*06
[2023-11-02 00:16:54.924] 
[2023-11-02 00:16:54.925] $GNGSA,A,3,71,,,,,,,,,,,,1.81,1.55,0.94,2*00
[2023-11-02 00:16:54.972] 
[2023-11-02 00:16:54.973] $GPGSV,3,1,12,18,62,066,15,16,60,246,13,23,53,137,,27,47,292,22,0*63
[2023-11-02 00:16:55.045] 
[2023-11-02 00:16:55.047] $GPGSV,3,2,12,26,43,206,17,10,28,175,15,15,16,081,20,29,13,109,22,0*63
[2023-11-02 00:16:55.120] 
[2023-11-02 00:16:55.121] $GPGSV,3,3,12,07,09,335,,08,09,293,,13,09,044,17,05,05,033,,0*69
[2023-11-02 00:16:55.190] 
[2023-11-02 00:16:55.191] $GLGSV,3,1,10,86,60,049,,87,51,284,,77,47,261,,70,32,050,,1*7E
[2023-11-02 00:16:55.257] 
[2023-11-02 00:16:55.257] $GLGSV,3,2,10,71,28,109,20,76,23,208,,78,23,331,24,85,14,073,,1*71
[2023-11-02 00:16:55.326] 
[2023-11-02 00:16:55.328] $GLGSV,3,3,10,88,03,265,,72,02,148,,1*71
[2023-11-02 00:16:55.371] 
[2023-11-02 00:16:55.373] $GNGLL,5216.7038,N,02048.5594,E,001655.000,A,A*4F
[2023-11-02 00:16:55.423] 
[2023-11-02 00:16:55.425] $GPTXT,01,01,02,ANTSTATUS=OPEN*2B
[2023-11-02 00:16:55.460] 
[2023-11-02 00:16:55.688] $GNRMC,001656.000,A,5216.7038,N,02048.5594,E,0.00,207.89,021123,,,A,V*06
[2023-11-02 00:16:55.765] 
[2023-11-02 00:16:55.765] $GPVTG,207.89,T,,M,0.00,N,0.00,K,A*39
[2023-11-02 00:16:55.805] 
[2023-11-02 00:16:55.806] $GPGGA,001656.000,5216.7038,N,02048.5594,E,1,5,1.55,83.6,M,39.0,M,,*64
[2023-11-02 00:16:55.880] 
[2023-11-02 00:16:55.881] $GNGSA,A,3,18,29,26,27,,,,,,,,,1.81,1.55,0.94,1*06
[2023-11-02 00:16:55.934] 
[2023-11-02 00:16:55.935] $GNGSA,A,3,71,,,,,,,,,,,,1.81,1.55,0.94,2*00
[2023-11-02 00:16:55.983] 
[2023-11-02 00:16:55.984] $GPGSV,3,1,12,18,62,066,14,16,60,246,16,23,53,137,,27,47,292,22,0*67
[2023-11-02 00:16:56.055] 
[2023-11-02 00:16:56.057] $GPGSV,3,2,12,26,43,206,17,10,28,175,16,15,16,081,20,29,13,109,22,0*60
[2023-11-02 00:16:56.130] 
[2023-11-02 00:16:56.132] $GPGSV,3,3,12,07,09,335,,08,09,293,,13,09,044,17,05,05,033,,0*69
[2023-11-02 00:16:56.200] 
[2023-11-02 00:16:56.202] $GLGSV,3,1,10,86,60,049,,87,51,284,,77,47,261,,70,32,050,,1*7E
[2023-11-02 00:16:56.265] 
[2023-11-02 00:16:56.266] $GLGSV,3,2,10,71,28,109,20,76,23,208,,78,23,331,24,85,14,073,,1*71
[2023-11-02 00:16:56.337] 
[2023-11-02 00:16:56.338] $GLGSV,3,3,10,88,03,265,,72,02,148,,1*71
[2023-11-02 00:16:56.381] 
[2023-11-02 00:16:56.382] $GNGLL,5216.7038,N,02048.5594,E,001656.000,A,A*4C
[2023-11-02 00:16:56.435] 
[2023-11-02 00:16:56.435] $GPTXT,01,01,02,ANTSTATUS=OPEN*2B
[2023-11-02 00:16:56.471] 
[2023-11-02 00:16:56.763] $GNRMC,001657.000,A,5216.7038,N,02048.5594,E,0.00,207.89,021123,,,A,V*07
[2023-11-02 00:16:56.840] 
[2023-11-02 00:16:56.841] $GPVTG,207.89,T,,M,0.00,N,0.00,K,A*39
[2023-11-02 00:16:56.880] 
[2023-11-02 00:16:56.881] $GPGGA,001657.000,5216.7038,N,02048.5594,E,1,6,1.51,83.6,M,39.0,M,,*62
[2023-11-02 00:16:56.955] 
[2023-11-02 00:16:56.955] $GNGSA,A,3,18,29,26,27,16,,,,,,,,1.78,1.51,0.94,1*03
[2023-11-02 00:16:57.011] 
[2023-11-02 00:16:57.012] $GNGSA,A,3,71,,,,,,,,,,,,1.78,1.51,0.94,2*02
[2023-11-02 00:16:57.059] 
[2023-11-02 00:16:57.061] $GPGSV,3,1,12,18,62,066,14,16,60,246,14,23,53,137,,27,47,292,22,0*65
[2023-11-02 00:16:57.132] 
[2023-11-02 00:16:57.134] $GPGSV,3,2,12,26,43,206,17,10,28,175,16,15,16,081,20,29,13,109,22,0*60
[2023-11-02 00:16:57.207] 
[2023-11-02 00:16:57.210] $GPGSV,3,3,12,07,09,335,,08,09,293,,13,09,044,17,05,05,033,,0*69
[2023-11-02 00:16:57.276] 
[2023-11-02 00:16:57.277] $GLGSV,3,1,10,86,60,049,,87,51,284,,77,47,261,,70,32,050,,1*7E
[2023-11-02 00:16:57.343] 
[2023-11-02 00:16:57.344] $GLGSV,3,2,10,71,28,109,20,76,23,208,,78,23,331,24,85,14,073,,1*71
[2023-11-02 00:16:57.414] 
[2023-11-02 00:16:57.415] $GLGSV,3,3,10,88,03,265,,72,02,148,,1*71
[2023-11-02 00:16:57.457] 
[2023-11-02 00:16:57.458] $GNGLL,5216.7038,N,02048.5594,E,001657.000,A,A*4D
[2023-11-02 00:16:57.510] 
[2023-11-02 00:16:57.514] $GPTXT,01,01,02,ANTSTATUS=OPEN*2B
[2023-11-02 00:16:57.548] 
[2023-11-02 00:16:57.684] $GNRMC,001658.000,A,5216.7038,N,02048.5594,E,0.00,207.89,021123,,,A,V*08
[2023-11-02 00:16:57.761] 
[2023-11-02 00:16:57.762] $GPVTG,207.89,T,,M,0.00,N,0.00,K,A*39
[2023-11-02 00:16:57.801] 
[2023-11-02 00:16:57.802] $GPGGA,001658.000,5216.7038,N,02048.5594,E,1,5,1.77,83.6,M,39.0,M,,*6A
[2023-11-02 00:16:57.875] 
[2023-11-02 00:16:57.877] $GNGSA,A,3,29,26,27,16,,,,,,,,,2.03,1.77,0.98,1*0D
[2023-11-02 00:16:57.932] 
[2023-11-02 00:16:57.933] $GNGSA,A,3,71,,,,,,,,,,,,2.03,1.77,0.98,2*05
[2023-11-02 00:16:57.978] 
[2023-11-02 00:16:57.980] $GPGSV,3,1,12,18,62,066,13,16,60,246,14,23,53,137,,27,47,292,21,0*61
[2023-11-02 00:16:58.052] 
[2023-11-02 00:16:58.053] $GPGSV,3,2,12,26,43,206,17,10,28,175,16,15,16,081,20,29,13,109,22,0*60
[2023-11-02 00:16:58.126] 
[2023-11-02 00:16:58.128] $GPGSV,3,3,12,07,09,335,,08,09,293,,13,09,044,17,05,05,033,,0*69
[2023-11-02 00:16:58.196] 
[2023-11-02 00:16:58.196] $GLGSV,3,1,10,86,60,049,,87,51,284,,77,47,261,,70,32,050,,1*7E
[2023-11-02 00:16:58.261] 
[2023-11-02 00:16:58.263] $GLGSV,3,2,10,71,28,109,20,76,23,208,,78,23,331,24,85,14,073,,1*71
[2023-11-02 00:16:58.333] 
[2023-11-02 00:16:58.333] $GLGSV,3,3,10,88,03,265,,72,02,148,,1*71
[2023-11-02 00:16:58.377] 
[2023-11-02 00:16:58.378] $GNGLL,5216.7038,N,02048.5594,E,001658.000,A,A*42
[2023-11-02 00:16:58.430] 
[2023-11-02 00:16:58.433] $GPTXT,01,01,02,ANTSTATUS=OPEN*2B
[2023-11-02 00:16:58.467] 
[2023-11-02 00:16:58.679] $GNRMC,001659.000,A,5216.7038,N,02048.5594,E,0.00,207.89,021123,,,A,V*09
[2023-11-02 00:16:58.756] 
[2023-11-02 00:16:58.756] $GPVTG,207.89,T,,M,0.00,N,0.00,K,A*39
[2023-11-02 00:16:58.796] 
[2023-11-02 00:16:58.797] $GPGGA,001659.000,5216.7038,N,02048.5594,E,1,5,1.77,83.6,M,39.0,M,,*6B
[2023-11-02 00:16:58.872] 
[2023-11-02 00:16:58.875] $GNGSA,A,3,29,26,27,16,,,,,,,,,2.03,1.77,0.98,1*0D
[2023-11-02 00:16:58.924] 
[2023-11-02 00:16:58.926] $GNGSA,A,3,71,,,,,,,,,,,,2.03,1.77,0.98,2*05
[2023-11-02 00:16:58.973] 
[2023-11-02 00:16:58.974] $GPGSV,3,1,12,18,62,066,14,16,60,246,15,23,53,137,,27,47,292,21,0*67
[2023-11-02 00:16:59.046] 
[2023-11-02 00:16:59.047] $GPGSV,3,2,12,26,43,206,18,10,28,175,16,15,16,081,20,29,13,109,22,0*6F
[2023-11-02 00:16:59.120] 
[2023-11-02 00:16:59.121] $GPGSV,3,3,12,07,09,335,,08,09,293,,13,09,044,17,05,05,033,,0*69
[2023-11-02 00:16:59.190] 
[2023-11-02 00:16:59.190] $GLGSV,3,1,10,86,60,049,,87,51,284,,77,47,261,,70,32,049,,1*76
[2023-11-02 00:16:59.255] 
[2023-11-02 00:16:59.256] $GLGSV,3,2,10,71,28,109,20,76,23,208,,78,23,331,24,85,14,073,,1*71
[2023-11-02 00:16:59.326] 
[2023-11-02 00:16:59.327] $GLGSV,3,3,10,88,03,265,,72,02,148,,1*71
[2023-11-02 00:16:59.372] 
[2023-11-02 00:16:59.372] $GNGLL,5216.7038,N,02048.5594,E,001659.000,A,A*43
[2023-11-02 00:16:59.423] 
[2023-11-02 00:16:59.424] $GPTXT,01,01,02,ANTSTATUS=OPEN*2B
[2023-11-02 00:16:59.460] 
[2023-11-02 00:16:59.687] $GNRMC,001700.000,A,5216.7038,N,02048.5594,E,0.00,207.89,021123,,,A,V*04
[2023-11-02 00:16:59.764] 
[2023-11-02 00:16:59.765] $GPVTG,207.89,T,,M,0.00,N,0.00,K,A*39
[2023-11-02 00:16:59.805] 
[2023-11-02 00:16:59.806] $GPGGA,001700.000,5216.7038,N,02048.5594,E,1,5,1.77,83.6,M,39.0,M,,*66
[2023-11-02 00:16:59.880] 
[2023-11-02 00:16:59.881] $GNGSA,A,3,29,26,27,16,,,,,,,,,2.03,1.77,0.98,1*0D
[2023-11-02 00:16:59.933] 
[2023-11-02 00:16:59.934] $GNGSA,A,3,71,,,,,,,,,,,,2.03,1.77,0.98,2*05
[2023-11-02 00:16:59.982] 
[2023-11-02 00:16:59.983] $GPGSV,3,1,12,18,62,066,13,16,60,246,16,23,53,137,,27,47,292,21,0*63
[2023-11-02 00:17:00.055] 
[2023-11-02 00:17:00.055] $GPGSV,3,2,12,26,43,206,18,10,28,175,17,15,16,081,20,29,13,109,22,0*6E
[2023-11-02 00:17:00.130] 
[2023-11-02 00:17:00.133] $GPGSV,3,3,12,07,09,335,,08,09,293,,13,09,044,17,05,05,033,,0*69
[2023-11-02 00:17:00.199] 
[2023-11-02 00:17:00.200] $GLGSV,3,1,10,86,60,049,,87,51,284,,77,47,261,,70,32,049,,1*76
[2023-11-02 00:17:00.265] 
[2023-11-02 00:17:00.266] $GLGSV,3,2,10,71,29,108,20,76,23,208,,78,23,331,24,85,14,073,,1*71
[2023-11-02 00:17:00.336] 
[2023-11-02 00:17:00.337] $GLGSV,3,3,10,88,03,265,,72,02,148,,1*71
[2023-11-02 00:17:00.380] 
[2023-11-02 00:17:00.380] $GNGLL,5216.7038,N,02048.5594,E,001700.000,A,A*4E
[2023-11-02 00:17:00.433] 
[2023-11-02 00:17:00.434] $GPTXT,01,01,02,ANTSTATUS=OPEN*2B
[2023-11-02 00:17:00.471] 
[2023-11-02 00:17:00.681] $GNRMC,001701.000,A,5216.7038,N,02048.5594,E,0.00,207.89,021123,,,A,V*05
[2023-11-02 00:17:00.759] 
[2023-11-02 00:17:00.759] $GPVTG,207.89,T,,M,0.00,N,0.00,K,A*39
[2023-11-02 00:17:00.799] 
[2023-11-02 00:17:00.800] $GPGGA,001701.000,5216.7038,N,02048.5594,E,1,5,1.77,83.6,M,39.0,M,,*67
[2023-11-02 00:17:00.873] 
[2023-11-02 00:17:00.874] $GNGSA,A,3,29,26,27,16,,,,,,,,,2.03,1.77,0.98,1*0D
[2023-11-02 00:17:00.928] 
[2023-11-02 00:17:00.929] $GNGSA,A,3,71,,,,,,,,,,,,2.03,1.77,0.98,2*05
[2023-11-02 00:17:00.976] 
[2023-11-02 00:17:00.977] $GPGSV,3,1,12,18,62,066,12,16,60,246,16,23,53,137,,27,47,292,21,0*62
[2023-11-02 00:17:01.050] 
[2023-11-02 00:17:01.051] $GPGSV,3,2,12,26,43,206,18,10,28,175,16,15,16,081,20,29,13,109,22,0*6F
[2023-11-02 00:17:01.124] 
[2023-11-02 00:17:01.125] $GPGSV,3,3,12,07,09,335,,08,09,293,,13,09,044,17,05,05,033,,0*69
[2023-11-02 00:17:01.194] 
[2023-11-02 00:17:01.194] $GLGSV,3,1,10,86,60,049,,87,51,284,,77,47,261,,70,32,049,,1*76
[2023-11-02 00:17:01.263] 
[2023-11-02 00:17:01.263] $GLGSV,3,2,10,71,29,108,20,76,23,208,,78,23,331,24,85,14,073,,1*71
[2023-11-02 00:17:01.332] 
[2023-11-02 00:17:01.333] $GLGSV,3,3,10,72,03,148,,88,03,265,,1*70
[2023-11-02 00:17:01.375] 
[2023-11-02 00:17:01.375] $GNGLL,5216.7038,N,02048.5594,E,001701.000,A,A*4F
[2023-11-02 00:17:01.428] 
[2023-11-02 00:17:01.429] $GPTXT,01,01,02,ANTSTATUS=OPEN*2B
[2023-11-02 00:17:01.463] 
[2023-11-02 00:17:01.685] $GNRMC,001702.000,A,5216.7038,N,02048.5594,E,0.00,207.89,021123,,,A,V*06
[2023-11-02 00:17:01.762] 
[2023-11-02 00:17:01.763] $GPVTG,207.89,T,,M,0.00,N,0.00,K,A*39
[2023-11-02 00:17:01.803] 
[2023-11-02 00:17:01.804] $GPGGA,001702.000,5216.7038,N,02048.5594,E,1,5,1.77,83.6,M,39.0,M,,*64
[2023-11-02 00:17:01.878] 
[2023-11-02 00:17:01.879] $GNGSA,A,3,29,26,27,16,,,,,,,,,2.03,1.77,0.98,1*0D
[2023-11-02 00:17:01.933] 
[2023-11-02 00:17:01.934] $GNGSA,A,3,71,,,,,,,,,,,,2.03,1.77,0.98,2*05
[2023-11-02 00:17:01.980] 
[2023-11-02 00:17:01.981] $GPGSV,3,1,12,18,62,066,10,16,60,246,16,23,53,137,,27,47,292,21,0*60
[2023-11-02 00:17:02.053] 
[2023-11-02 00:17:02.054] $GPGSV,3,2,12,26,43,206,18,10,28,175,15,15,16,081,20,29,13,109,22,0*6C
[2023-11-02 00:17:02.129] 
[2023-11-02 00:17:02.130] $GPGSV,3,3,12,07,09,335,,08,09,293,,13,09,044,16,05,05,033,,0*68
[2023-11-02 00:17:02.197] 
[2023-11-02 00:17:02.198] $GLGSV,3,1,10,86,60,049,,87,51,284,,77,47,261,,70,32,049,,1*76
[2023-11-02 00:17:02.264] 
[2023-11-02 00:17:02.265] $GLGSV,3,2,10,71,29,108,20,76,23,208,,78,23,331,24,85,14,073,,1*71
[2023-11-02 00:17:02.335] 
[2023-11-02 00:17:02.336] $GLGSV,3,3,10,72,03,148,,88,03,265,,1*70
[2023-11-02 00:17:02.379] 
[2023-11-02 00:17:02.380] $GNGLL,5216.7038,N,02048.5594,E,001702.000,A,A*4C
[2023-11-02 00:17:02.432] 
[2023-11-02 00:17:02.433] $GPTXT,01,01,02,ANTSTATUS=OPEN*2B
[2023-11-02 00:17:02.469] 
[2023-11-02 00:17:02.686] $GNRMC,001703.000,A,5216.7038,N,02048.5594,E,0.00,207.89,021123,,,A,V*07
[2023-11-02 00:17:02.762] 
[2023-11-02 00:17:02.764] $GPVTG,207.89,T,,M,0.00,N,0.00,K,A*39
[2023-11-02 00:17:02.803] 
[2023-11-02 00:17:02.804] $GPGGA,001703.000,5216.7038,N,02048.5594,E,1,5,1.77,83.6,M,39.0,M,,*65
[2023-11-02 00:17:02.877] 
[2023-11-02 00:17:02.878] $GNGSA,A,3,29,26,27,16,,,,,,,,,2.03,1.77,0.98,1*0D
[2023-11-02 00:17:02.931] 
[2023-11-02 00:17:02.932] $GNGSA,A,3,71,,,,,,,,,,,,2.03,1.77,0.98,2*05
[2023-11-02 00:17:02.979] 
[2023-11-02 00:17:02.980] $GPGSV,3,1,12,18,62,066,,16,60,246,16,23,53,137,,27,47,292,21,0*61
[2023-11-02 00:17:03.050] 
[2023-11-02 00:17:03.051] $GPGSV,3,2,12,26,43,206,18,10,28,175,15,15,16,081,21,29,13,109,22,0*6D
[2023-11-02 00:17:03.125] 
[2023-11-02 00:17:03.126] $GPGSV,3,3,12,07,09,335,,08,09,293,,13,09,044,16,05,05,033,,0*68
[2023-11-02 00:17:03.194] 
[2023-11-02 00:17:03.196] $GLGSV,3,1,10,86,60,049,,87,51,284,,77,47,261,,70,32,049,,1*76
[2023-11-02 00:17:03.261] 
[2023-11-02 00:17:03.262] $GLGSV,3,2,10,71,29,108,20,76,23,208,,78,23,331,24,85,14,073,,1*71
[2023-11-02 00:17:03.332] 
[2023-11-02 00:17:03.333] $GLGSV,3,3,10,72,03,148,,88,03,265,,1*70
[2023-11-02 00:17:03.375] 
[2023-11-02 00:17:03.376] $GNGLL,5216.7038,N,02048.5594,E,001703.000,A,A*4D
[2023-11-02 00:17:03.429] 
[2023-11-02 00:17:03.432] $GPTXT,01,01,02,ANTSTATUS=OPEN*2B
[2023-11-02 00:17:03.466] 
[2023-11-02 00:17:03.677] $GNRMC,001704.000,A,5216.7022,N,02048.5585,E,0.14,207.89,021123,,,A,V*0E
[2023-11-02 00:17:03.755] 
[2023-11-02 00:17:03.755] $GPVTG,207.89,T,,M,0.14,N,0.26,K,A*38
[2023-11-02 00:17:03.795] 
[2023-11-02 00:17:03.796] $GPGGA,001704.000,5216.7022,N,02048.5585,E,1,5,1.77,83.6,M,39.0,M,,*69
[2023-11-02 00:17:03.870] 
[2023-11-02 00:17:03.871] $GNGSA,A,3,29,26,27,16,,,,,,,,,2.03,1.77,0.98,1*0D
[2023-11-02 00:17:03.924] 
[2023-11-02 00:17:03.925] $GNGSA,A,3,71,,,,,,,,,,,,2.03,1.77,0.98,2*05
[2023-11-02 00:17:03.973] 
[2023-11-02 00:17:03.974] $GPGSV,3,1,12,18,62,066,,16,60,246,16,23,53,137,,27,47,292,21,0*61
[2023-11-02 00:17:04.042] 
[2023-11-02 00:17:04.043] $GPGSV,3,2,12,26,43,206,18,10,28,175,14,15,16,081,21,29,13,109,22,0*6C
[2023-11-02 00:17:04.117] 
[2023-11-02 00:17:04.118] $GPGSV,3,3,12,07,09,335,,08,09,293,,13,09,044,16,05,05,033,,0*68
[2023-11-02 00:17:04.186] 
[2023-11-02 00:17:04.190] $GLGSV,3,1,10,86,60,049,,87,51,284,,77,47,261,,70,32,049,,1*76
[2023-11-02 00:17:04.252] 
[2023-11-02 00:17:04.253] $GLGSV,3,2,10,71,29,108,20,76,23,208,,78,23,331,24,85,14,073,,1*71
[2023-11-02 00:17:04.323] 
[2023-11-02 00:17:04.324] $GLGSV,3,3,10,72,03,148,,88,03,265,,1*70
[2023-11-02 00:17:04.367] 
[2023-11-02 00:17:04.368] $GNGLL,5216.7022,N,02048.5585,E,001704.000,A,A*41
[2023-11-02 00:17:04.420] 
[2023-11-02 00:17:04.421] $GPTXT,01,01,02,ANTSTATUS=OPEN*2B
[2023-11-02 00:17:04.457] 
[2023-11-02 00:17:04.692] $GNRMC,001705.000,A,5216.7011,N,02048.5575,E,0.20,207.89,021123,,,A,V*07
[2023-11-02 00:17:04.768] 
[2023-11-02 00:17:04.770] $GPVTG,207.89,T,,M,0.20,N,0.38,K,A*30
[2023-11-02 00:17:04.810] 
[2023-11-02 00:17:04.810] $GPGGA,001705.000,5216.7011,N,02048.5575,E,1,5,1.77,83.7,M,39.0,M,,*66
[2023-11-02 00:17:04.884] 
[2023-11-02 00:17:04.885] $GNGSA,A,3,29,26,27,16,,,,,,,,,2.02,1.77,0.98,1*0C
[2023-11-02 00:17:04.938] 
[2023-11-02 00:17:04.939] $GNGSA,A,3,71,,,,,,,,,,,,2.02,1.77,0.98,2*04
[2023-11-02 00:17:04.986] 
[2023-11-02 00:17:04.987] $GPGSV,3,1,12,18,62,066,,16,60,246,16,23,53,137,,27,47,292,21,0*61
[2023-11-02 00:17:05.057] 
[2023-11-02 00:17:05.058] $GPGSV,3,2,12,26,43,206,18,10,28,175,13,15,16,081,21,29,13,109,22,0*6B
[2023-11-02 00:17:05.133] 
[2023-11-02 00:17:05.133] $GPGSV,3,3,12,07,09,335,,08,09,293,,13,09,044,16,05,05,033,,0*68
[2023-11-02 00:17:05.201] 
[2023-11-02 00:17:05.202] $GLGSV,3,1,10,86,60,049,,87,51,284,,77,47,261,,70,32,049,,1*76
[2023-11-02 00:17:05.269] 
[2023-11-02 00:17:05.270] $GLGSV,3,2,10,71,29,108,20,76,23,207,,78,23,331,24,85,14,073,,1*7E
[2023-11-02 00:17:05.339] 
[2023-11-02 00:17:05.340] $GLGSV,3,3,10,72,03,148,,88,03,265,,1*70
[2023-11-02 00:17:05.383] 
[2023-11-02 00:17:05.384] $GNGLL,5216.7011,N,02048.5575,E,001705.000,A,A*4F
[2023-11-02 00:17:05.436] 
[2023-11-02 00:17:05.437] $GPTXT,01,01,02,ANTSTATUS=OPEN*2B
[2023-11-02 00:17:05.472] 
[2023-11-02 00:17:05.689] $GNRMC,001706.000,A,5216.6995,N,02048.5555,E,0.22,207.89,021123,,,A,V*00
[2023-11-02 00:17:05.766] 
[2023-11-02 00:17:05.766] $GPVTG,207.89,T,,M,0.22,N,0.40,K,A*3D
[2023-11-02 00:17:05.806] 
[2023-11-02 00:17:05.807] $GPGGA,001706.000,5216.6995,N,02048.5555,E,1,5,1.77,83.7,M,39.0,M,,*63
[2023-11-02 00:17:05.880] 
[2023-11-02 00:17:05.881] $GNGSA,A,3,29,26,27,16,,,,,,,,,2.03,1.77,0.98,1*0D
[2023-11-02 00:17:05.936] 
[2023-11-02 00:17:05.936] $GNGSA,A,3,71,,,,,,,,,,,,2.03,1.77,0.98,2*05
[2023-11-02 00:17:05.982] 
[2023-11-02 00:17:05.984] $GPGSV,3,1,12,18,62,066,,16,60,246,16,23,53,137,,27,47,292,21,0*61
[2023-11-02 00:17:06.055] 
[2023-11-02 00:17:06.055] $GPGSV,3,2,12,26,43,206,18,10,28,175,14,15,16,081,21,29,13,109,22,0*6C
[2023-11-02 00:17:06.129] 
[2023-11-02 00:17:06.129] $GPGSV,3,3,12,07,09,335,,08,09,293,,13,09,044,16,05,05,033,,0*68
[2023-11-02 00:17:06.198] 
[2023-11-02 00:17:06.198] $GLGSV,3,1,10,86,60,049,,87,51,284,,77,47,260,,70,32,049,,1*77
[2023-11-02 00:17:06.264] 
[2023-11-02 00:17:06.265] $GLGSV,3,2,10,71,29,108,20,76,23,207,,78,23,331,24,85,14,073,,1*7E
[2023-11-02 00:17:06.334] 
[2023-11-02 00:17:06.335] $GLGSV,3,3,10,72,03,148,,88,03,265,,1*70
[2023-11-02 00:17:06.378] 
[2023-11-02 00:17:06.379] $GNGLL,5216.6995,N,02048.5555,E,001706.000,A,A*4A
[2023-11-02 00:17:06.432] 
[2023-11-02 00:17:06.432] $GPTXT,01,01,02,ANTSTATUS=OPEN*2B
[2023-11-02 00:17:06.470] 
[2023-11-02 00:17:06.689] $GNRMC,001707.000,A,5216.6982,N,02048.5543,E,0.20,207.89,021123,,,A,V*02
[2023-11-02 00:17:06.767] 
[2023-11-02 00:17:06.769] $GPVTG,207.89,T,,M,0.20,N,0.37,K,A*3F
[2023-11-02 00:17:06.807] 
[2023-11-02 00:17:06.809] $GPGGA,001707.000,5216.6982,N,02048.5543,E,1,5,1.77,83.8,M,39.0,M,,*6C
[2023-11-02 00:17:06.888] 
[2023-11-02 00:17:06.888] $GNGSA,A,3,29,26,27,16,,,,,,,,,2.03,1.77,0.98,1*0D
[2023-11-02 00:17:06.941] 
[2023-11-02 00:17:06.941] $GNGSA,A,3,71,,,,,,,,,,,,2.03,1.77,0.98,2*05
[2023-11-02 00:17:06.985] 
[2023-11-02 00:17:06.985] $GPGSV,3,1,12,18,62,066,,16,60,246,16,23,53,137,,27,47,292,21,0*61
[2023-11-02 00:17:07.064] 
[2023-11-02 00:17:07.066] $GPGSV,3,2,12,26,43,206,18,10,28,175,14,15,16,081,21,29,13,109,22,0*6C
[2023-11-02 00:17:07.137] 
