
[2023-10-29 21:24:01.821] Hello TSAT_P_P_001
[2023-10-29 21:24:06.092] Hello TSAT_P_P_001
[2023-10-29 21:24:06.552] $PMTK011,MTKGPS*08
[2023-10-29 21:24:06.574] 
[2023-10-29 21:24:06.574] $PMTK010,001*2E
[2023-10-29 21:24:06.590] 
[2023-10-29 21:24:07.351] $PMTK011,MTKGPS*08
[2023-10-29 21:24:07.372] 
[2023-10-29 21:24:07.378] $PMTK010,002*2D
[2023-10-29 21:24:07.393] 
[2023-10-29 21:24:07.449] $GPRMC,202407.545,V,,,,,0.00,0.00,291023,,,N,V*3B
[2023-10-29 21:24:07.502] 
[2023-10-29 21:24:07.505] $GPVTG,0.00,T,,M,0.00,N,0.00,K,N*32
[2023-10-29 21:24:07.540] 
[2023-10-29 21:24:07.540] $GPGGA,202407.545,,,,,0,0,,,M,,M,,*4F
[2023-10-29 21:24:07.583] 
[2023-10-29 21:24:07.583] $GPGSA,A,1,,,,,,,,,,,,,,,,1*03
[2023-10-29 21:24:07.616] 
[2023-10-29 21:24:07.616] $GPGSA,A,1,,,,,,,,,,,,,,,,2*00
[2023-10-29 21:24:07.647] 
[2023-10-29 21:24:07.647] $GPGSV,3,1,11,25,82,121,,29,60,234,,28,47,289,26,12,41,107,,0*6E
[2023-10-29 21:24:07.717] 
[2023-10-29 21:24:07.717] $GPGSV,3,2,11,11,40,063,,31,27,311,,20,16,092,,06,14,035,,0*6A
[2023-10-29 21:24:07.785] 
[2023-10-29 21:24:07.785] $GPGSV,3,3,11,32,07,247,,26,02,294,,05,01,121,,0*5D
[2023-10-29 21:24:07.837] 
[2023-10-29 21:24:07.837] $GLGSV,1,1,03,81,75,079,,80,58,316,,82,44,197,,1*4A
[2023-10-29 21:24:07.894] 
[2023-10-29 21:24:07.894] $GPGLL,,,,,202407.545,V,N*7D
[2023-10-29 21:24:07.925] 
[2023-10-29 21:24:07.927] $GPTXT,01,01,02,ANTSTATUS=OPEN*2B
[2023-10-29 21:24:07.961] 
[2023-10-29 21:24:07.964] $GPRMC,202407.699,V,,,,,0.00,0.00,291023,,,N,V*39
[2023-10-29 21:24:08.015] 
[2023-10-29 21:24:08.015] $GPVTG,0.00,T,,M,0.00,N,0.00,K,N*32
[2023-10-29 21:24:08.053] 
[2023-10-29 21:24:08.053] $GPGGA,202407.699,,,,,0,0,,,M,,M,,*4D
[2023-10-29 21:24:08.095] 
[2023-10-29 21:24:08.095] $GPGSA,A,1,,,,,,,,,,,,,,,,1*03
[2023-10-29 21:24:08.127] 
[2023-10-29 21:24:08.127] $GPGSA,A,1,,,,,,,,,,,,,,,,2*00
[2023-10-29 21:24:08.161] 
[2023-10-29 21:24:08.165] $GPGSV,3,1,11,25,82,121,,29,60,234,,28,47,289,26,12,41,107,,0*6E
[2023-10-29 21:24:08.229] 
[2023-10-29 21:24:08.229] $GPGSV,3,2,11,11,40,063,,31,27,311,,20,16,092,,06,14,035,,0*6A
[2023-10-29 21:24:08.295] 
[2023-10-29 21:24:08.298] $GPGSV,3,3,11,32,07,247,,26,02,294,,05,01,121,,0*5D
[2023-10-29 21:24:08.351] 
[2023-10-29 21:24:08.353] $GLGSV,1,1,03,81,75,079,,80,58,316,,82,44,197,,1*4A
[2023-10-29 21:24:08.406] 
[2023-10-29 21:24:08.408] $GPGLL,,,,,202407.699,V,N*7F
[2023-10-29 21:24:08.439] 
[2023-10-29 21:24:08.439] $GPTXT,01,01,02,ANTSTATUS=OPEN*2B
[2023-10-29 21:24:08.479] 
[2023-10-29 21:24:08.591] $GPRMC,202408.699,V,,,,,0.00,0.00,291023,,,N,V*36
[2023-10-29 21:24:08.644] 
[2023-10-29 21:24:08.649] $GPVTG,0.00,T,,M,0.00,N,0.00,K,N*32
[2023-10-29 21:24:08.683] 
[2023-10-29 21:24:08.683] $GPGGA,202408.699,,,,,0,0,,,M,,M,,*42
[2023-10-29 21:24:08.723] 
[2023-10-29 21:24:08.723] $GPGSA,A,1,,,,,,,,,,,,,,,,1*03
[2023-10-29 21:24:08.755] 
[2023-10-29 21:24:08.757] $GPGSA,A,1,,,,,,,,,,,,,,,,2*00
[2023-10-29 21:24:08.790] 
[2023-10-29 21:24:08.790] $GPGSV,3,1,11,25,82,121,,29,60,234,,28,47,289,27,12,41,107,,0*6F
[2023-10-29 21:24:08.857] 
[2023-10-29 21:24:08.860] $GPGSV,3,2,11,11,40,063,,31,27,311,,20,16,092,,06,14,035,,0*6A
[2023-10-29 21:24:08.924] 
[2023-10-29 21:24:08.926] $GPGSV,3,3,11,32,07,247,,26,02,294,,05,01,121,,0*5D
[2023-10-29 21:24:08.980] 
[2023-10-29 21:24:08.980] $GLGSV,1,1,03,81,75,079,,80,58,316,,82,44,197,,1*4A
[2023-10-29 21:24:09.036] 
[2023-10-29 21:24:09.036] $GPGLL,,,,,202408.699,V,N*70
[2023-10-29 21:24:09.068] 
[2023-10-29 21:24:09.068] $GPTXT,01,01,02,ANTSTATUS=OPEN*2B
[2023-10-29 21:24:09.106] 
[2023-10-29 21:24:09.595] $GPRMC,202409.699,V,,,,,0.17,0.00,291023,,,N,V*31
[2023-10-29 21:24:09.653] 
[2023-10-29 21:24:09.653] $GPVTG,0.00,T,,M,0.17,N,0.32,K,N*35
[2023-10-29 21:24:09.688] 
[2023-10-29 21:24:09.688] $GPGGA,202409.699,,,,,0,0,,,M,,M,,*43
[2023-10-29 21:24:09.727] 
[2023-10-29 21:24:09.729] $GPGSA,A,1,,,,,,,,,,,,,,,,1*03
[2023-10-29 21:24:09.763] 
[2023-10-29 21:24:09.765] $GPGSA,A,1,,,,,,,,,,,,,,,,2*00
[2023-10-29 21:24:09.794] 
[2023-10-29 21:24:09.796] $GPGSV,3,1,11,25,82,121,,29,60,234,,28,47,289,27,12,41,107,,0*6F
[2023-10-29 21:24:09.863] 
[2023-10-29 21:24:09.863] $GPGSV,3,2,11,11,40,063,21,31,27,311,24,20,16,092,,06,14,035,,0*6F
[2023-10-29 21:24:09.935] 
[2023-10-29 21:24:09.935] $GPGSV,3,3,11,32,07,247,,26,02,294,,05,01,121,,0*5D
[2023-10-29 21:24:09.991] 
[2023-10-29 21:24:09.991] $GLGSV,1,1,03,81,75,079,,80,58,316,,82,44,197,,1*4A
[2023-10-29 21:24:10.047] 
[2023-10-29 21:24:10.047] $GPGLL,,,,,202409.699,V,N*71
[2023-10-29 21:24:10.077] 
[2023-10-29 21:24:10.077] $GPTXT,01,01,02,ANTSTATUS=OPEN*2B
[2023-10-29 21:24:10.104] 
[2023-10-29 21:24:10.626] $GPRMC,202410.699,V,,,,,0.08,0.00,291023,,,N,V*37
[2023-10-29 21:24:10.683] 
[2023-10-29 21:24:10.683] $GPVTG,0.00,T,,M,0.08,N,0.14,K,N*3F
[2023-10-29 21:24:10.718] 
[2023-10-29 21:24:10.720] $GPGGA,202410.699,,,,,0,0,,,M,,M,,*4B
[2023-10-29 21:24:10.758] 
[2023-10-29 21:24:10.759] $GPGSA,A,1,,,,,,,,,,,,,,,,1*03
[2023-10-29 21:24:10.792] 
[2023-10-29 21:24:10.793] $GPGSA,A,1,,,,,,,,,,,,,,,,2*00
[2023-10-29 21:24:10.826] 
[2023-10-29 21:24:10.826] $GPGSV,3,1,11,25,82,121,,29,60,234,,28,47,289,27,12,41,107,18,0*66
[2023-10-29 21:24:10.895] 
[2023-10-29 21:24:10.897] $GPGSV,3,2,11,11,40,063,18,31,27,311,22,20,16,092,,06,14,035,,0*63
[2023-10-29 21:24:10.970] 
[2023-10-29 21:24:10.970] $GPGSV,3,3,11,32,07,247,,26,02,294,,05,01,121,,0*5D
[2023-10-29 21:24:11.023] 
[2023-10-29 21:24:11.023] $GLGSV,1,1,03,81,75,079,,80,58,316,,82,44,197,,1*4A
[2023-10-29 21:24:11.076] 
[2023-10-29 21:24:11.079] $GPGLL,,,,,202410.699,V,N*79
[2023-10-29 21:24:11.105] 
[2023-10-29 21:24:11.105] $GPTXT,01,01,02,ANTSTATUS=OPEN*2B
[2023-10-29 21:24:11.147] 
[2023-10-29 21:24:11.625] $GPRMC,202411.699,V,,,,,0.21,0.00,291023,,,N,V*3D
[2023-10-29 21:24:11.681] 
[2023-10-29 21:24:11.681] $GPVTG,0.00,T,,M,0.21,N,0.39,K,N*3B
[2023-10-29 21:24:11.718] 
[2023-10-29 21:24:11.718] $GPGGA,202411.699,,,,,0,0,,,M,,M,,*4A
[2023-10-29 21:24:11.757] 
[2023-10-29 21:24:11.757] $GPGSA,A,1,,,,,,,,,,,,,,,,1*03
[2023-10-29 21:24:11.790] 
[2023-10-29 21:24:11.791] $GPGSA,A,1,,,,,,,,,,,,,,,,2*00
[2023-10-29 21:24:11.825] 
[2023-10-29 21:24:11.825] $GPGSV,3,1,11,25,82,121,,29,60,234,,28,47,289,27,12,41,107,18,0*66
[2023-10-29 21:24:11.894] 
[2023-10-29 21:24:11.896] $GPGSV,3,2,11,11,40,063,17,31,27,311,23,20,16,092,,06,14,035,,0*6D
[2023-10-29 21:24:11.967] 
[2023-10-29 21:24:11.967] $GPGSV,3,3,11,32,07,247,,26,02,294,,05,01,121,,0*5D
[2023-10-29 21:24:12.022] 
[2023-10-29 21:24:12.022] $GLGSV,1,1,03,81,75,079,,80,58,316,,82,44,197,,1*4A
[2023-10-29 21:24:12.079] 
[2023-10-29 21:24:12.082] $GPGLL,,,,,202411.699,V,N*78
[2023-10-29 21:24:12.111] 
[2023-10-29 21:24:12.111] $GPTXT,01,01,02,ANTSTATUS=OPEN*2B
[2023-10-29 21:24:12.146] 
[2023-10-29 21:24:12.624] $GPRMC,202412.699,V,,,,,0.19,0.00,291023,,,N,V*35
[2023-10-29 21:24:12.684] 
[2023-10-29 21:24:12.684] $GPVTG,0.00,T,,M,0.19,N,0.36,K,N*3F
[2023-10-29 21:24:12.719] 
[2023-10-29 21:24:12.719] $GPGGA,202412.699,,,,,0,0,,,M,,M,,*49
[2023-10-29 21:24:12.756] 
[2023-10-29 21:24:12.756] $GPGSA,A,1,,,,,,,,,,,,,,,,1*03
[2023-10-29 21:24:12.791] 
[2023-10-29 21:24:12.792] $GPGSA,A,1,,,,,,,,,,,,,,,,2*00
[2023-10-29 21:24:12.831] 
[2023-10-29 21:24:12.831] $GPGSV,3,1,11,25,82,121,,29,60,234,,28,47,289,27,12,41,107,18,0*66
[2023-10-29 21:24:12.894] 
[2023-10-29 21:24:12.894] $GPGSV,3,2,11,11,40,063,17,31,27,311,24,20,16,092,,06,14,035,,0*6A
[2023-10-29 21:24:12.998] 
[2023-10-29 21:24:13.013] $GPGSV,3,3,11,32,07,247,,26,02,294,,05,01,121,,0*5D
[2023-10-29 21:24:13.019] 
[2023-10-29 21:24:13.022] $GLGSV,1,1,03,81,75,079,,80,58,316,,82,44,197,,1*4A
[2023-10-29 21:24:13.075] 
[2023-10-29 21:24:13.077] $GPGLL,,,,,202412.699,V,N*7B
[2023-10-29 21:24:13.108] 
[2023-10-29 21:24:13.108] $GPTXT,01,01,02,ANTSTATUS=OPEN*2B
[2023-10-29 21:24:13.143] 
[2023-10-29 21:24:13.621] $GPRMC,202413.699,V,,,,,0.14,0.00,291023,,,N,V*39
[2023-10-29 21:24:13.677] 
[2023-10-29 21:24:13.681] $GPVTG,0.00,T,,M,0.14,N,0.26,K,N*33
[2023-10-29 21:24:13.715] 
[2023-10-29 21:24:13.715] $GPGGA,202413.699,,,,,0,0,,,M,,M,,*48
[2023-10-29 21:24:13.754] 
[2023-10-29 21:24:13.754] $GPGSA,A,1,,,,,,,,,,,,,,,,1*03
[2023-10-29 21:24:13.788] 
[2023-10-29 21:24:13.788] $GPGSA,A,1,,,,,,,,,,,,,,,,2*00
[2023-10-29 21:24:13.820] 
[2023-10-29 21:24:13.820] $GPGSV,3,1,11,25,82,121,,29,60,234,,28,47,289,27,12,41,107,19,0*67
[2023-10-29 21:24:13.891] 
[2023-10-29 21:24:13.891] $GPGSV,3,2,11,11,40,063,17,31,27,311,23,20,16,092,,06,14,035,16,0*6A
[2023-10-29 21:24:13.965] 
[2023-10-29 21:24:13.965] $GPGSV,3,3,11,32,07,247,,26,02,294,,05,01,121,,0*5D
[2023-10-29 21:24:14.021] 
[2023-10-29 21:24:14.021] $GLGSV,1,1,03,81,75,079,,80,58,316,,82,44,197,,1*4A
[2023-10-29 21:24:14.075] 
[2023-10-29 21:24:14.075] $GPGLL,,,,,202413.699,V,N*7A
[2023-10-29 21:24:14.107] 
[2023-10-29 21:24:14.107] $GPTXT,01,01,02,ANTSTATUS=OPEN*2B
[2023-10-29 21:24:14.147] 
[2023-10-29 21:24:14.243] $GPRMC,202414.199,V,,,,,0.08,0.00,291023,,,N,V*34
[2023-10-29 21:24:14.299] 
[2023-10-29 21:24:14.301] $GPVTG,0.00,T,,M,0.08,N,0.15,K,N*3E
[2023-10-29 21:24:14.336] 
[2023-10-29 21:24:14.336] $GPGGA,202414.199,,,,,0,0,,,M,,M,,*48
[2023-10-29 21:24:14.375] 
[2023-10-29 21:24:14.377] $GPGSA,A,1,,,,,,,,,,,,,,,,1*03
[2023-10-29 21:24:14.412] 
[2023-10-29 21:24:14.412] $GPGSA,A,1,,,,,,,,,,,,,,,,2*00
[2023-10-29 21:24:14.443] 
[2023-10-29 21:24:14.443] $GPGSV,3,1,11,25,82,121,,29,60,234,,28,47,289,27,12,41,107,19,0*67
[2023-10-29 21:24:14.517] 
[2023-10-29 21:24:14.517] $GPGSV,3,2,11,11,40,063,17,31,27,311,23,20,16,092,,06,14,035,15,0*69
[2023-10-29 21:24:14.588] 
[2023-10-29 21:24:14.588] $GPGSV,3,3,11,32,07,247,,26,02,294,,05,01,121,,0*5D
[2023-10-29 21:24:14.641] 
[2023-10-29 21:24:14.643] $GLGSV,1,1,03,81,75,079,,80,58,316,,82,44,197,,1*4A
[2023-10-29 21:24:14.696] 
[2023-10-29 21:24:14.699] $GPGLL,,,,,202414.199,V,N*7A
[2023-10-29 21:24:14.731] 
[2023-10-29 21:24:14.731] $GPTXT,01,01,02,ANTSTATUS=OPEN*2B
[2023-10-29 21:24:14.766] 
[2023-10-29 21:24:15.121] $GPRMC,202415.199,V,,,,,0.18,0.00,291023,,,N,V*34
[2023-10-29 21:24:15.185] 
[2023-10-29 21:24:15.185] $GPVTG,0.00,T,,M,0.18,N,0.34,K,N*3C
[2023-10-29 21:24:15.216] 
[2023-10-29 21:24:15.221] $GPGGA,202415.199,,,,,0,0,,,M,,M,,*49
[2023-10-29 21:24:15.258] 
[2023-10-29 21:24:15.258] $GPGSA,A,1,,,,,,,,,,,,,,,,1*03
[2023-10-29 21:24:15.291] 
[2023-10-29 21:24:15.291] $GPGSA,A,1,,,,,,,,,,,,,,,,2*00
[2023-10-29 21:24:15.323] 
[2023-10-29 21:24:15.323] $GPGSV,3,1,11,25,82,121,,29,60,234,18,28,47,289,27,12,41,107,19,0*6E
[2023-10-29 21:24:15.395] 
[2023-10-29 21:24:15.395] $GPGSV,3,2,11,11,40,063,17,31,27,311,23,20,16,092,,06,14,035,15,0*69
[2023-10-29 21:24:15.467] 
[2023-10-29 21:24:15.467] $GPGSV,3,3,11,32,07,247,,26,02,294,,05,01,121,,0*5D
[2023-10-29 21:24:15.522] 
[2023-10-29 21:24:15.522] $GLGSV,1,1,03,81,75,079,,80,58,316,,82,44,197,,1*4A
[2023-10-29 21:24:15.580] 
[2023-10-29 21:24:15.580] $GPGLL,,,,,202415.199,V,N*7B
[2023-10-29 21:24:15.605] 
[2023-10-29 21:24:15.605] $GPTXT,01,01,02,ANTSTATUS=OPEN*2B
[2023-10-29 21:24:15.645] 
[2023-10-29 21:24:16.136] $GNRMC,202416.199,A,5216.7054,N,02048.5576,E,0.17,0.00,291023,,,A,V*0C
[2023-10-29 21:24:16.216] 
[2023-10-29 21:24:16.216] $GPVTG,0.00,T,,M,0.17,N,0.31,K,A*39
[2023-10-29 21:24:16.252] 
[2023-10-29 21:24:16.252] $GPGGA,202416.199,5216.7054,N,02048.5576,E,1,4,2.68,68.2,M,39.0,M,,*69
[2023-10-29 21:24:16.323] 
[2023-10-29 21:24:16.325] $GNGSA,A,3,11,31,06,28,,,,,,,,,2.86,2.68,1.00,1*0E
[2023-10-29 21:24:16.378] 
[2023-10-29 21:24:16.380] $GNGSA,A,3,,,,,,,,,,,,,2.86,2.68,1.00,2*03
[2023-10-29 21:24:16.426] 
[2023-10-29 21:24:16.426] $GPGSV,3,1,11,25,82,121,,29,60,234,17,28,47,289,27,12,41,107,19,0*61
[2023-10-29 21:24:16.504] 
[2023-10-29 21:24:16.504] $GPGSV,3,2,11,11,40,063,17,31,27,311,23,20,16,092,,06,14,035,16,0*6A
[2023-10-29 21:24:16.572] 
[2023-10-29 21:24:16.572] $GPGSV,3,3,11,32,07,247,,26,02,294,,05,01,121,,0*5D
[2023-10-29 21:24:16.628] 
[2023-10-29 21:24:16.628] $GLGSV,1,1,03,81,75,079,,80,58,316,,82,44,197,,1*4A
[2023-10-29 21:24:16.682] 
[2023-10-29 21:24:16.682] $GNGLL,5216.7054,N,02048.5576,E,202416.199,A,A*4C
[2023-10-29 21:24:16.739] 
